#Time,Rho,X,Z,Alt,AoA,GSE,LUE,Vtot,Vy,Gamma,Pitch,Roll,Yaw,Step,Grade,Points,Details
0.00,15.460,28785.2,-736.7,726.4,2.28,-3.06,-10.60,341.7,-0.1,9.3,2.3,4.6,-0.0,n/a,OK,4.0,    
0.50,15.415,28700.8,-735.5,726.4,2.28,-3.06,-10.60,341.9,7.2,9.4,2.3,4.6,-0.0,n/a,OK,4.0,    
1.00,15.369,28616.2,-734.0,726.5,2.30,-3.06,-10.60,342.2,20.9,9.5,2.3,4.5,-0.0,n/a,OK,4.0,    
1.50,15.323,28531.6,-732.4,726.8,2.27,-3.05,-10.60,342.3,33.5,9.6,2.3,4.4,-0.0,n/a,OK,4.0,    
2.00,15.278,28447.0,-730.7,727.1,2.17,-3.05,-10.61,342.0,36.1,9.8,2.2,4.3,-0.0,n/a,OK,4.0,    
2.50,15.232,28362.5,-728.7,727.3,2.23,-3.05,-10.61,341.6,4.0,9.9,2.2,4.2,-0.0,n/a,OK,4.0,    
3.00,15.186,28278.1,-726.6,727.3,2.24,-3.05,-10.61,341.4,2.9,10.0,2.3,4.1,-0.0,n/a,OK,4.0,    
3.50,15.141,28193.7,-724.3,727.3,2.28,-3.05,-10.61,341.5,-8.2,10.1,2.3,3.9,-0.0,n/a,OK,4.0,    
4.00,15.095,28109.3,-721.9,727.2,2.26,-3.05,-10.60,341.9,6.2,10.2,2.3,3.7,-0.0,n/a,OK,4.0,    
4.50,15.050,28024.7,-719.2,727.3,2.23,-3.05,-10.60,342.3,5.0,10.2,2.2,3.6,-0.0,n/a,OK,4.0,    
5.00,15.004,27940.1,-716.5,727.3,2.24,-3.04,-10.60,342.4,0.6,10.3,2.2,3.4,-0.0,n/a,OK,4.0,    
5.50,14.958,27855.5,-713.6,727.3,2.24,-3.04,-10.60,342.5,-4.6,10.4,2.2,3.2,-0.0,n/a,OK,4.0,    
6.00,14.912,27770.8,-710.6,727.2,2.18,-3.04,-10.60,342.5,-11.4,10.4,2.2,3.0,-0.0,n/a,OK,4.0,    
6.50,14.867,27686.2,-707.4,727.1,2.27,-3.04,-10.60,342.3,-27.7,10.5,2.3,2.8,-0.0,n/a,OK,4.0,    
7.00,14.821,27601.7,-704.2,726.9,2.28,-3.04,-10.60,341.9,-19.3,10.6,2.3,2.6,-0.0,n/a,OK,4.0,    
7.50,14.775,27517.3,-700.8,726.7,2.25,-3.04,-10.59,341.5,-21.1,10.6,2.2,2.4,-0.0,n/a,OK,4.0,    
8.00,14.730,27432.9,-697.4,726.5,2.26,-3.04,-10.59,341.4,-21.2,10.6,2.2,2.2,-0.0,n/a,OK,4.0,    
8.50,14.684,27348.6,-693.8,726.4,2.28,-3.03,-10.59,341.3,-14.4,10.7,2.3,1.9,-0.0,n/a,OK,4.0,    
9.00,14.639,27264.3,-690.2,726.3,2.24,-3.03,-10.58,341.4,-10.2,10.8,2.2,1.7,-0.0,n/a,OK,4.0,    
9.50,14.593,27180.0,-686.5,726.2,2.26,-3.03,-10.58,341.4,-13.3,10.8,2.2,1.5,-0.0,n/a,OK,4.0,    
10.00,14.548,27095.7,-682.7,726.1,2.22,-3.03,-10.58,341.6,-12.0,10.8,2.2,1.2,-0.0,n/a,OK,4.0,    
10.50,14.502,27011.2,-678.9,725.9,2.22,-3.03,-10.57,342.1,-26.4,10.8,2.2,1.0,-0.0,n/a,OK,4.0,    
11.00,14.456,26926.7,-675.0,725.7,2.30,-3.03,-10.57,342.3,-32.9,10.8,2.3,0.8,-0.0,n/a,OK,4.0,    
11.50,14.411,26842.2,-671.1,725.4,2.27,-3.03,-10.57,342.0,-17.7,10.8,2.3,0.5,-0.0,n/a,OK,4.0,    
12.00,14.365,26757.8,-667.1,725.3,2.26,-3.03,-10.56,341.6,-15.5,10.9,2.2,0.3,-0.0,n/a,OK,4.0,    
12.50,14.319,26673.4,-663.2,725.2,2.21,-3.02,-10.56,341.5,-5.3,10.9,2.2,0.1,-0.0,n/a,OK,4.0,    
13.00,14.274,26589.1,-659.2,725.1,2.21,-3.02,-10.55,341.4,-17.4,10.9,2.2,-0.1,-0.0,n/a,OK,4.0,    
13.50,14.228,26504.8,-655.3,724.9,2.26,-3.02,-10.55,341.4,-28.4,10.9,2.2,-0.2,-0.0,n/a,OK,4.0,    
14.00,14.183,26420.4,-651.3,724.7,2.26,-3.02,-10.55,341.6,-22.5,10.9,2.2,-0.4,-0.0,n/a,OK,4.0,    
14.50,14.137,26336.0,-647.4,724.5,2.25,-3.02,-10.54,341.8,-15.9,10.8,2.2,-0.6,-0.0,n/a,OK,4.0,    
15.00,14.091,26251.6,-643.5,724.4,2.26,-3.02,-10.54,341.9,-11.9,10.8,2.2,-0.7,-0.0,n/a,OK,4.0,    
15.50,14.046,26167.2,-639.7,724.4,2.24,-3.02,-10.53,341.9,-6.9,10.8,2.2,-0.9,-0.0,n/a,OK,4.0,    
16.00,14.000,26082.7,-635.9,724.3,2.23,-3.01,-10.53,342.0,-11.7,10.8,2.2,-1.0,-0.0,n/a,OK,4.0,    
16.50,13.954,25998.2,-632.1,724.2,2.28,-3.01,-10.53,342.1,-9.9,10.8,2.2,-1.2,-0.0,n/a,OK,4.0,    
17.00,13.909,25913.7,-628.3,724.1,2.26,-3.01,-10.52,341.7,-1.2,10.8,2.2,-1.3,-0.0,n/a,OK,4.0,    
17.50,13.863,25829.3,-624.6,724.1,2.23,-3.01,-10.52,341.9,0.8,10.7,2.2,-1.5,-0.0,n/a,OK,4.0,    
18.00,13.818,25744.9,-621.0,724.1,2.19,-3.01,-10.52,341.8,-9.3,10.6,2.2,-1.6,-0.0,n/a,OK,4.0,    
18.50,13.772,25660.5,-617.5,723.9,2.25,-3.01,-10.51,341.6,-25.6,10.5,2.3,-1.7,-0.0,n/a,OK,4.0,    
19.00,13.726,25576.1,-614.0,723.8,2.26,-3.00,-10.51,341.3,-18.0,10.5,2.3,-1.8,-0.0,n/a,OK,4.0,    
19.50,13.681,25491.8,-610.5,723.6,2.28,-3.00,-10.51,341.4,-22.5,10.4,2.3,-1.9,-0.0,n/a,OK,4.0,    
20.00,13.635,25407.4,-607.2,723.5,2.31,-3.00,-10.50,341.7,-5.0,10.5,2.3,-2.0,-0.0,n/a,OK,4.0,    
20.50,13.590,25323.0,-604.0,723.5,2.26,-3.00,-10.50,341.9,8.8,10.5,2.3,-2.0,-0.0,n/a,OK,4.0,    
21.00,13.544,25238.5,-600.8,723.6,2.24,-3.00,-10.50,342.0,10.2,10.4,2.3,-2.1,-0.0,n/a,OK,4.0,    
21.50,13.498,25154.0,-597.7,723.7,2.23,-3.00,-10.49,342.0,13.3,10.4,2.3,-2.1,-0.0,n/a,OK,4.0,    
22.00,13.453,25069.4,-594.7,723.7,2.23,-2.99,-10.49,342.1,1.9,10.4,2.3,-2.1,-0.0,n/a,OK,4.0,    
22.50,13.407,24984.9,-591.8,723.7,2.27,-2.99,-10.49,342.4,-3.7,10.3,2.4,-2.1,-0.0,n/a,OK,4.0,    
23.00,13.361,24900.2,-588.9,723.7,2.28,-2.99,-10.49,342.5,9.1,10.2,2.4,-2.1,-0.0,n/a,OK,4.0,    
23.50,13.316,24815.6,-586.2,723.8,2.24,-2.99,-10.49,342.5,12.0,10.1,2.3,-2.1,-0.0,n/a,OK,4.0,    
24.00,13.270,24731.0,-583.5,723.9,2.25,-2.99,-10.48,342.0,10.9,10.0,2.3,-2.1,-0.0,n/a,OK,4.0,    
24.50,13.224,24646.5,-580.9,724.0,2.25,-2.99,-10.48,341.5,10.2,10.0,2.3,-2.1,-0.0,n/a,OK,4.0,    
25.00,13.179,24562.2,-578.4,724.1,2.26,-2.98,-10.48,341.4,11.1,9.9,2.3,-2.1,-0.0,n/a,OK,4.0,    
25.50,13.133,24477.8,-576.0,724.2,2.27,-2.98,-10.48,341.8,17.2,9.9,2.3,-2.0,-0.0,n/a,OK,4.0,    
26.00,13.087,24393.2,-573.7,724.4,2.27,-2.98,-10.48,342.1,28.3,9.8,2.3,-2.0,-0.0,n/a,OK,4.0,    
26.50,13.042,24308.7,-571.4,724.7,2.24,-2.98,-10.48,341.9,34.4,9.8,2.3,-1.9,-0.0,n/a,OK,4.0,    
27.00,12.996,24224.2,-569.3,724.9,2.23,-2.98,-10.48,341.5,26.2,9.7,2.2,-1.8,-0.0,n/a,OK,4.0,    
27.50,12.951,24139.9,-567.2,725.1,2.20,-2.97,-10.48,341.3,20.2,9.7,2.2,-1.8,-0.0,n/a,OK,4.0,    
28.00,12.905,24055.5,-565.2,725.2,2.18,-2.97,-10.48,341.8,0.1,9.7,2.2,-1.7,-0.0,n/a,OK,4.0,    
28.50,12.859,23970.9,-563.3,725.1,2.20,-2.97,-10.48,342.2,-17.0,9.6,2.3,-1.6,-0.0,n/a,OK,4.0,    
29.00,12.814,23886.3,-561.4,724.9,2.27,-2.97,-10.48,342.2,-33.7,9.6,2.3,-1.6,-0.0,n/a,OK,4.0,    
29.50,12.768,23801.8,-559.6,724.7,2.31,-2.97,-10.48,342.1,-21.5,9.6,2.3,-1.5,-0.0,n/a,OK,4.0,    
30.00,12.722,23717.2,-557.8,724.6,2.27,-2.96,-10.48,342.1,-5.5,9.5,2.3,-1.4,-0.0,n/a,OK,4.0,    
30.50,12.677,23632.6,-556.2,724.6,2.24,-2.96,-10.48,342.3,3.4,9.5,2.2,-1.3,-0.0,n/a,OK,4.0,    
31.00,12.631,23548.0,-554.5,724.6,2.27,-2.96,-10.48,342.7,6.9,9.5,2.2,-1.2,-0.0,n/a,OK,4.0,    
31.50,12.585,23463.2,-553.0,724.7,2.23,-2.96,-10.48,342.7,7.5,9.5,2.2,-1.1,-0.0,n/a,OK,4.0,    
32.00,12.539,23378.6,-551.4,724.7,2.23,-2.96,-10.48,342.2,-7.2,9.5,2.2,-1.0,-0.0,n/a,OK,4.0,    
32.50,12.494,23294.0,-549.9,724.6,2.23,-2.95,-10.49,341.7,-16.4,9.4,2.2,-0.8,-0.0,n/a,OK,4.0,    
33.00,12.448,23209.6,-548.4,724.4,2.29,-2.95,-10.49,341.5,-22.8,9.3,2.3,-0.8,-0.0,n/a,OK,4.0,    
33.50,12.403,23125.2,-547.0,724.3,2.29,-2.95,-10.49,341.7,0.9,9.3,2.2,-0.7,-0.0,n/a,OK,4.0,    
34.00,12.357,23040.7,-545.6,724.4,2.19,-2.95,-10.49,341.9,5.8,9.3,2.2,-0.6,-0.0,n/a,OK,4.0,    
34.50,12.311,22956.1,-544.2,724.3,2.25,-2.95,-10.49,342.1,-9.1,9.3,2.2,-0.5,-0.0,n/a,OK,4.0,    
35.00,12.266,22871.6,-542.8,724.3,2.24,-2.95,-10.49,342.0,0.2,9.3,2.2,-0.4,-0.0,n/a,OK,4.0,    
35.50,12.220,22787.1,-541.5,724.2,2.25,-2.94,-10.49,341.7,-12.3,9.3,2.2,-0.2,-0.0,n/a,OK,4.0,    
36.00,12.174,22702.6,-540.1,724.1,2.19,-2.94,-10.50,341.5,-14.1,9.3,2.2,-0.1,-0.0,n/a,OK,4.0,    
36.50,12.129,22618.2,-538.8,723.9,2.24,-2.94,-10.50,341.4,-31.5,9.3,2.2,-0.1,-0.0,n/a,OK,4.0,    
37.00,12.083,22533.8,-537.5,723.7,2.27,-2.94,-10.50,341.5,-18.4,9.3,2.2,0.0,-0.0,n/a,OK,4.0,    
37.50,12.038,22449.4,-536.2,723.6,2.26,-2.94,-10.50,341.6,-17.5,9.4,2.2,0.1,-0.0,n/a,OK,4.0,    
38.00,11.992,22364.9,-534.9,723.4,2.23,-2.93,-10.50,341.9,-18.7,9.4,2.2,0.2,-0.0,n/a,OK,4.0,    
38.50,11.946,22280.3,-533.6,723.3,2.24,-2.93,-10.50,342.2,-19.3,9.4,2.3,0.3,-0.0,n/a,OK,4.0,    
39.00,11.901,22195.8,-532.2,723.1,2.26,-2.93,-10.51,341.9,-17.3,9.3,2.3,0.4,-0.0,n/a,OK,4.0,    
39.50,11.855,22111.3,-530.9,723.0,2.24,-2.93,-10.51,341.2,-17.1,9.3,2.3,0.4,-0.0,n/a,OK,4.0,    
40.00,11.810,22027.0,-529.5,722.8,2.27,-2.92,-10.51,340.9,-19.9,9.3,2.3,0.5,-0.0,n/a,OK,4.0,    
40.50,11.764,21942.7,-528.1,722.7,2.32,-2.92,-10.51,341.2,0.9,9.3,2.3,0.6,-0.0,n/a,OK,4.0,    
41.00,11.718,21858.3,-526.7,722.8,2.27,-2.92,-10.51,341.5,21.8,9.4,2.3,0.6,-0.0,n/a,OK,4.0,    
41.50,11.673,21773.9,-525.2,723.0,2.25,-2.92,-10.51,341.7,27.8,9.4,2.2,0.7,-0.0,n/a,OK,4.0,    
42.00,11.627,21689.4,-523.8,723.3,2.21,-2.92,-10.52,341.9,31.9,9.4,2.2,0.7,-0.0,n/a,OK,4.0,    
42.50,11.582,21604.9,-522.3,723.5,2.22,-2.91,-10.52,342.3,18.4,9.4,2.2,0.8,-0.0,n/a,OK,4.0,    
43.00,11.536,21520.2,-520.7,723.7,2.22,-2.91,-10.52,342.4,13.8,9.4,2.2,0.8,-0.0,n/a,OK,4.0,    
43.50,11.490,21435.6,-519.2,723.7,2.23,-2.91,-10.52,342.0,3.3,9.5,2.2,0.8,-0.0,n/a,OK,4.0,    
44.00,11.445,21351.1,-517.6,723.7,2.23,-2.91,-10.52,341.4,-0.2,9.5,2.2,0.9,-0.0,n/a,OK,4.0,    
44.50,11.399,21266.8,-516.0,723.7,2.27,-2.90,-10.52,341.2,-8.3,9.5,2.2,0.9,-0.0,n/a,OK,4.0,    
45.00,11.353,21182.4,-514.3,723.7,2.28,-2.90,-10.52,341.5,4.2,9.5,2.2,0.9,-0.0,n/a,OK,4.0,    
45.50,11.308,21098.0,-512.6,723.8,2.18,-2.90,-10.52,342.0,11.4,9.6,2.1,1.0,-0.0,n/a,OK,4.0,    
46.00,11.262,21013.4,-510.8,723.8,2.19,-2.90,-10.53,341.9,-12.1,9.6,2.2,1.0,-0.0,n/a,OK,4.0,    
46.50,11.216,20928.9,-509.0,723.6,2.28,-2.89,-10.53,341.6,-17.8,9.7,2.2,1.0,-0.0,n/a,OK,4.0,    
47.00,11.171,20844.6,-507.2,723.5,2.26,-2.89,-10.53,341.3,-2.2,9.7,2.2,1.0,-0.0,n/a,OK,4.0,    
47.50,11.125,20760.2,-505.3,723.5,2.23,-2.89,-10.53,341.6,-1.2,9.7,2.2,1.0,-0.0,n/a,OK,4.0,    
48.00,11.080,20675.7,-503.4,723.5,2.22,-2.89,-10.53,342.1,2.9,9.7,2.2,1.0,-0.0,n/a,OK,4.0,    
48.50,11.034,20591.1,-501.5,723.5,2.22,-2.88,-10.53,342.3,-10.1,9.7,2.2,1.0,-0.0,n/a,OK,4.0,    
49.00,10.988,20506.4,-499.5,723.4,2.24,-2.88,-10.53,342.3,-9.6,9.7,2.2,1.0,-0.0,n/a,OK,4.0,    
49.50,10.943,20421.9,-497.4,723.3,2.22,-2.88,-10.53,341.9,-11.8,9.7,2.2,0.9,-0.0,n/a,OK,4.0,    
50.00,10.897,20337.4,-495.3,723.2,2.22,-2.88,-10.53,341.6,-19.6,9.7,2.2,0.9,-0.0,n/a,OK,4.0,    
50.50,10.851,20253.0,-493.2,723.0,2.24,-2.87,-10.53,341.5,-25.9,9.7,2.3,0.9,-0.0,n/a,OK,4.0,    
51.00,10.806,20168.6,-491.1,722.8,2.26,-2.87,-10.53,341.6,-19.8,9.7,2.3,0.8,-0.0,n/a,OK,4.0,    
51.50,10.760,20084.2,-488.9,722.7,2.24,-2.87,-10.53,341.5,-10.1,9.8,2.3,0.8,-0.0,n/a,OK,4.0,    
52.00,10.715,19999.8,-486.7,722.6,2.30,-2.87,-10.53,341.2,-8.2,9.9,2.3,0.8,-0.0,n/a,OK,4.0,    
52.50,10.669,19915.5,-484.5,722.7,2.24,-2.86,-10.53,341.3,7.7,9.9,2.3,0.7,-0.0,n/a,OK,4.0,    
53.00,10.624,19831.1,-482.2,722.7,2.26,-2.86,-10.53,341.7,2.0,9.9,2.3,0.7,-0.0,n/a,OK,4.0,    
53.50,10.578,19746.6,-479.9,722.8,2.25,-2.86,-10.52,342.0,15.7,9.9,2.3,0.7,-0.0,n/a,OK,4.0,    
54.00,10.532,19662.1,-477.6,722.9,2.24,-2.86,-10.52,342.1,16.7,9.9,2.3,0.6,-0.0,n/a,OK,4.0,    
54.50,10.487,19577.5,-475.2,723.1,2.21,-2.85,-10.52,342.0,14.6,9.9,2.3,0.6,-0.0,n/a,OK,4.0,    
55.00,10.441,19493.1,-472.9,723.1,2.28,-2.85,-10.52,341.7,7.5,10.0,2.3,0.5,-0.0,n/a,OK,4.0,    
55.50,10.395,19408.6,-470.5,723.3,2.22,-2.85,-10.52,341.6,17.6,10.0,2.2,0.5,-0.0,n/a,OK,4.0,    
56.00,10.350,19324.2,-468.0,723.3,2.22,-2.84,-10.52,341.8,5.4,10.0,2.2,0.5,-0.0,n/a,OK,4.0,    
56.50,10.304,19239.6,-465.6,723.4,2.18,-2.84,-10.52,342.1,-0.1,10.0,2.2,0.4,-0.0,n/a,OK,4.0,    
57.00,10.258,19155.1,-463.1,723.3,2.22,-2.84,-10.52,342.1,-18.7,10.0,2.3,0.4,-0.0,n/a,OK,4.0,    
57.50,10.213,19070.6,-460.6,723.1,2.26,-2.84,-10.52,341.8,-21.3,10.0,2.3,0.3,-0.0,n/a,OK,4.0,    
58.00,10.167,18986.1,-458.1,723.0,2.30,-2.83,-10.51,341.6,-14.7,10.0,2.3,0.3,-0.0,n/a,OK,4.0,    
58.50,10.122,18901.7,-455.6,722.9,2.27,-2.83,-10.51,341.6,2.1,10.1,2.3,0.2,-0.0,n/a,OK,4.0,    
59.00,10.076,18817.3,-453.1,723.0,2.21,-2.83,-10.51,341.7,9.0,10.1,2.2,0.2,-0.0,n/a,OK,4.0,    
59.50,10.030,18732.9,-450.6,723.0,2.21,-2.82,-10.51,341.7,-1.4,10.1,2.2,0.2,-0.0,n/a,OK,4.0,    
60.00,9.985,18648.4,-448.1,723.0,2.23,-2.82,-10.51,341.7,-10.8,10.1,2.3,0.1,-0.0,n/a,OK,4.0,    
60.50,9.939,18563.9,-445.6,722.9,2.29,-2.82,-10.51,341.8,-12.8,10.0,2.3,0.1,-0.0,n/a,OK,4.0,    
61.00,9.893,18479.5,-443.0,722.8,2.25,-2.81,-10.51,341.9,2.7,10.0,2.3,0.0,-0.0,n/a,OK,4.0,    
61.50,9.848,18395.0,-440.5,722.9,2.25,-2.81,-10.50,341.7,3.1,10.0,2.2,-0.1,-0.0,n/a,OK,4.0,    
62.00,9.802,18310.6,-438.0,722.9,2.26,-2.81,-10.50,341.5,10.7,10.0,2.2,-0.1,-0.0,n/a,OK,4.0,    
62.50,9.757,18226.2,-435.5,723.0,2.21,-2.80,-10.50,341.5,16.0,10.0,2.2,-0.1,-0.0,n/a,OK,4.0,    
63.00,9.711,18141.8,-433.0,723.1,2.23,-2.80,-10.50,341.5,8.2,10.0,2.2,-0.2,-0.0,n/a,OK,4.0,    
63.50,9.665,18057.4,-430.4,723.2,2.22,-2.80,-10.50,341.4,2.6,10.1,2.2,-0.2,-0.0,n/a,OK,4.0,    
64.00,9.620,17973.1,-428.0,723.1,2.23,-2.79,-10.50,341.6,-11.4,10.1,2.2,-0.2,-0.0,n/a,OK,4.0,    
64.50,9.574,17888.6,-425.5,723.0,2.30,-2.79,-10.49,341.9,-9.2,10.1,2.2,-0.2,-0.0,n/a,OK,4.0,    
65.00,9.529,17804.1,-423.0,723.0,2.27,-2.79,-10.49,342.3,4.8,10.1,2.2,-0.2,-0.0,n/a,OK,4.0,    
65.50,9.483,17719.5,-420.5,723.1,2.25,-2.78,-10.49,342.1,8.8,10.0,2.2,-0.3,-0.0,n/a,OK,4.0,    
66.00,9.437,17635.0,-418.0,723.2,2.20,-2.78,-10.49,341.8,14.4,9.9,2.1,-0.3,-0.0,n/a,OK,4.0,    
66.50,9.392,17550.5,-415.6,723.3,2.19,-2.78,-10.49,341.7,-4.5,9.9,2.1,-0.4,-0.0,n/a,OK,4.0,    
67.00,9.346,17466.0,-413.1,723.1,2.23,-2.77,-10.49,341.9,-15.3,9.9,2.2,-0.4,-0.0,n/a,OK,4.0,    
67.50,9.300,17381.5,-410.7,723.0,2.27,-2.77,-10.49,342.0,-16.5,9.9,2.2,-0.4,-0.0,n/a,OK,4.0,    
68.00,9.255,17297.0,-408.3,722.9,2.27,-2.77,-10.48,341.9,-6.5,9.9,2.2,-0.4,-0.0,n/a,OK,4.0,    
68.50,9.209,17212.5,-405.9,722.9,2.26,-2.76,-10.48,341.7,-2.8,9.9,2.2,-0.5,-0.0,n/a,OK,4.0,    
69.00,9.163,17128.1,-403.5,722.9,2.27,-2.76,-10.48,341.7,6.1,9.9,2.2,-0.5,-0.0,n/a,OK,4.0,    
69.50,9.118,17043.6,-401.2,723.0,2.18,-2.76,-10.48,342.0,15.5,9.9,2.2,-0.5,-0.0,n/a,OK,4.0,    
70.00,9.072,16959.0,-398.9,723.0,2.18,-2.75,-10.48,342.3,-8.3,9.9,2.2,-0.5,-0.0,n/a,OK,4.0,    
70.50,9.026,16874.4,-396.6,722.9,2.24,-2.75,-10.48,342.4,-19.8,9.8,2.2,-0.4,-0.0,n/a,OK,4.0,    
71.00,8.981,16789.8,-394.3,722.7,2.29,-2.74,-10.48,342.2,-21.1,9.9,2.3,-0.5,-0.0,n/a,OK,4.0,    
71.50,8.935,16705.2,-392.0,722.6,2.28,-2.74,-10.48,342.2,-6.4,9.9,2.3,-0.4,-0.0,n/a,OK,4.0,    
72.00,8.889,16620.6,-389.8,722.6,2.30,-2.74,-10.48,342.4,9.4,9.9,2.2,-0.4,-0.0,n/a,OK,4.0,    
72.50,8.844,16536.0,-387.5,722.8,2.24,-2.73,-10.47,342.3,28.4,9.9,2.2,-0.4,-0.0,n/a,OK,4.0,    
73.00,8.798,16451.4,-385.3,723.0,2.24,-2.73,-10.47,342.0,22.9,9.8,2.2,-0.4,-0.0,n/a,OK,4.0,    
73.50,8.752,16366.9,-383.1,723.2,2.17,-2.72,-10.47,341.9,21.2,9.8,2.1,-0.4,-0.0,n/a,OK,4.0,    
74.00,8.707,16282.4,-380.9,723.3,2.16,-2.72,-10.47,342.0,-4.5,9.8,2.1,-0.4,-0.0,n/a,OK,4.0,    
74.50,8.661,16197.9,-378.8,723.1,2.24,-2.72,-10.47,342.0,-21.3,9.7,2.2,-0.4,-0.0,n/a,OK,4.0,    
75.00,8.615,16113.3,-376.6,723.0,2.28,-2.71,-10.47,341.9,-22.1,9.8,2.2,-0.4,-0.0,n/a,OK,4.0,    
75.50,8.570,16028.9,-374.5,722.8,2.30,-2.71,-10.47,341.6,-13.4,9.8,2.2,-0.4,-0.0,n/a,OK,4.0,    
76.00,8.524,15944.4,-372.4,722.8,2.25,-2.70,-10.47,341.7,3.9,9.8,2.2,-0.3,-0.0,n/a,OK,4.0,    
76.50,8.478,15859.9,-370.3,722.8,2.18,-2.70,-10.47,342.0,5.7,9.8,2.2,-0.3,-0.0,n/a,OK,4.0,    
77.00,8.433,15775.4,-368.2,722.8,2.22,-2.70,-10.47,342.0,-7.9,9.7,2.2,-0.3,-0.0,n/a,OK,4.0,    
77.50,8.387,15690.9,-366.1,722.7,2.26,-2.69,-10.47,341.7,-10.5,9.7,2.2,-0.3,-0.0,n/a,OK,4.0,    
78.00,8.342,15606.5,-364.0,722.6,2.31,-2.69,-10.47,341.5,-11.4,9.7,2.2,-0.3,-0.0,n/a,OK,4.0,    
78.50,8.296,15522.0,-362.0,722.6,2.25,-2.68,-10.47,341.8,13.2,9.7,2.2,-0.3,-0.0,n/a,OK,4.0,    
79.00,8.250,15437.5,-359.9,722.7,2.22,-2.68,-10.47,342.0,10.8,9.7,2.2,-0.3,-0.0,n/a,OK,4.0,    
79.50,8.205,15353.0,-357.9,722.8,2.24,-2.67,-10.47,341.9,11.0,9.7,2.2,-0.3,-0.0,n/a,OK,4.0,    
80.00,8.159,15268.5,-355.9,722.9,2.24,-2.67,-10.47,341.7,8.1,9.7,2.2,-0.2,-0.0,n/a,OK,4.0,    
80.50,8.113,15184.0,-353.9,722.9,2.23,-2.66,-10.47,341.7,1.4,9.7,2.2,-0.2,-0.0,n/a,OK,4.0,    
81.00,8.068,15099.6,-351.9,722.9,2.23,-2.66,-10.47,341.8,-7.0,9.7,2.2,-0.1,-0.0,n/a,OK,4.0,    
81.50,8.022,15015.1,-349.9,722.8,2.25,-2.65,-10.47,341.7,-9.7,9.7,2.2,-0.1,-0.0,n/a,OK,4.0,    
82.00,7.977,14930.7,-347.9,722.7,2.23,-2.65,-10.47,341.4,-10.2,9.7,2.2,-0.2,-0.0,n/a,OK,4.0,    
82.50,7.931,14846.3,-345.9,722.6,2.26,-2.65,-10.47,341.3,-16.0,9.6,2.2,-0.2,-0.0,n/a,OK,4.0,    
83.00,7.885,14761.9,-343.9,722.5,2.23,-2.64,-10.47,341.4,-6.1,9.6,2.2,-0.1,-0.0,n/a,OK,4.0,    
83.50,7.840,14677.5,-341.9,722.5,2.24,-2.64,-10.47,341.5,-12.2,9.6,2.2,-0.1,-0.0,n/a,OK,4.0,    
84.00,7.794,14593.1,-340.0,722.4,2.26,-2.63,-10.47,341.7,-11.6,9.6,2.2,-0.1,-0.0,n/a,OK,4.0,    
84.50,7.749,14508.7,-338.0,722.3,2.25,-2.63,-10.47,341.7,-3.8,9.6,2.3,-0.1,-0.0,n/a,OK,4.0,    
85.00,7.703,14424.2,-336.0,722.2,2.27,-2.62,-10.47,341.6,-5.9,9.6,2.2,-0.0,-0.0,n/a,OK,4.0,    
85.50,7.657,14339.8,-334.1,722.2,2.23,-2.62,-10.47,341.7,0.9,9.7,2.3,0.0,-0.0,n/a,OK,4.0,    
86.00,7.612,14255.3,-332.1,722.2,2.26,-2.61,-10.47,341.7,-8.8,9.7,2.3,0.0,-0.0,n/a,OK,4.0,    
86.50,7.566,14170.8,-330.2,722.2,2.28,-2.61,-10.47,341.9,4.6,9.7,2.3,0.1,-0.0,n/a,OK,4.0,    
87.00,7.520,14086.3,-328.2,722.2,2.23,-2.60,-10.47,342.3,15.0,9.7,2.2,0.1,-0.0,n/a,OK,4.0,    
87.50,7.475,14001.7,-326.2,722.3,2.21,-2.59,-10.47,342.5,9.0,9.7,2.2,0.1,-0.0,n/a,OK,4.0,    
88.00,7.429,13917.0,-324.3,722.4,2.23,-2.59,-10.47,342.2,0.7,9.7,2.2,0.1,-0.0,n/a,OK,4.0,    
88.50,7.383,13832.5,-322.3,722.4,2.28,-2.58,-10.47,342.0,-3.5,9.7,2.3,0.1,-0.0,n/a,OK,4.0,    
89.00,7.338,13747.9,-320.3,722.4,2.26,-2.58,-10.47,341.9,11.5,9.7,2.2,0.1,-0.0,n/a,OK,4.0,    
89.50,7.292,13663.4,-318.3,722.5,2.21,-2.57,-10.47,341.7,16.2,9.8,2.2,0.2,-0.0,n/a,OK,4.0,    
90.00,7.246,13579.0,-316.3,722.6,2.15,-2.57,-10.47,341.4,0.7,9.8,2.2,0.2,-0.0,n/a,OK,4.0,    
90.50,7.201,13494.7,-314.3,722.5,2.21,-2.56,-10.47,341.3,-24.8,9.8,2.2,0.2,-0.0,n/a,OK,4.0,    
91.00,7.155,13410.3,-312.3,722.3,2.27,-2.55,-10.46,341.5,-28.6,9.7,2.3,0.2,-0.0,n/a,OK,4.0,    
91.50,7.110,13325.8,-310.3,722.1,2.30,-2.55,-10.46,341.9,-12.9,9.7,2.3,0.2,-0.0,n/a,OK,4.0,    
92.00,7.064,13241.3,-308.3,722.1,2.24,-2.54,-10.46,342.0,7.9,9.7,2.3,0.2,-0.0,n/a,OK,4.0,    
92.50,7.018,13156.8,-306.2,722.1,2.22,-2.54,-10.46,341.8,3.9,9.8,2.3,0.2,-0.0,n/a,OK,4.0,    
93.00,6.973,13072.4,-304.2,722.1,2.22,-2.53,-10.46,341.5,1.8,9.8,2.3,0.3,-0.0,n/a,OK,4.0,    
93.50,6.927,12988.0,-302.2,722.1,2.22,-2.52,-10.46,341.2,-4.2,9.8,2.3,0.3,-0.0,n/a,OK,4.0,    
94.00,6.882,12903.7,-300.1,722.1,2.22,-2.52,-10.46,341.5,-9.1,9.8,2.3,0.3,-0.0,n/a,OK,4.0,    
94.50,6.836,12819.2,-298.1,722.0,2.28,-2.51,-10.46,342.1,-5.3,9.8,2.4,0.3,-0.0,n/a,OK,4.0,    
95.00,6.790,12734.6,-296.0,722.0,2.27,-2.50,-10.46,342.4,9.0,9.8,2.3,0.3,-0.0,n/a,OK,4.0,    
95.50,6.745,12650.0,-293.9,722.1,2.26,-2.50,-10.46,342.2,16.4,9.8,2.3,0.2,-0.0,n/a,OK,4.0,    
96.00,6.699,12565.4,-291.8,722.2,2.25,-2.49,-10.46,342.0,25.2,9.7,2.3,0.2,-0.0,n/a,OK,4.0,    
96.50,6.653,12480.9,-289.7,722.5,2.24,-2.48,-10.46,341.8,30.4,9.7,2.2,0.2,-0.0,n/a,OK,4.0,    
97.00,6.608,12396.4,-287.5,722.7,2.20,-2.48,-10.46,341.7,28.5,9.7,2.2,0.2,-0.0,n/a,OK,4.0,    
97.50,6.562,12311.9,-285.4,722.9,2.19,-2.47,-10.46,341.9,14.4,9.8,2.2,0.2,-0.0,n/a,OK,4.0,    
98.00,6.516,12227.4,-283.3,723.0,2.21,-2.46,-10.46,342.1,2.5,9.8,2.2,0.2,-0.0,n/a,OK,4.0,    
98.50,6.471,12142.8,-281.1,723.0,2.21,-2.45,-10.46,342.1,-9.7,9.8,2.2,0.2,-0.0,n/a,OK,4.0,    
99.00,6.425,12058.3,-279.0,722.8,2.26,-2.45,-10.46,341.9,-21.0,9.8,2.3,0.2,-0.0,n/a,OK,4.0,    
99.50,6.379,11973.8,-276.8,722.7,2.29,-2.44,-10.45,341.9,-17.6,9.9,2.3,0.2,-0.0,n/a,OK,4.0,    
100.00,6.334,11889.3,-274.7,722.6,2.30,-2.43,-10.45,341.9,0.6,9.9,2.3,0.2,-0.0,n/a,OK,4.0,    
100.50,6.288,11804.8,-272.5,722.7,2.22,-2.42,-10.45,341.7,19.7,9.9,2.2,0.2,-0.0,n/a,OK,4.0,    
101.00,6.243,11720.4,-270.3,722.8,2.16,-2.42,-10.45,341.5,12.3,9.9,2.2,0.2,-0.0,n/a,OK,4.0,    
101.50,6.197,11635.9,-268.1,722.9,2.23,-2.41,-10.45,341.6,-2.5,9.8,2.2,0.2,-0.0,n/a,OK,4.0,    
102.00,6.151,11551.5,-265.9,722.8,2.24,-2.40,-10.45,341.9,1.3,9.8,2.2,0.1,-0.0,n/a,OK,4.0,    
102.50,6.106,11466.9,-263.7,722.8,2.23,-2.39,-10.45,342.2,-9.1,9.8,2.2,0.1,-0.0,n/a,OK,4.0,    
103.00,6.060,11382.3,-261.5,722.7,2.24,-2.38,-10.45,342.4,-9.5,9.9,2.3,0.1,-0.0,n/a,OK,4.0,    
103.50,6.014,11297.7,-259.3,722.7,2.21,-2.37,-10.44,342.4,-3.4,9.9,2.3,0.1,-0.0,n/a,OK,4.0,    
104.00,5.969,11213.1,-257.1,722.6,2.19,-2.37,-10.44,342.2,-11.4,9.9,2.2,0.1,-0.0,n/a,OK,4.0,    
104.50,5.923,11128.5,-254.9,722.5,2.24,-2.36,-10.44,341.9,-20.4,9.9,2.3,0.1,-0.0,n/a,OK,4.0,    
105.00,5.877,11044.1,-252.7,722.3,2.29,-2.35,-10.44,341.7,-18.8,9.9,2.3,0.1,-0.0,n/a,OK,4.0,    
105.50,5.832,10959.6,-250.5,722.2,2.33,-2.34,-10.44,341.7,-1.4,9.8,2.3,0.1,-0.0,n/a,OK,4.0,    
106.00,5.786,10875.2,-248.2,722.3,2.26,-2.33,-10.44,341.8,24.5,9.8,2.2,0.0,-0.0,n/a,OK,4.0,    
106.50,5.740,10790.6,-246.0,722.6,2.17,-2.32,-10.44,342.1,23.9,9.8,2.2,-0.0,-0.0,n/a,OK,4.0,    
107.00,5.695,10706.1,-243.8,722.7,2.22,-2.31,-10.43,342.3,7.4,9.9,2.2,0.0,-0.0,n/a,OK,4.0,    
107.50,5.649,10621.4,-241.6,722.7,2.28,-2.30,-10.43,342.7,0.9,9.9,2.3,0.1,-0.0,n/a,OK,4.0,    
108.00,5.603,10536.7,-239.4,722.8,2.21,-2.29,-10.43,342.5,6.4,9.9,2.2,0.1,-0.0,n/a,OK,4.0,    
108.50,5.558,10452.1,-237.1,722.7,2.26,-2.28,-10.43,342.3,-9.9,9.9,2.2,0.0,-0.0,n/a,OK,4.0,    
109.00,5.512,10367.5,-234.9,722.7,2.26,-2.27,-10.43,342.2,-4.8,9.9,2.2,0.0,-0.0,n/a,OK,4.0,    
109.50,5.466,10282.9,-232.7,722.6,2.27,-2.26,-10.43,342.2,-5.2,9.9,2.2,0.0,-0.0,n/a,OK,4.0,    
110.00,5.420,10198.3,-230.5,722.6,2.23,-2.25,-10.42,342.3,2.6,9.9,2.2,0.0,-0.0,n/a,OK,4.0,    
110.50,5.375,10113.7,-228.2,722.6,2.22,-2.24,-10.42,342.2,-5.5,9.9,2.2,0.0,-0.0,n/a,OK,4.0,    
111.00,5.329,10029.1,-226.0,722.5,2.25,-2.23,-10.42,342.2,-10.3,9.9,2.2,0.1,-0.0,n/a,OK,4.0,    
111.50,5.283,9944.5,-223.8,722.5,2.25,-2.22,-10.42,342.4,-3.0,9.8,2.2,0.0,-0.0,n/a,OK,4.0,    
112.00,5.238,9859.9,-221.6,722.5,2.23,-2.21,-10.42,342.5,0.1,9.8,2.2,-0.0,-0.0,n/a,OK,4.0,    
112.50,5.192,9775.2,-219.3,722.5,2.23,-2.20,-10.41,342.3,-1.4,9.8,2.2,-0.0,-0.0,n/a,OK,4.0,    
113.00,5.146,9690.7,-217.1,722.5,2.22,-2.19,-10.41,341.8,-6.5,9.8,2.2,-0.1,-0.0,n/a,OK,4.0,    
113.50,5.101,9606.3,-214.9,722.4,2.26,-2.18,-10.41,341.5,-14.0,9.8,2.2,-0.1,-0.0,n/a,OK,4.0,    
114.00,5.055,9521.9,-212.7,722.3,2.21,-2.16,-10.41,341.6,-6.7,9.8,2.3,-0.1,-0.0,n/a,OK,4.0,    
114.50,5.009,9437.4,-210.5,722.2,2.25,-2.15,-10.41,341.8,-15.7,9.8,2.3,-0.1,-0.0,n/a,OK,4.0,    
115.00,4.964,9352.9,-208.3,722.1,2.28,-2.14,-10.40,341.8,-8.2,9.8,2.3,-0.1,-0.0,n/a,OK,4.0,    
115.50,4.918,9268.4,-206.1,722.0,2.27,-2.13,-10.40,341.9,3.3,9.8,2.3,-0.1,-0.0,n/a,OK,4.0,    
116.00,4.873,9183.9,-203.9,722.1,2.24,-2.11,-10.40,342.2,10.6,9.8,2.3,-0.1,-0.0,n/a,OK,4.0,    
116.50,4.827,9099.3,-201.7,722.2,2.26,-2.10,-10.40,342.4,3.2,9.8,2.3,-0.0,-0.0,n/a,OK,4.0,    
117.00,4.781,9014.7,-199.6,722.3,2.27,-2.09,-10.40,342.5,15.5,9.8,2.3,0.0,-0.0,n/a,OK,4.0,    
117.50,4.735,8930.0,-197.4,722.4,2.24,-2.07,-10.39,342.3,18.1,9.8,2.3,0.0,-0.0,n/a,OK,4.0,    
118.00,4.690,8845.5,-195.2,722.5,2.22,-2.06,-10.39,342.1,10.5,9.7,2.2,-0.0,-0.0,n/a,OK,4.0,    
118.50,4.644,8760.9,-193.0,722.6,2.26,-2.05,-10.39,342.1,-1.8,9.7,2.2,-0.0,-0.0,n/a,OK,4.0,    
119.00,4.598,8676.3,-190.8,722.6,2.24,-2.03,-10.39,342.3,4.3,9.7,2.2,-0.1,-0.0,n/a,OK,4.0,    
119.50,4.553,8591.7,-188.7,722.6,2.24,-2.02,-10.38,342.6,0.1,9.8,2.2,-0.1,-0.0,n/a,OK,4.0,    
120.00,4.507,8507.0,-186.5,722.6,2.24,-2.00,-10.38,342.5,-0.6,9.8,2.2,-0.1,-0.0,n/a,OK,4.0,    
120.50,4.461,8422.4,-184.3,722.6,2.24,-1.99,-10.38,342.2,-1.7,9.9,2.2,-0.1,-0.0,n/a,OK,4.0,    
121.00,4.416,8337.8,-182.2,722.6,2.27,-1.97,-10.38,341.8,4.5,9.9,2.2,-0.1,-0.0,n/a,OK,4.0,    
121.50,4.370,8253.4,-180.0,722.7,2.19,-1.96,-10.38,341.6,8.8,9.9,2.2,-0.0,-0.0,n/a,OK,4.0,    
122.00,4.324,8168.9,-177.9,722.7,2.24,-1.94,-10.37,341.8,-7.4,9.9,2.2,-0.0,-0.0,n/a,OK,4.0,    
122.50,4.279,8084.4,-175.8,722.7,2.26,-1.92,-10.37,342.2,6.5,9.8,2.2,-0.0,-0.0,n/a,OK,4.0,    
123.00,4.233,7999.8,-173.6,722.7,2.25,-1.91,-10.37,342.3,8.3,9.8,2.2,-0.0,-0.0,n/a,OK,4.0,    
123.50,4.187,7915.2,-171.5,722.8,2.17,-1.89,-10.37,342.4,10.9,9.8,2.2,-0.0,-0.0,n/a,OK,4.0,    
124.00,4.142,7830.5,-169.3,722.8,2.23,-1.87,-10.36,342.3,-8.8,9.8,2.2,-0.0,-0.0,n/a,OK,4.0,    
124.50,4.096,7746.0,-167.2,722.7,2.29,-1.85,-10.36,342.0,-4.7,9.8,2.2,-0.0,-0.0,n/a,OK,4.0,    
125.00,4.050,7661.5,-165.0,722.8,2.20,-1.84,-10.36,341.9,6.0,9.8,2.2,0.0,-0.0,n/a,OK,4.0,    
125.50,4.005,7576.9,-162.9,722.7,2.21,-1.82,-10.36,342.2,-5.9,9.8,2.2,0.0,-0.0,n/a,OK,4.0,    
126.00,3.959,7492.3,-160.7,722.7,2.23,-1.80,-10.35,342.4,-9.7,9.8,2.2,-0.0,-0.0,n/a,OK,4.0,    
126.50,3.913,7407.7,-158.6,722.6,2.22,-1.78,-10.35,342.3,-12.9,9.8,2.2,-0.0,-0.0,n/a,OK,4.0,    
127.00,3.867,7323.1,-156.5,722.4,2.28,-1.76,-10.35,342.2,-23.4,9.8,2.2,-0.0,-0.0,n/a,OK,4.0,    
127.50,3.822,7238.5,-154.4,722.3,2.27,-1.74,-10.35,342.2,-8.2,9.8,2.3,-0.0,-0.0,n/a,OK,4.0,    
128.00,3.776,7153.9,-152.2,722.2,2.24,-1.72,-10.34,342.2,-1.4,9.9,2.2,-0.0,-0.0,n/a,OK,4.0,    
128.50,3.730,7069.4,-150.1,722.3,2.23,-1.70,-10.34,341.9,7.3,9.9,2.2,-0.0,-0.0,n/a,OK,4.0,    
129.00,3.685,6984.9,-148.0,722.3,2.20,-1.67,-10.34,341.8,3.6,9.8,2.2,0.0,-0.0,n/a,OK,4.0,    
129.50,3.639,6900.4,-145.9,722.3,2.23,-1.65,-10.34,341.7,-8.9,9.8,2.2,0.0,-0.0,n/a,OK,4.0,    
130.00,3.594,6816.0,-143.7,722.2,2.27,-1.63,-10.33,341.8,-9.6,9.7,2.3,0.0,-0.0,n/a,OK,4.0,    
130.50,3.548,6731.5,-141.6,722.2,2.29,-1.60,-10.33,342.0,0.5,9.7,2.3,-0.0,-0.0,n/a,OK,4.0,    
131.00,3.502,6646.9,-139.4,722.2,2.26,-1.58,-10.33,342.1,19.0,9.7,2.2,-0.0,-0.0,n/a,OK,4.0,    
131.50,3.457,6562.4,-137.3,722.4,2.22,-1.55,-10.32,341.7,25.9,9.8,2.2,-0.0,-0.0,n/a,OK,4.0,    
132.00,3.411,6478.0,-135.2,722.6,2.18,-1.53,-10.32,341.4,22.2,9.8,2.1,0.0,-0.0,n/a,OK,4.0,    
132.50,3.365,6393.6,-133.1,722.8,2.22,-1.50,-10.32,341.2,5.3,9.8,2.1,0.0,-0.0,n/a,OK,4.0,    
133.00,3.320,6309.3,-130.9,722.8,2.21,-1.47,-10.31,341.4,-1.0,9.8,2.2,0.0,-0.0,n/a,OK,4.0,    
133.50,3.274,6224.9,-128.8,722.7,2.24,-1.45,-10.31,341.8,-7.7,9.8,2.2,-0.0,-0.0,n/a,OK,4.0,    
134.00,3.229,6140.4,-126.7,722.7,2.26,-1.42,-10.30,342.0,-9.3,9.8,2.2,-0.0,-0.0,n/a,OK,4.0,    
134.50,3.183,6055.8,-124.6,722.6,2.26,-1.39,-10.30,342.3,-3.5,9.8,2.2,-0.0,-0.0,n/a,OK,4.0,    
135.00,3.137,5971.2,-122.4,722.6,2.19,-1.36,-10.30,342.6,3.2,9.8,2.2,0.0,-0.0,n/a,OK,4.0,    
135.50,3.092,5886.5,-120.3,722.6,2.22,-1.33,-10.29,342.4,-5.1,9.8,2.2,-0.0,-0.0,n/a,OK,4.0,    
136.00,3.046,5802.0,-118.2,722.5,2.25,-1.29,-10.29,341.7,-7.8,9.8,2.2,-0.0,-0.0,n/a,OK,4.0,    
136.50,3.000,5717.6,-116.1,722.5,2.20,-1.26,-10.28,341.4,-10.4,9.8,2.2,-0.0,-0.0,n/a,OK,4.0,    
137.00,2.955,5633.2,-113.9,722.4,2.22,-1.23,-10.28,341.7,-18.4,9.8,2.2,-0.0,-0.0,n/a,OK,4.0,    
137.50,2.909,5548.7,-111.8,722.2,2.27,-1.19,-10.27,342.0,-12.8,9.8,2.2,0.0,-0.0,n/a,OK,4.0,    
138.00,2.863,5464.1,-109.7,722.1,2.25,-1.16,-10.27,342.1,-3.7,9.8,2.2,0.0,-0.0,n/a,OK,4.0,    
138.50,2.818,5379.6,-107.5,722.1,2.26,-1.12,-10.27,341.8,-1.4,9.8,2.2,0.0,-0.0,n/a,OK,4.0,    
139.00,2.772,5295.2,-105.4,722.1,2.17,-1.08,-10.26,341.4,5.4,9.8,2.2,0.0,-0.0,n/a,OK,4.0,    
139.50,2.727,5210.8,-103.3,722.1,2.19,-1.04,-10.25,341.2,-14.2,9.8,2.2,0.0,-0.0,n/a,OK,4.0,    
140.00,2.681,5126.5,-101.1,722.0,2.23,-1.00,-10.25,341.3,-19.3,9.8,2.3,0.0,-0.0,n/a,OK,4.0,    
140.50,2.635,5042.1,-99.0,721.8,2.24,-0.96,-10.24,341.8,-21.2,9.8,2.3,0.0,-0.0,n/a,OK,4.0,    
141.00,2.590,4957.5,-96.9,721.7,2.28,-0.92,-10.24,342.3,-15.7,9.8,2.3,0.0,-0.0,n/a,OK,4.0,    
141.50,2.544,4872.9,-94.7,721.6,2.27,-0.87,-10.23,342.5,-3.0,9.8,2.4,0.0,-0.0,n/a,OK,4.0,    
142.00,2.498,4788.2,-92.6,721.6,2.26,-0.82,-10.23,342.1,3.7,9.8,2.3,0.0,-0.0,n/a,OK,4.0,    
142.50,2.453,4703.8,-90.5,721.6,2.26,-0.77,-10.22,341.4,14.3,9.8,2.3,0.0,-0.0,n/a,OK,4.0,    
143.00,2.407,4619.5,-88.3,721.8,2.24,-0.72,-10.21,340.9,24.4,9.8,2.3,-0.0,-0.0,n/a,OK,4.0,    
143.50,2.362,4535.2,-86.2,722.0,2.21,-0.67,-10.20,341.0,26.0,9.9,2.2,0.0,-0.0,n/a,OK,4.0,    
144.00,2.316,4450.9,-84.1,722.2,2.21,-0.61,-10.20,341.5,17.4,9.8,2.2,0.0,-0.0,n/a,OK,4.0,    
144.50,2.270,4366.4,-81.9,722.4,2.24,-0.56,-10.19,342.0,19.0,9.8,2.3,0.0,-0.0,n/a,OK,4.0,    
145.00,2.225,4281.9,-79.8,722.5,2.17,-0.50,-10.18,341.9,16.8,9.8,2.2,0.0,-0.0,n/a,OK,4.0,    
145.50,2.179,4197.4,-77.6,722.6,2.14,-0.44,-10.17,341.4,-11.2,9.8,2.2,0.0,-0.0,n/a,OK,4.0,    
146.00,2.134,4113.1,-75.5,722.3,2.22,-0.37,-10.16,341.0,-38.0,9.8,2.3,0.0,-0.0,n/a,OK,4.0,    
146.50,2.088,4028.8,-73.3,722.0,2.29,-0.31,-10.15,341.2,-42.8,9.8,2.3,0.0,-0.0,n/a,OK,4.0,    
147.00,2.043,3944.4,-71.2,721.7,2.32,-0.24,-10.15,341.7,-17.9,9.8,2.4,0.0,-0.0,n/a,OK,4.0,    
147.50,1.997,3859.9,-69.0,721.7,2.24,-0.17,-10.14,342.1,15.0,9.9,2.3,0.0,-0.0,n/a,OK,4.0,    
148.00,1.951,3775.4,-66.9,721.9,2.22,-0.09,-10.12,342.0,15.7,9.9,2.3,0.0,-0.0,n/a,OK,4.0,    
148.50,1.906,3690.8,-64.7,722.0,2.22,-0.01,-10.11,341.9,15.6,9.9,2.3,0.1,-0.0,n/a,OK,4.0,    
149.00,1.860,3606.4,-62.6,722.1,2.27,0.08,-10.10,341.8,15.4,9.8,2.3,0.1,-0.0,n/a,OK,4.0,    
149.50,1.814,3521.9,-60.4,722.3,2.22,0.16,-10.09,341.8,22.7,9.8,2.3,0.0,-0.0,n/a,OK,4.0,    
150.00,1.769,3437.4,-58.2,722.4,2.22,0.26,-10.08,341.8,11.6,9.8,2.3,0.3,-0.0,n/a,OK,4.0,    
150.50,1.723,3352.9,-56.1,722.5,2.26,0.35,-10.06,342.1,7.3,10.0,2.3,5.0,-0.0,n/a,OK,4.0,    
151.00,1.677,3268.3,-53.7,722.6,2.31,0.46,-10.04,342.6,21.1,10.4,2.3,11.0,-0.0,n/a,OK,4.0,    
151.50,1.632,3183.6,-50.7,723.0,2.31,0.57,-10.02,343.0,88.5,10.6,2.5,10.5,-0.0,n/a,OK,4.0,    
152.00,1.586,3098.8,-47.4,723.8,2.20,0.69,-9.98,343.0,97.2,10.8,2.4,9.6,-0.0,n/a,OK,4.0,    
152.50,1.540,3014.1,-43.8,724.6,2.34,0.81,-9.93,342.7,81.3,11.2,2.4,11.5,-0.0,n/a,OK,4.0,    
153.00,1.494,2929.5,-39.7,725.5,2.39,0.94,-9.87,342.2,170.3,11.5,2.6,11.4,-0.0,n/a,OK,4.0,    
153.50,1.449,2845.1,-35.0,727.2,2.37,1.09,-9.80,341.8,226.3,11.8,2.7,10.7,-0.0,n/a,OK,4.0,    
154.00,1.403,2760.8,-30.0,729.3,2.40,1.25,-9.71,341.8,273.5,12.1,2.8,10.3,-0.0,n/a,OK,4.0,    
154.50,1.358,2676.4,-24.5,731.8,2.42,1.42,-9.61,342.2,339.7,12.3,2.9,9.8,-0.0,n/a,OK,4.0,    
155.00,1.312,2591.9,-18.5,734.7,2.05,1.60,-9.49,342.6,314.6,12.4,2.6,8.4,-0.0,n/a,OK,4.0,    
155.50,1.266,2507.4,-12.3,736.4,1.75,1.79,-9.35,342.6,55.3,12.5,1.9,7.0,-0.0,n/a,OK,4.0,    
156.00,1.221,2423.0,-5.9,736.0,2.16,1.98,-9.20,342.3,-97.6,12.7,2.1,5.4,-0.0,n/a,OK,4.0,    
156.50,1.175,2338.7,0.7,735.4,2.40,2.18,-9.04,341.9,-41.5,12.7,2.5,1.5,-0.0,n/a,OK,4.0,    
157.00,1.130,2254.4,7.4,735.2,2.31,2.40,-8.86,342.0,-12.1,12.6,2.4,-1.0,-0.0,n/a,OK,4.0,    
157.50,1.084,2170.0,14.1,735.2,2.21,2.63,-8.66,342.6,-8.3,12.6,2.3,-1.6,-0.0,n/a,OK,4.0,    
158.00,1.038,2085.5,20.8,735.1,2.17,2.89,-8.45,342.6,-18.9,12.4,2.2,-3.5,-0.0,n/a,OK,4.0,    
158.50,0.993,2001.2,27.3,734.8,2.16,3.16,-8.23,341.9,-44.1,12.3,2.1,-4.6,-0.0,n/a,OK,4.0,    
159.00,0.947,1917.0,33.6,734.3,2.24,3.46,-7.99,341.2,-65.4,12.2,2.1,-4.2,-0.0,n/a,OK,4.0,    
159.50,0.902,1832.9,39.8,733.8,2.22,3.79,-7.73,340.9,-67.9,12.1,2.1,-4.0,-0.0,n/a,OK,4.0,    
160.00,0.857,1748.8,45.9,733.2,2.21,4.14,-7.45,341.4,-88.3,12.0,2.1,-3.5,-0.0,n/a,OK,4.0,    
160.50,0.811,1664.5,51.9,732.4,2.23,4.54,-7.14,342.3,-91.5,11.9,2.1,-2.4,-0.0,X0,OK,4.0,    
161.00,0.766,1580.0,57.7,731.6,2.25,4.97,-6.80,342.6,-88.3,11.9,2.1,-2.3,-0.0,X0,OK,4.0,    
161.50,0.720,1495.5,63.5,730.9,2.22,5.46,-6.43,342.2,-87.7,11.8,2.1,-2.6,-0.0,XX,OK,4.0,    
162.00,0.675,1411.1,69.1,730.1,2.21,6.01,-6.02,341.6,-101.2,11.8,2.1,-3.0,-0.0,XX,--,2.0,_AAFHLUL_X    
162.50,0.630,1326.9,74.6,729.2,2.23,6.62,-5.55,341.5,-116.7,11.7,2.1,-3.2,-0.0,XX,--,2.0,_AAFHLUL_X    
163.00,0.584,1242.6,80.0,728.2,2.24,7.32,-5.03,341.8,-115.8,11.6,2.1,-3.3,-0.0,XX,--,2.0,_AAFHLUL_X    
163.50,0.539,1158.2,85.3,727.3,2.20,8.13,-4.43,342.0,-113.0,11.5,2.0,-3.4,-0.0,XX,--,2.0,_AAFHLUL_X    
164.00,0.494,1073.8,90.4,726.3,2.19,9.06,-3.74,341.9,-129.3,11.5,2.0,-3.6,-0.0,IM,--,2.0,_AAFHLUL_X    
164.50,0.449,989.4,95.3,725.2,2.24,10.15,-2.93,341.5,-142.4,11.3,2.1,-3.7,-0.0,IM,--,2.0,_AAFHLUL_X _FHLUL_IM   
165.00,0.404,905.2,100.1,724.0,2.26,11.44,-1.96,341.3,-144.9,11.3,2.1,-3.9,-0.0,IM,--,2.0,_AAFHLUL_X _FHLUL_IM   
165.50,0.359,820.9,104.7,722.8,2.23,12.99,-0.80,341.7,-142.3,11.2,2.1,-4.1,-0.0,IM,--,2.0,_AAFHLUL_X _FHLUL_IM   
166.00,0.315,736.5,109.2,721.5,2.28,14.89,0.64,342.3,-147.9,11.1,2.1,-4.2,-0.0,IM,--,2.0,_AAFHLUL_X _FHLUL_IM   
166.50,0.270,651.9,113.5,720.6,2.47,17.26,2.48,342.6,-68.7,11.0,2.4,-4.4,-0.0,IM,--,2.0,_AAFHLUL_X _FHLUL_ DRIM   
167.00,0.226,567.3,117.6,720.4,2.37,20.31,4.91,342.2,31.5,10.8,2.4,-4.4,-0.0,IM,--,2.0,_AAFHLUL_X _FHLUL_ DRIM   
167.50,0.183,482.8,121.5,720.7,2.15,24.26,8.24,341.7,12.8,10.8,2.2,-3.4,-0.0,IC,WO,1.0,_AAFHLUL_X _FHLUL_ DRIM  _FHLUR_IC 
168.00,0.142,398.4,125.3,720.6,2.22,29.43,13.12,341.9,-15.7,10.7,2.2,-1.8,-0.0,IC,WO,1.0,_AAFHLUL_X _FHLUL_ DRIM  _FHLUR_IC 
168.50,0.104,313.9,129.0,720.6,2.34,36.18,20.81,342.3,10.7,10.7,2.3,-0.6,-0.0,IC,WO,1.0,_AAFHLUL_X _FHLUL_ DRIM  _FHLUR_IC 
169.00,0.076,229.3,132.7,720.8,2.24,44.39,34.04,342.5,43.7,10.6,2.3,-0.9,-0.0,IC,WO,1.0,_AAFHLUL_X _FHLUL_ DRIM  _FHLUR_IC 
169.50,-0.069,144.7,136.4,721.2,2.20,51.84,57.51,342.3,34.3,10.6,2.2,-1.5,-0.0,AR,WO,1.0,_AAFHLUL_X _FHLUL_ DRIM  _FHLUR_IC 
170.00,-0.090,60.2,139.9,721.4,2.26,53.07,90.51,342.3,32.8,10.5,2.3,-1.8,-0.0,AR,WO,1.0,_AAFHLUL_X _FHLUL_ DRIM  _FHLUR_IC _FHLUR_AR
170.50,-0.124,-24.4,143.4,721.8,2.27,46.81,117.47,342.3,47.3,10.4,2.3,-2.0,-0.0,AR,WO,1.0,_AAFHLUL_X _FHLUL_ DRIM  _FHLUR_IC _FHLUR_AR
171.00,-0.164,-109.0,146.8,722.2,2.22,38.47,133.08,342.1,55.3,10.4,2.3,-2.2,-0.0,AR,WO,1.0,_AAFHLUL_X _FHLUL_ DRIM  _FHLUR_IC _FHLUR_AR
171.50,-0.207,-193.4,150.1,722.7,2.20,31.26,141.99,342.0,51.7,10.4,2.2,-2.3,-0.0,AR,WO,1.0,_AAFHLUL_X _FHLUL_ DRIM  _FHLUR_IC _FHLUR_AR
