#Time,Rho,X,Z,Alt,AoA,GSE,LUE,Vtot,Vy,Gamma,Pitch,Roll,Yaw,Step,Grade,Points,Details
0.00,-0.795,-1299.0,-171.9,638.0,11.97,4.44,177.82,121.8,2080.4,6.9,20.3,-4.2,0.0,n/a,OK,4.0,    
0.50,-0.810,-1325.4,-180.6,655.2,12.26,4.50,178.04,120.9,2047.7,7.0,20.4,-3.8,0.0,n/a,OK,4.0,    
1.00,-0.825,-1351.6,-189.5,672.2,12.45,4.55,178.26,120.0,2018.4,7.1,20.6,-3.4,0.0,n/a,OK,4.0,    
1.50,-0.839,-1377.5,-198.4,688.9,12.62,4.60,178.47,119.1,1986.0,7.3,20.7,-3.6,0.0,n/a,OK,4.0,    
2.00,-0.853,-1403.2,-207.3,705.2,12.81,4.65,178.68,118.2,1944.8,8.8,20.6,-9.6,0.0,n/a,OK,4.0,    
2.50,-0.868,-1428.5,-216.6,721.2,12.99,4.69,178.89,117.4,1891.5,10.8,20.3,-13.6,0.0,n/a,OK,4.0,    
3.00,-0.882,-1453.5,-226.4,736.8,13.01,4.72,179.12,116.6,1831.7,11.7,20.2,-15.0,0.0,n/a,OK,4.0,    
3.50,-0.896,-1478.1,-236.6,751.8,13.10,4.75,179.36,115.8,1765.9,12.1,20.2,-14.8,0.0,n/a,OK,4.0,    
4.00,-0.910,-1502.4,-247.3,766.2,13.24,4.78,179.61,115.1,1702.2,12.5,20.2,-13.9,0.1,n/a,OK,4.0,    
4.50,-0.923,-1526.3,-258.4,780.2,13.44,4.80,179.87,114.4,1633.2,13.1,20.2,-12.8,0.1,n/a,OK,4.0,    
5.00,-0.937,-1550.0,-269.8,793.5,13.67,4.81,-179.87,113.7,1574.4,13.7,20.2,-11.8,0.1,n/a,OK,4.0,    
5.50,-0.950,-1573.3,-281.6,806.4,13.94,4.82,-179.60,113.1,1518.6,14.3,20.2,-10.9,0.1,n/a,OK,4.0,    
6.00,-0.964,-1596.3,-293.7,818.8,14.16,4.82,-179.33,112.3,1458.0,14.9,20.2,-10.1,0.1,n/a,OK,4.0,    
6.50,-0.977,-1618.9,-306.0,830.6,14.55,4.82,-179.06,110.5,1355.3,15.7,20.2,-10.0,0.1,n/a,OK,4.0,    
7.00,-0.990,-1640.8,-318.4,841.4,15.00,4.82,-178.78,108.5,1228.2,16.5,20.2,-10.1,0.1,n/a,OK,4.0,    
7.50,-1.002,-1662.3,-331.0,851.1,15.40,4.80,-178.51,106.9,1105.1,17.1,20.1,-9.9,0.1,n/a,OK,4.0,    
8.00,-1.015,-1683.2,-343.8,859.8,15.88,4.78,-178.23,105.6,978.3,17.7,20.0,-9.3,0.1,n/a,OK,4.0,    
8.50,-1.027,-1703.7,-356.7,867.5,16.25,4.75,-177.95,104.3,859.5,18.2,19.9,-8.7,0.1,n/a,OK,4.0,    
9.00,-1.039,-1723.8,-369.8,874.2,16.59,4.72,-177.67,103.1,740.3,18.6,19.8,-8.1,0.1,n/a,OK,4.0,    
9.50,-1.051,-1743.5,-383.0,879.8,16.94,4.67,-177.40,101.8,619.0,19.0,19.6,-7.5,0.1,n/a,OK,4.0,    
10.00,-1.062,-1762.7,-396.3,884.5,17.37,4.62,-177.12,100.6,484.6,19.4,19.5,-7.0,0.1,n/a,OK,4.0,    
10.50,-1.074,-1781.6,-409.6,888.0,17.77,4.57,-176.85,99.5,361.2,19.7,19.3,-6.4,0.1,n/a,OK,4.0,    
11.00,-1.085,-1800.1,-423.1,890.5,18.22,4.50,-176.58,98.4,232.3,20.0,19.2,-5.9,0.1,n/a,OK,4.0,    
11.50,-1.096,-1818.3,-436.5,891.9,18.71,4.43,-176.31,97.2,100.5,20.2,19.1,-5.5,0.1,n/a,OK,4.0,    
12.00,-1.107,-1836.1,-450.0,892.2,19.18,4.35,-176.04,96.2,-23.0,20.4,18.9,-5.0,0.1,n/a,OK,4.0,    
12.50,-1.118,-1853.6,-463.6,891.5,19.64,4.27,-175.77,95.3,-152.6,20.6,18.8,-4.5,0.1,n/a,OK,4.0,    
13.00,-1.129,-1870.8,-477.1,889.8,20.04,4.18,-175.51,94.4,-278.6,20.7,18.5,-4.0,0.1,n/a,OK,4.0,    
13.50,-1.139,-1887.7,-490.6,886.9,20.44,4.08,-175.25,93.6,-409.6,21.0,18.3,-3.9,0.1,n/a,OK,4.0,    
14.00,-1.150,-1904.5,-504.2,883.1,20.68,3.98,-175.00,93.7,-507.2,21.3,18.0,-4.0,0.1,n/a,OK,4.0,    
14.50,-1.161,-1921.3,-518.0,878.6,20.75,3.87,-174.74,94.8,-554.9,21.5,17.9,-3.8,0.1,n/a,OK,4.0,    
15.00,-1.171,-1938.3,-532.1,873.9,20.77,3.76,-174.48,96.1,-579.4,21.7,17.8,-3.5,0.1,n/a,OK,4.0,    
15.50,-1.182,-1955.5,-546.4,869.0,20.78,3.65,-174.22,97.6,-574.9,22.1,17.8,-3.6,0.1,n/a,OK,4.0,    
16.00,-1.193,-1973.0,-561.0,864.3,20.84,3.54,-173.97,99.1,-546.7,22.4,18.0,-3.6,0.1,n/a,OK,4.0,    
16.50,-1.205,-1990.7,-576.0,859.9,20.89,3.44,-173.70,100.3,-500.9,22.9,18.3,-4.0,0.1,n/a,OK,4.0,    
17.00,-1.216,-2008.5,-591.2,856.0,20.93,3.34,-173.44,101.4,-434.5,23.6,18.6,-4.9,0.1,n/a,OK,4.0,    
17.50,-1.228,-2026.5,-606.8,852.7,20.95,3.25,-173.18,102.5,-357.3,24.0,19.0,-5.4,0.1,n/a,OK,4.0,    
18.00,-1.240,-2044.6,-622.7,850.1,20.91,3.16,-172.91,103.4,-269.4,24.2,19.3,-5.2,0.1,n/a,OK,4.0,    
18.50,-1.251,-2062.7,-638.9,848.2,20.74,3.09,-172.64,104.2,-176.5,24.4,19.6,-5.0,0.1,n/a,OK,4.0,    
19.00,-1.263,-2080.9,-655.4,847.1,20.42,3.01,-172.37,105.0,-73.3,25.2,19.8,-5.3,0.1,n/a,OK,4.0,    
19.50,-1.275,-2099.1,-672.1,846.9,20.06,2.95,-172.10,105.9,21.8,26.1,19.9,-6.3,0.1,n/a,OK,4.0,    
20.00,-1.288,-2117.4,-689.2,847.5,19.64,2.89,-171.83,106.7,119.6,27.2,19.8,-8.3,0.1,n/a,OK,4.0,    
20.50,-1.300,-2135.6,-706.8,848.8,19.23,2.84,-171.55,107.9,219.4,28.3,19.8,-10.6,0.1,n/a,OK,4.0,    
21.00,-1.312,-2153.9,-725.0,851.3,18.72,2.80,-171.26,111.0,399.5,29.0,20.1,-11.7,0.1,n/a,OK,4.0,    
21.50,-1.325,-2172.5,-744.2,855.7,18.20,2.77,-170.96,114.8,660.6,29.7,20.7,-11.6,0.1,n/a,OK,4.0,    
22.00,-1.338,-2191.6,-764.2,862.4,17.80,2.75,-170.65,118.2,966.9,30.2,21.5,-10.8,0.1,n/a,OK,4.0,    
22.50,-1.351,-2210.9,-785.2,871.8,17.43,2.75,-170.32,121.2,1309.9,30.8,22.5,-9.9,0.1,n/a,OK,4.0,    
23.00,-1.365,-2230.4,-806.8,884.2,16.88,2.78,-169.99,124.3,1696.5,31.5,23.3,-9.2,0.1,n/a,OK,4.0,    
23.50,-1.379,-2250.2,-829.2,899.9,15.72,2.82,-169.65,127.4,2078.7,33.3,23.3,-11.6,0.1,n/a,OK,4.0,    
24.00,-1.393,-2269.9,-852.5,918.4,14.24,2.88,-169.30,129.2,2323.4,35.7,22.3,-17.6,0.1,n/a,OK,4.0,    
24.50,-1.407,-2289.0,-876.4,938.1,13.23,2.95,-168.94,128.7,2381.8,37.6,21.4,-23.0,0.1,n/a,OK,4.0,    
25.00,-1.421,-2307.2,-900.9,957.8,13.05,3.02,-168.56,127.5,2349.1,39.0,21.3,-25.7,0.1,n/a,OK,4.0,    
25.50,-1.435,-2324.3,-925.9,977.2,13.53,3.09,-168.18,127.0,2309.9,40.4,21.8,-25.9,0.1,n/a,OK,4.0,    
26.00,-1.448,-2340.7,-951.5,996.4,14.11,3.15,-167.78,126.9,2305.9,41.9,22.3,-25.2,0.1,n/a,OK,4.0,    
26.50,-1.461,-2356.2,-977.6,1015.7,14.38,3.22,-167.37,126.9,2325.9,43.4,22.7,-24.2,0.1,n/a,OK,4.0,    
27.00,-1.473,-2370.9,-1004.4,1035.2,14.30,3.29,-166.95,126.8,2349.9,44.8,22.7,-23.2,0.1,n/a,OK,4.0,    
27.50,-1.486,-2384.8,-1031.6,1054.8,14.00,3.35,-166.53,126.7,2348.4,45.9,22.6,-21.7,0.1,n/a,OK,4.0,    
28.00,-1.498,-2397.9,-1059.2,1074.3,13.48,3.42,-166.09,126.5,2334.2,46.5,22.2,-19.1,0.1,n/a,OK,4.0,    
28.50,-1.510,-2410.3,-1087.2,1093.7,13.18,3.49,-165.65,126.4,2316.1,47.1,21.9,-16.9,0.1,n/a,OK,4.0,    
29.00,-1.522,-2422.1,-1115.4,1112.9,13.08,3.55,-165.21,126.3,2292.8,48.1,21.8,-15.9,0.1,n/a,OK,4.0,    
29.50,-1.534,-2433.3,-1144.0,1131.9,12.37,3.61,-164.76,126.2,2244.8,48.1,21.1,-13.3,0.2,n/a,OK,4.0,    
30.00,-1.545,-2444.2,-1172.8,1150.2,11.21,3.67,-164.31,126.3,2149.5,48.2,19.6,-11.3,0.2,n/a,OK,4.0,    
30.50,-1.557,-2454.7,-1201.9,1167.5,9.80,3.72,-163.86,126.6,1971.9,48.5,17.5,-10.6,0.2,n/a,OK,4.0,    
31.00,-1.569,-2465.0,-1231.3,1182.8,7.91,3.76,-163.42,127.5,1661.0,48.7,14.4,-10.4,0.2,n/a,OK,4.0,    
31.50,-1.581,-2475.4,-1261.2,1194.8,6.41,3.78,-162.97,128.9,1192.8,48.7,11.0,-10.5,0.2,n/a,OK,4.0,    
32.00,-1.593,-2485.8,-1291.6,1202.8,6.81,3.77,-162.51,130.5,715.8,49.1,9.5,-10.8,0.2,n/a,OK,4.0,    
32.50,-1.606,-2496.2,-1322.5,1207.3,8.89,3.74,-162.06,132.1,400.8,49.9,10.4,-10.8,0.2,n/a,OK,4.0,    
33.00,-1.618,-2506.5,-1353.9,1210.2,11.24,3.69,-161.60,133.4,328.2,50.9,12.5,-10.7,0.2,n/a,OK,4.0,    
33.50,-1.631,-2516.5,-1385.7,1213.2,12.62,3.66,-161.14,134.2,419.1,52.0,14.2,-10.5,0.2,n/a,OK,4.0,    
34.00,-1.644,-2526.2,-1417.9,1217.2,11.93,3.62,-160.68,135.0,536.5,53.2,13.8,-11.6,0.1,n/a,OK,4.0,    
34.50,-1.656,-2535.7,-1450.4,1221.7,9.86,3.59,-160.22,136.2,507.3,55.8,11.1,-18.1,0.1,n/a,OK,4.0,    
35.00,-1.669,-2544.5,-1483.5,1225.3,7.64,3.56,-159.75,138.1,311.6,57.5,7.6,-24.2,0.1,n/a,OK,4.0,    
35.50,-1.682,-2552.6,-1517.5,1226.7,6.35,3.51,-159.27,140.3,19.1,58.2,5.4,-26.9,0.1,n/a,OK,4.0,    
36.00,-1.695,-2560.3,-1552.4,1225.7,6.40,3.45,-158.78,144.0,-248.6,59.0,4.7,-27.7,0.1,n/a,OK,4.0,    
36.50,-1.708,-2567.5,-1588.5,1223.0,7.23,3.38,-158.26,148.5,-392.2,60.8,4.8,-30.6,0.1,n/a,OK,4.0,    
37.00,-1.721,-2574.0,-1626.1,1219.4,7.91,3.30,-157.73,153.3,-475.4,63.9,4.7,-38.3,0.1,n/a,OK,4.0,    
37.50,-1.735,-2579.1,-1665.2,1215.1,7.24,3.23,-157.17,157.9,-580.9,66.2,3.8,-43.1,0.1,n/a,OK,4.0,    
38.00,-1.748,-2582.7,-1705.8,1209.5,5.97,3.15,-156.58,162.5,-767.3,67.7,2.4,-44.6,0.1,n/a,OK,4.0,    
38.50,-1.761,-2584.9,-1747.8,1202.2,5.09,3.06,-155.97,167.2,-995.7,69.3,1.1,-44.2,0.1,n/a,OK,4.0,    
39.00,-1.774,-2585.6,-1791.2,1193.1,4.92,2.96,-155.33,172.3,-1185.3,71.5,0.4,-43.4,0.1,n/a,OK,4.0,    
39.50,-1.787,-2584.6,-1836.0,1182.7,4.95,2.85,-154.66,177.6,-1303.7,74.2,0.1,-42.9,0.1,n/a,OK,4.0,    
40.00,-1.800,-2581.8,-1882.2,1171.6,4.61,2.75,-153.96,182.9,-1359.8,76.7,-0.4,-42.9,0.1,n/a,OK,4.0,    
40.50,-1.812,-2576.8,-1929.7,1160.0,4.22,2.64,-153.23,188.3,-1428.5,79.2,-1.0,-43.0,0.1,n/a,OK,4.0,    
41.00,-1.825,-2569.9,-1978.5,1147.8,4.25,2.54,-152.48,193.7,-1494.9,81.8,-1.3,-43.3,0.1,n/a,OK,4.0,    
41.50,-1.837,-2560.6,-2028.5,1135.2,4.47,2.43,-151.69,199.1,-1520.0,84.6,-1.1,-43.7,0.1,n/a,OK,4.0,    
42.00,-1.848,-2549.0,-2079.5,1122.6,4.69,2.33,-150.88,204.5,-1505.6,87.5,-0.8,-44.1,0.1,n/a,OK,4.0,    
42.50,-1.859,-2534.7,-2131.5,1110.3,4.90,2.23,-150.04,209.9,-1430.1,90.4,-0.3,-44.4,0.1,n/a,OK,4.0,    
43.00,-1.870,-2517.6,-2184.2,1098.8,5.24,2.13,-149.17,215.2,-1315.9,93.6,0.4,-44.6,0.1,n/a,OK,4.0,    
43.50,-1.880,-2497.5,-2237.4,1088.5,6.03,2.05,-148.27,220.4,-1119.3,97.2,1.5,-44.8,0.1,n/a,OK,4.0,    
44.00,-1.889,-2474.2,-2291.0,1080.4,6.83,1.98,-147.33,225.4,-807.7,101.2,2.9,-44.9,0.1,n/a,OK,4.0,    
44.50,-1.898,-2447.5,-2344.5,1075.3,7.49,1.93,-146.38,229.0,-392.7,105.2,4.3,-45.7,0.1,n/a,OK,4.0,    
45.00,-1.905,-2417.6,-2396.6,1073.5,7.80,1.90,-145.41,226.0,-59.6,109.4,4.9,-49.6,0.1,n/a,OK,4.0,    
45.50,-1.910,-2384.9,-2446.1,1073.9,7.72,1.88,-144.44,222.7,136.1,113.5,4.7,-54.6,0.1,n/a,OK,4.0,    
46.00,-1.914,-2349.3,-2493.0,1074.9,7.47,1.88,-143.48,221.0,73.5,117.6,4.0,-59.8,0.1,n/a,OK,4.0,    
46.50,-1.917,-2310.9,-2537.3,1075.0,7.49,1.87,-142.52,219.4,-69.2,121.6,3.6,-61.3,0.1,n/a,OK,4.0,    
47.00,-1.918,-2270.0,-2578.8,1073.8,7.85,1.86,-141.57,217.4,-219.1,125.8,3.5,-61.1,0.1,n/a,OK,4.0,    
47.50,-1.917,-2226.8,-2617.3,1071.4,8.27,1.85,-140.62,215.1,-357.0,130.0,3.5,-60.7,0.1,n/a,OK,4.0,    
48.00,-1.915,-2181.6,-2652.8,1067.9,8.50,1.83,-139.68,212.8,-497.3,134.1,3.2,-60.5,0.1,n/a,OK,4.0,    
48.50,-1.912,-2134.7,-2685.0,1063.2,8.50,1.82,-138.74,210.6,-641.3,138.1,2.8,-60.3,0.1,n/a,OK,4.0,    
49.00,-1.907,-2086.2,-2714.0,1057.2,8.52,1.80,-137.82,208.4,-801.4,142.1,2.3,-60.1,0.1,n/a,OK,4.0,    
49.50,-1.901,-2036.5,-2739.7,1049.8,8.63,1.78,-136.91,206.2,-974.5,146.2,1.8,-60.0,0.0,n/a,OK,4.0,    
50.00,-1.893,-1985.7,-2762.2,1040.9,8.74,1.76,-136.02,204.1,-1177.0,150.2,1.4,-58.9,0.0,n/a,OK,4.0,    
50.50,-1.885,-1934.1,-2781.4,1030.5,8.96,1.73,-135.14,202.6,-1304.3,153.8,1.7,-53.7,0.0,n/a,OK,4.0,    
51.00,-1.875,-1881.7,-2797.6,1019.6,9.25,1.70,-134.27,201.9,-1287.0,157.1,2.4,-47.7,0.0,n/a,OK,4.0,    
51.50,-1.864,-1828.7,-2811.2,1009.3,9.44,1.67,-133.40,200.8,-1173.6,160.3,3.1,-43.5,0.0,n/a,OK,4.0,    
52.00,-1.853,-1775.5,-2822.0,1000.1,9.44,1.66,-132.55,198.9,-1030.6,163.3,3.7,-40.2,0.0,n/a,OK,4.0,    
52.50,-1.840,-1722.2,-2830.4,992.1,9.37,1.65,-131.72,196.7,-867.0,165.9,4.4,-37.3,0.0,n/a,OK,4.0,    
53.00,-1.827,-1669.2,-2836.4,985.6,9.29,1.65,-130.89,194.7,-679.5,168.4,5.2,-34.6,0.0,n/a,OK,4.0,    
53.50,-1.814,-1616.5,-2840.3,980.7,9.20,1.66,-130.08,192.5,-500.4,170.8,5.7,-34.1,0.0,n/a,OK,4.0,    
54.00,-1.800,-1564.2,-2842.3,977.1,9.17,1.68,-129.28,190.4,-358.3,173.4,6.2,-34.4,0.0,n/a,OK,4.0,    
54.50,-1.786,-1512.4,-2842.2,974.6,9.11,1.71,-128.49,188.1,-242.5,175.9,6.7,-34.9,0.0,n/a,OK,4.0,    
55.00,-1.771,-1461.4,-2840.3,972.9,9.24,1.74,-127.72,185.3,-160.2,178.6,7.0,-36.0,0.0,n/a,OK,4.0,    
55.50,-1.756,-1411.2,-2836.6,971.7,9.35,1.78,-126.96,182.1,-157.4,177.7,6.3,-42.8,0.0,n/a,OK,4.0,    
56.00,-1.741,-1362.0,-2830.8,969.8,8.93,1.82,-126.23,178.9,-320.5,174.1,5.1,-49.6,0.0,n/a,OK,4.0,    
56.50,-1.725,-1314.0,-2822.8,966.1,8.51,1.84,-125.52,176.0,-585.5,171.7,4.5,-48.6,0.0,n/a,OK,4.0,    
57.00,-1.708,-1267.1,-2812.9,960.4,8.34,1.86,-124.82,173.5,-774.3,170.6,4.5,-39.5,0.0,n/a,OK,4.0,    
57.50,-1.692,-1221.1,-2801.7,953.6,8.89,1.88,-124.15,171.4,-832.6,169.4,5.1,-29.1,0.0,n/a,OK,4.0,    
58.00,-1.675,-1176.0,-2789.6,946.7,9.69,1.89,-123.48,169.3,-812.2,167.7,5.9,-21.0,-0.0,n/a,OK,4.0,    
58.50,-1.659,-1131.7,-2776.5,940.1,9.78,1.91,-122.81,167.2,-770.6,167.4,6.4,-11.8,-0.0,n/a,OK,4.0,    
59.00,-1.642,-1088.0,-2763.1,934.0,8.79,1.92,-122.15,166.0,-691.8,168.4,5.9,-0.4,-0.0,n/a,OK,4.0,    
59.50,-1.626,-1044.4,-2749.7,928.4,8.05,1.94,-121.48,166.4,-640.8,168.9,5.5,6.5,-0.1,n/a,OK,4.0,    
60.00,-1.610,-1000.6,-2736.5,923.3,8.33,1.97,-120.79,166.5,-592.6,168.7,6.1,7.2,-0.1,n/a,OK,4.0,    
60.50,-1.595,-956.8,-2723.4,918.5,9.11,1.99,-120.08,165.5,-547.6,168.7,7.0,5.4,-0.1,n/a,OK,4.0,    
61.00,-1.579,-913.5,-2710.5,914.1,9.67,2.02,-119.37,163.4,-514.1,169.0,7.6,3.4,-0.1,n/a,OK,4.0,    
61.50,-1.565,-870.6,-2697.9,909.8,9.72,2.04,-118.65,161.2,-522.8,169.5,7.5,2.0,-0.0,n/a,OK,4.0,    
62.00,-1.550,-828.2,-2685.4,905.3,9.33,2.06,-117.93,159.7,-565.3,170.0,7.0,1.0,-0.0,n/a,OK,4.0,    
62.50,-1.536,-786.2,-2673.1,900.4,8.96,2.08,-117.20,158.3,-631.0,170.6,6.4,1.0,-0.0,n/a,OK,4.0,    
63.00,-1.523,-744.4,-2661.0,894.8,8.66,2.09,-116.46,157.0,-710.4,171.2,5.7,1.6,-0.0,n/a,OK,4.0,    
63.50,-1.510,-703.0,-2649.0,888.5,8.32,2.10,-115.71,155.9,-809.0,171.6,4.9,2.6,-0.0,n/a,OK,4.0,    
64.00,-1.497,-661.7,-2637.3,881.2,7.98,2.10,-114.95,155.1,-937.6,171.7,4.1,3.1,-0.0,n/a,OK,4.0,    
64.50,-1.484,-620.5,-2625.8,873.0,7.66,2.10,-114.18,155.8,-1054.9,171.5,3.4,2.3,-0.0,n/a,OK,4.0,    
65.00,-1.472,-578.8,-2614.2,863.8,7.48,2.08,-113.39,158.1,-1149.1,171.1,2.9,0.8,-0.0,n/a,OK,4.0,    
65.50,-1.460,-536.6,-2602.5,853.9,7.37,2.06,-112.57,160.9,-1205.3,170.9,2.5,0.1,-0.0,n/a,OK,4.0,    
66.00,-1.448,-493.7,-2590.5,843.7,7.37,2.04,-111.73,163.0,-1244.9,170.7,2.4,-0.8,-0.0,n/a,OK,4.0,    
66.50,-1.436,-450.4,-2578.4,833.3,7.53,2.02,-110.87,164.6,-1241.6,170.1,2.6,-2.8,-0.0,n/a,OK,4.0,    
67.00,-1.424,-406.7,-2566.1,823.1,7.49,1.99,-109.99,166.1,-1219.2,169.7,2.6,-3.8,-0.0,n/a,OK,4.0,    
67.50,-1.413,-362.8,-2553.3,813.0,7.36,1.97,-109.08,167.7,-1198.0,170.0,2.7,-1.7,-0.0,n/a,OK,4.0,    
68.00,-1.401,-318.4,-2540.4,803.2,7.24,1.94,-108.16,169.3,-1144.0,170.6,2.8,1.8,-0.0,n/a,OK,4.0,    
68.50,-1.390,-273.6,-2527.5,793.9,7.05,1.92,-107.21,170.9,-1077.5,170.9,2.9,3.1,-0.0,n/a,OK,4.0,    
69.00,-1.379,-228.4,-2514.6,785.3,7.02,1.90,-106.24,172.3,-993.8,171.1,3.2,3.1,-0.0,n/a,OK,4.0,    
69.50,-1.369,-182.9,-2501.7,777.4,7.07,1.89,-105.24,173.3,-895.0,171.2,3.7,2.8,-0.0,n/a,OK,4.0,    
70.00,-1.359,-137.0,-2488.9,770.4,7.22,1.88,-104.23,174.1,-771.3,171.4,4.3,2.5,-0.0,n/a,OK,4.0,    
70.50,-1.349,-91.0,-2476.0,764.5,7.28,1.87,-103.20,174.6,-625.2,171.6,5.0,2.4,-0.0,n/a,OK,4.0,    
71.00,-1.340,-45.0,-2463.3,759.9,7.48,1.87,-102.15,172.9,-488.8,171.7,5.8,2.3,-0.0,n/a,OK,4.0,    
71.50,-1.331,0.4,-2450.9,756.2,7.62,1.88,-101.10,170.1,-395.7,171.9,6.3,2.3,-0.0,n/a,OK,4.0,    
72.00,-1.323,45.2,-2438.8,753.2,7.70,1.88,-100.06,167.7,-344.1,172.0,6.6,2.2,-0.0,n/a,OK,4.0,    
72.50,-1.316,89.4,-2427.0,750.4,7.76,1.89,-99.02,165.6,-321.2,172.2,6.7,2.2,-0.0,n/a,OK,4.0,    
73.00,-1.309,133.2,-2415.3,747.7,7.78,1.90,-97.98,163.8,-331.7,172.4,6.7,2.1,-0.0,n/a,OK,4.0,    
73.50,1.303,176.6,-2404.0,744.8,7.99,1.90,-96.94,162.1,-370.8,172.5,6.6,2.1,-0.0,n/a,OK,4.0,    
74.00,1.297,219.7,-2392.8,741.5,8.39,1.89,-95.90,160.5,-427.6,172.0,6.8,0.1,-0.0,n/a,OK,4.0,    
74.50,1.292,262.4,-2381.8,737.8,8.70,1.89,-94.86,159.4,-472.4,171.2,6.8,-3.0,-0.0,n/a,OK,4.0,    
75.00,1.287,304.9,-2370.6,733.7,8.52,1.87,-93.82,159.4,-508.9,170.9,6.5,-4.8,-0.0,n/a,OK,4.0,    
75.50,1.283,347.4,-2359.2,729.3,8.26,1.86,-92.77,159.6,-554.5,170.8,6.0,-4.8,-0.0,n/a,OK,4.0,    
76.00,1.279,389.8,-2347.7,724.4,8.26,1.84,-91.72,159.3,-616.5,170.7,5.7,-4.6,-0.0,n/a,OK,4.0,    
76.50,1.275,432.0,-2336.1,719.1,8.52,1.81,-90.66,158.6,-668.8,170.4,5.7,-4.5,-0.0,n/a,OK,4.0,    
77.00,1.271,474.1,-2324.3,713.2,8.84,1.78,-89.61,158.1,-727.2,170.2,5.8,-4.6,-0.0,n/a,OK,4.0,    
77.50,1.268,516.0,-2312.5,707.0,8.94,1.74,-88.55,157.8,-773.8,169.9,5.7,-4.6,-0.0,n/a,OK,4.0,    
78.00,1.265,557.7,-2300.4,700.3,8.83,1.70,-87.50,157.6,-839.6,169.5,5.3,-4.7,-0.0,n/a,OK,4.0,    
78.50,1.263,599.4,-2288.3,693.0,8.71,1.65,-86.44,157.4,-912.3,169.2,4.9,-4.8,-0.0,n/a,OK,4.0,    
79.00,1.261,640.9,-2275.9,685.1,8.62,1.60,-85.38,157.3,-978.4,168.8,4.6,-5.0,-0.0,n/a,OK,4.0,    
79.50,1.259,682.4,-2263.4,676.7,8.66,1.54,-84.32,157.2,-1052.7,168.4,4.2,-5.2,-0.0,n/a,OK,4.0,    
80.00,1.257,723.8,-2250.7,667.6,8.75,1.48,-83.26,157.2,-1131.9,168.1,4.0,-5.0,-0.0,n/a,OK,4.0,    
80.50,1.256,765.0,-2237.7,657.9,8.68,1.41,-82.20,157.3,-1207.5,168.6,3.7,-1.1,-0.0,n/a,OK,4.0,    
81.00,1.255,806.3,-2224.6,647.6,8.35,1.33,-81.14,157.6,-1265.4,169.6,3.1,4.7,-0.0,n/a,OK,4.0,    
81.50,1.255,847.8,-2211.8,636.8,8.19,1.25,-80.07,158.5,-1331.2,170.0,2.6,7.4,-0.0,n/a,OK,4.0,    
82.00,1.256,889.8,-2199.2,625.5,8.25,1.16,-79.00,160.9,-1366.6,169.8,2.7,6.0,-0.0,n/a,OK,4.0,    
82.50,1.256,932.5,-2186.5,614.2,8.31,1.07,-77.91,163.8,-1338.1,169.5,2.9,3.6,-0.0,n/a,OK,4.0,    
83.00,1.258,975.9,-2173.6,603.3,8.42,0.98,-76.81,166.3,-1269.3,169.3,3.3,0.7,-0.0,n/a,OK,4.0,    
83.50,1.260,1019.9,-2160.5,593.1,8.37,0.90,-75.70,168.1,-1159.5,169.2,3.7,-1.6,-0.0,n/a,OK,4.0,    
84.00,1.262,1064.2,-2147.2,583.9,8.41,0.82,-74.58,169.2,-1039.5,169.3,4.2,-2.5,-0.0,n/a,OK,4.0,    
84.50,1.265,1108.6,-2133.8,575.8,8.64,0.75,-73.46,169.0,-911.5,169.0,4.9,-3.9,-0.0,n/a,OK,4.0,    
85.00,1.268,1152.9,-2120.2,568.7,8.76,0.68,-72.36,168.7,-780.0,168.7,5.5,-4.8,-0.0,n/a,OK,4.0,    
85.50,1.272,1197.0,-2106.4,562.7,8.67,0.62,-71.26,168.8,-659.3,168.6,6.0,-4.4,-0.0,n/a,OK,4.0,    
86.00,1.276,1241.2,-2092.4,557.6,8.52,0.57,-70.16,169.1,-551.6,169.0,6.2,-1.1,-0.0,n/a,OK,4.0,    
86.50,1.280,1285.5,-2078.4,553.5,8.36,0.52,-69.08,169.3,-429.8,169.1,6.6,1.3,-0.0,n/a,OK,4.0,    
87.00,1.285,1329.8,-2064.5,550.5,8.38,0.49,-68.00,169.2,-296.1,169.2,7.2,2.2,-0.0,n/a,OK,4.0,    
87.50,1.290,1374.1,-2050.6,548.5,8.40,0.45,-66.93,169.0,-167.9,169.4,7.8,3.1,-0.0,n/a,OK,4.0,    
88.00,1.296,1418.4,-2036.9,547.6,8.35,0.43,-65.88,168.7,-41.1,169.7,8.2,3.9,-0.0,n/a,OK,4.0,    
88.50,1.303,1462.7,-2023.4,547.7,8.22,0.41,-64.83,168.2,64.0,170.0,8.5,4.4,-0.0,n/a,OK,4.0,    
89.00,1.310,1506.8,-2010.2,548.7,8.37,0.39,-63.81,167.0,159.0,169.8,8.9,3.1,-0.0,n/a,OK,4.0,    
89.50,1.317,1550.6,-1997.1,550.3,8.40,0.38,-62.81,165.8,241.7,169.8,9.3,1.9,-0.0,n/a,OK,4.0,    
90.00,1.325,1594.3,-1984.2,552.6,8.48,0.37,-61.82,165.0,303.5,169.9,9.5,1.2,-0.0,n/a,OK,4.0,    
90.50,1.334,1637.7,-1971.4,555.4,8.50,0.36,-60.86,164.3,364.0,170.1,9.8,0.9,-0.0,n/a,OK,4.0,    
91.00,1.342,1681.0,-1958.7,558.6,8.33,0.36,-59.91,163.5,407.7,170.4,9.9,0.8,-0.0,n/a,OK,4.0,    
91.50,1.351,1724.1,-1946.1,562.1,8.25,0.36,-58.98,162.7,439.2,170.5,9.9,0.9,-0.0,n/a,OK,4.0,    
92.00,1.361,1767.0,-1933.6,565.9,8.15,0.35,-58.06,161.9,458.7,170.7,9.9,1.1,-0.0,n/a,OK,4.0,    
92.50,1.370,1809.7,-1921.2,569.8,8.18,0.35,-57.17,161.1,472.6,170.8,10.0,1.3,-0.0,n/a,OK,4.0,    
93.00,1.380,1852.2,-1909.0,573.8,8.12,0.35,-56.29,160.3,483.7,170.9,10.1,1.6,-0.0,n/a,OK,4.0,    
93.50,1.391,1894.6,-1896.9,577.8,8.20,0.35,-55.43,159.5,469.1,170.8,10.1,1.4,-0.0,n/a,OK,4.0,    
94.00,1.401,1936.8,-1885.0,581.5,8.32,0.34,-54.59,158.4,438.7,170.2,10.1,-0.5,-0.0,n/a,OK,4.0,    
94.50,1.412,1978.7,-1873.1,585.1,8.36,0.33,-53.77,157.3,409.3,169.8,10.0,-2.0,-0.0,n/a,OK,4.0,    
95.00,1.424,2020.3,-1861.2,588.3,8.32,0.32,-52.96,156.4,362.6,169.6,9.8,-2.6,-0.0,n/a,OK,4.0,    
95.50,1.435,2061.7,-1849.2,591.1,8.43,0.31,-52.17,155.5,293.5,169.5,9.6,-2.9,-0.0,n/a,OK,4.0,    
96.00,1.446,2102.8,-1837.3,593.2,8.44,0.29,-51.40,154.3,211.2,169.5,9.3,-3.1,-0.0,n/a,OK,4.0,    
96.50,1.458,2143.6,-1825.4,594.6,8.59,0.27,-50.64,153.2,108.8,169.5,8.9,-3.1,-0.0,n/a,OK,4.0,    
97.00,1.470,2184.1,-1813.4,595.0,8.69,0.24,-49.90,152.4,-4.2,169.3,8.5,-2.9,-0.0,n/a,OK,4.0,    
97.50,1.482,2224.4,-1801.4,594.5,8.80,0.21,-49.18,151.8,-131.2,169.1,8.1,-2.8,-0.0,n/a,OK,4.0,    
98.00,1.494,2264.6,-1789.4,592.9,9.04,0.17,-48.46,151.2,-257.9,169.0,7.7,-2.8,-0.0,n/a,OK,4.0,    
98.50,1.506,2304.5,-1777.3,590.2,8.97,0.12,-47.77,150.7,-395.3,168.8,7.1,-2.7,-0.0,n/a,OK,4.0,    
99.00,1.519,2344.4,-1765.1,586.3,9.09,0.07,-47.08,150.3,-537.0,168.6,6.5,-2.7,-0.0,n/a,OK,4.0,    
99.50,1.531,2384.1,-1752.9,581.3,9.08,0.01,-46.40,150.1,-672.6,168.4,6.0,-2.7,-0.0,n/a,OK,4.0,    
100.00,1.544,2423.8,-1740.7,575.2,8.93,-0.06,-45.74,150.6,-788.5,168.1,5.3,-2.8,-0.0,n/a,OK,4.0,    
100.50,1.557,2463.7,-1728.2,568.2,8.72,-0.13,-45.08,152.0,-900.0,167.8,4.7,-2.9,-0.0,n/a,OK,4.0,    
101.00,1.570,2503.8,-1715.5,560.3,8.56,-0.20,-44.43,153.2,-997.3,167.6,4.2,-3.0,-0.0,n/a,OK,4.0,    
101.50,1.584,2544.2,-1702.6,551.6,8.63,-0.28,-43.78,154.3,-1084.1,167.4,4.0,-3.2,-0.0,n/a,OK,4.0,    
102.00,1.598,2584.8,-1689.4,542.3,8.72,-0.36,-43.13,155.5,-1140.8,167.2,3.9,-3.4,-0.0,n/a,OK,4.0,    
102.50,1.612,2625.6,-1676.0,532.7,8.68,-0.45,-42.49,156.9,-1172.7,166.9,3.8,-3.6,-0.0,n/a,OK,4.0,    
103.00,1.626,2666.7,-1662.5,522.7,8.87,-0.53,-41.86,158.2,-1227.4,166.2,3.7,-7.5,-0.0,n/a,OK,4.0,    
103.50,1.640,2708.1,-1648.5,512.4,9.08,-0.61,-41.23,159.5,-1221.3,164.1,3.7,-14.4,-0.0,n/a,OK,4.0,    
104.00,1.655,2749.5,-1633.7,502.3,8.61,-0.69,-40.59,161.2,-1205.6,162.4,3.2,-18.1,-0.0,n/a,OK,4.0,    
104.50,1.669,2791.1,-1617.9,492.3,7.76,-0.77,-39.96,163.0,-1209.6,161.5,2.6,-19.3,-0.0,n/a,OK,4.0,    
105.00,1.684,2832.7,-1601.2,482.2,7.48,-0.85,-39.31,164.7,-1218.2,160.5,2.3,-19.5,-0.0,n/a,OK,4.0,    
105.50,1.698,2874.4,-1583.6,472.1,7.79,-0.93,-38.67,166.1,-1195.5,159.3,2.8,-19.5,-0.0,n/a,OK,4.0,    
106.00,1.713,2916.0,-1565.1,462.4,8.25,-1.00,-38.02,167.3,-1123.9,157.8,3.6,-19.8,-0.0,n/a,OK,4.0,    
106.50,1.727,2957.5,-1545.6,453.3,8.17,-1.07,-37.37,168.3,-1041.3,155.8,3.8,-22.2,-0.0,n/a,OK,4.0,    
107.00,1.741,2998.7,-1525.0,444.9,7.88,-1.14,-36.71,168.8,-986.1,154.0,3.6,-24.1,-0.0,n/a,OK,4.0,    
107.50,1.755,3039.3,-1503.4,436.9,7.77,-1.20,-36.05,168.1,-941.9,152.1,3.6,-24.7,-0.1,n/a,OK,4.0,    
108.00,1.769,3079.2,-1481.0,429.1,7.88,-1.26,-35.40,167.5,-905.6,150.3,3.9,-24.9,-0.1,n/a,OK,4.0,    
108.50,1.782,3118.4,-1457.7,421.8,8.14,-1.31,-34.75,167.2,-864.6,148.4,4.1,-25.1,-0.1,n/a,OK,4.0,    
109.00,1.795,3156.9,-1433.4,414.7,8.22,-1.36,-34.10,167.0,-829.6,146.4,4.3,-25.4,-0.1,n/a,OK,4.0,    
109.50,1.807,3194.6,-1408.2,407.9,8.21,-1.41,-33.45,166.7,-794.4,144.5,4.4,-25.9,-0.1,n/a,OK,4.0,    
110.00,1.820,3231.6,-1382.0,401.4,8.27,-1.46,-32.80,166.5,-759.4,142.6,4.6,-26.5,-0.1,n/a,OK,4.0,    
110.50,1.831,3267.8,-1354.9,395.3,8.19,-1.50,-32.14,167.1,-704.2,140.6,4.7,-27.0,-0.1,n/a,OK,4.0,    
111.00,1.843,3303.3,-1326.5,389.7,8.11,-1.55,-31.49,168.1,-635.6,138.6,4.9,-27.6,-0.1,n/a,OK,4.0,    
111.50,1.854,3338.1,-1297.0,384.7,8.10,-1.58,-30.82,168.8,-563.1,136.5,5.1,-28.2,-0.1,n/a,OK,4.0,    
112.00,1.865,3371.9,-1266.3,380.4,8.18,-1.61,-30.15,169.3,-479.3,134.3,5.4,-28.8,-0.1,n/a,OK,4.0,    
112.50,1.875,3404.8,-1234.6,376.7,8.18,-1.64,-29.48,169.6,-387.1,132.1,5.8,-29.4,-0.1,n/a,OK,4.0,    
113.00,1.885,3436.7,-1201.7,373.9,8.05,-1.67,-28.81,169.8,-291.8,130.0,6.1,-30.1,-0.1,n/a,OK,4.0,    
113.50,1.894,3467.4,-1167.9,371.8,7.97,-1.69,-28.13,170.0,-199.0,127.7,6.4,-30.6,-0.1,n/a,OK,4.0,    
114.00,1.903,3496.8,-1133.0,370.6,8.05,-1.70,-27.46,170.0,-99.2,125.4,6.8,-31.3,-0.1,n/a,OK,4.0,    
114.50,1.911,3524.9,-1097.2,370.2,8.05,-1.71,-26.78,169.9,8.1,123.0,7.2,-31.9,-0.1,n/a,OK,4.0,    
115.00,1.919,3551.7,-1060.5,370.7,8.08,-1.71,-26.09,169.7,113.1,120.6,7.5,-32.5,-0.1,n/a,OK,4.0,    
115.50,1.926,3577.0,-1022.9,372.0,7.89,-1.71,-25.41,169.2,211.3,118.1,7.7,-32.9,-0.1,n/a,OK,4.0,    
116.00,1.933,3600.7,-984.8,374.0,7.93,-1.71,-24.73,167.4,267.2,115.4,7.7,-34.1,-0.1,n/a,OK,4.0,    
116.50,1.938,3622.7,-946.5,376.3,8.08,-1.71,-24.06,164.8,281.9,112.7,7.8,-35.4,-0.1,n/a,OK,4.0,    
117.00,1.943,3642.9,-908.1,378.7,8.27,-1.70,-23.40,162.4,282.1,109.8,7.9,-37.0,-0.1,n/a,OK,4.0,    
117.50,1.948,3661.3,-869.5,380.9,8.30,-1.69,-22.75,160.4,241.0,106.9,7.6,-38.7,-0.1,n/a,OK,4.0,    
118.00,1.952,3677.9,-830.8,382.7,8.20,-1.69,-22.11,158.5,182.5,104.2,7.3,-39.8,-0.1,n/a,OK,4.0,    
118.50,1.955,3692.7,-792.0,383.9,8.22,-1.69,-21.47,156.6,99.9,101.2,6.8,-41.8,-0.1,n/a,OK,4.0,    
119.00,1.957,3705.7,-753.2,384.3,8.23,-1.69,-20.84,154.8,-30.7,98.0,5.9,-45.1,-0.1,n/a,OK,4.0,    
119.50,1.958,3716.5,-714.3,383.3,7.95,-1.69,-20.21,153.8,-204.7,94.6,4.9,-48.3,-0.1,n/a,OK,4.0,    
120.00,1.959,3725.2,-675.2,380.8,7.62,-1.70,-19.59,153.9,-418.7,91.5,3.9,-49.5,-0.1,n/a,OK,4.0,    
120.50,1.958,3731.6,-635.6,376.5,7.74,-1.72,-18.97,155.1,-602.8,88.5,3.5,-48.3,-0.1,n/a,OK,4.0,    
121.00,1.957,3735.8,-595.6,371.0,8.19,-1.75,-18.35,156.2,-726.0,84.9,3.4,-47.3,-0.1,n/a,OK,4.0,    
121.50,1.954,3737.7,-555.4,364.6,8.48,-1.78,-17.73,156.8,-821.5,81.3,3.1,-47.5,-0.1,n/a,OK,4.0,    
122.00,1.951,3737.0,-515.3,357.3,8.39,-1.81,-17.12,157.2,-924.9,77.8,2.5,-48.4,-0.1,n/a,OK,4.0,    
122.50,1.946,3733.9,-475.3,349.2,8.17,-1.84,-16.51,158.1,-1030.3,74.4,2.0,-49.3,-0.1,n/a,OK,4.0,    
123.00,1.940,3728.1,-435.5,340.1,8.10,-1.88,-15.90,159.9,-1135.5,70.8,1.5,-50.1,-0.1,n/a,OK,4.0,    
123.50,1.933,3719.5,-395.9,330.3,8.11,-1.92,-15.30,161.8,-1235.5,67.2,1.2,-49.6,-0.1,n/a,OK,4.0,    
124.00,1.925,3708.1,-356.8,319.8,8.19,-1.97,-14.71,163.7,-1271.8,63.7,1.3,-47.5,-0.1,n/a,OK,4.0,    
124.50,1.915,3693.9,-318.3,309.2,8.28,-2.01,-14.13,165.5,-1241.5,60.3,1.6,-45.1,-0.1,n/a,OK,4.0,    
125.00,1.904,3677.1,-280.6,299.2,8.35,-2.05,-13.55,167.2,-1147.9,57.0,2.2,-43.2,-0.1,n/a,OK,4.0,    
125.50,1.892,3657.7,-243.8,290.3,8.30,-2.08,-12.99,168.8,-991.5,53.8,2.7,-42.5,-0.1,n/a,OK,4.0,    
126.00,1.879,3635.7,-208.2,282.7,7.97,-2.11,-12.44,170.5,-827.2,50.5,3.0,-43.4,-0.1,n/a,OK,4.0,    
126.50,1.865,3611.3,-173.9,276.4,7.70,-2.13,-11.91,172.1,-675.6,47.2,3.3,-44.8,-0.1,n/a,OK,4.0,    
127.00,1.849,3584.3,-141.1,271.3,7.61,-2.15,-11.39,173.6,-527.3,43.8,3.7,-46.0,-0.1,n/a,OK,4.0,    
127.50,1.833,3555.0,-110.2,267.5,7.77,-2.15,-10.90,175.0,-378.2,40.2,4.3,-47.1,-0.1,n/a,OK,4.0,    
128.00,1.815,3523.3,-81.4,265.0,7.90,-2.15,-10.44,176.3,-209.7,36.4,4.8,-47.9,-0.1,n/a,OK,4.0,    
128.50,1.797,3489.4,-54.9,263.9,7.66,-2.15,-10.01,177.6,-53.6,32.9,5.3,-47.3,-0.0,n/a,OK,4.0,    
129.00,1.777,3453.4,-30.9,264.3,7.60,-2.13,-9.61,178.9,159.2,29.8,6.1,-44.0,-0.0,n/a,OK,4.0,    
129.50,1.757,3415.9,-9.4,266.7,7.83,-2.10,-9.24,177.5,439.4,27.0,7.4,-39.6,-0.0,n/a,OK,4.0,    
130.00,1.736,3378.2,9.5,271.6,8.02,-2.06,-8.92,171.6,744.4,24.2,8.7,-37.3,-0.0,n/a,OK,4.0,    
130.50,1.716,3341.0,25.6,278.8,7.36,-2.01,-8.63,166.5,972.4,22.4,9.3,-33.4,-0.0,n/a,OK,4.0,    
131.00,1.696,3304.1,39.4,287.8,6.37,-1.94,-8.38,162.8,1206.0,22.0,9.8,-22.5,-0.0,n/a,OK,4.0,    
131.50,1.677,3267.9,51.8,299.0,6.59,-1.86,-8.15,159.1,1514.5,21.4,11.2,-13.9,-0.1,n/a,OK,4.0,    
132.00,1.658,3232.5,63.3,313.1,7.73,-1.76,-7.93,154.6,1891.3,19.7,13.6,-13.2,-0.1,n/a,OK,4.0,    
132.50,1.639,3198.1,73.5,330.2,7.91,-1.65,-7.72,149.7,2214.9,18.4,15.0,-13.4,-0.1,n/a,OK,4.0,    
133.00,1.622,3164.8,82.6,349.7,7.42,-1.52,-7.54,145.0,2448.6,17.8,15.6,-12.7,-0.1,n/a,OK,4.0,    
133.50,1.604,3132.7,90.6,370.7,7.02,-1.38,-7.37,140.4,2600.9,17.4,16.0,-9.3,-0.1,n/a,OK,4.0,    
134.00,1.588,3101.6,98.0,393.0,7.35,-1.23,-7.22,135.8,2733.1,17.1,17.1,-6.6,-0.1,n/a,OK,4.0,    
134.50,1.572,3071.8,104.9,416.2,7.99,-1.07,-7.06,130.9,2853.4,16.4,18.6,-6.5,-0.1,n/a,OK,4.0,    
135.00,1.556,3043.3,111.2,440.3,8.32,-0.90,-6.92,125.9,2925.2,15.9,19.5,-6.4,-0.1,n/a,OK,4.0,    
135.50,1.542,3016.0,117.0,464.8,8.18,-0.74,-6.79,121.1,2929.4,15.7,19.8,-5.2,-0.1,n/a,OK,4.0,    
136.00,1.528,2989.9,122.4,489.0,8.15,-0.57,-6.66,116.5,2867.6,15.4,19.9,-5.0,-0.1,n/a,OK,4.0,    
136.50,1.515,2965.0,127.5,512.5,8.43,-0.40,-6.54,112.0,2757.5,15.0,20.1,-5.2,-0.1,n/a,OK,4.0,    
137.00,1.502,2941.0,132.2,534.9,8.80,-0.24,-6.42,107.6,2610.0,14.5,20.1,-5.4,-0.1,n/a,OK,4.0,    
137.50,1.489,2918.1,136.7,555.9,8.94,-0.08,-6.31,103.4,2417.2,14.3,19.7,-5.0,-0.1,n/a,OK,4.0,    
138.00,1.478,2896.1,140.9,575.1,8.91,0.06,-6.20,99.5,2182.6,14.1,19.0,-4.2,-0.1,n/a,OK,4.0,    
138.50,1.466,2874.9,144.8,592.3,9.09,0.20,-6.10,95.8,1914.5,13.8,18.1,-4.0,-0.1,n/a,OK,4.0,    
139.00,1.456,2854.5,148.6,607.0,9.36,0.32,-6.00,92.4,1618.2,13.6,17.1,-4.1,-0.1,n/a,OK,4.0,    
139.50,1.445,2834.8,152.2,619.3,9.55,0.42,-5.90,89.3,1306.5,13.3,15.9,-4.2,-0.1,n/a,OK,4.0,    
140.00,1.435,2815.7,155.7,628.9,9.64,0.51,-5.81,86.8,980.7,13.0,14.4,-4.3,-0.1,n/a,OK,4.0,    
140.50,1.425,2797.0,159.0,635.8,9.43,0.58,-5.72,86.1,678.9,12.9,12.6,-4.5,-0.1,n/a,OK,4.0,    
141.00,1.415,2778.0,162.1,640.4,8.95,0.64,-5.62,87.6,420.0,12.7,10.8,-4.6,-0.1,n/a,OK,4.0,    
141.50,1.404,2758.4,165.2,643.0,8.44,0.68,-5.53,90.9,196.0,12.6,9.1,-4.1,-0.1,n/a,OK,4.0,    
142.00,1.393,2737.8,168.2,643.8,8.14,0.72,-5.44,94.9,8.1,12.6,8.0,-2.8,-0.1,n/a,OK,4.0,    
142.50,1.382,2716.1,171.2,643.3,8.23,0.75,-5.34,99.2,-123.1,12.5,7.5,-2.1,-0.1,n/a,OK,4.0,    
143.00,1.369,2693.3,174.3,642.0,8.53,0.78,-5.25,103.7,-196.1,12.1,7.5,-2.4,-0.1,n/a,OK,4.0,    
143.50,1.357,2669.4,177.3,640.3,8.69,0.81,-5.14,107.5,-209.8,11.5,7.6,-3.3,-0.1,n/a,OK,4.0,    
144.00,1.343,2644.6,180.2,638.6,8.66,0.84,-5.04,110.3,-190.1,11.1,7.7,-4.4,-0.1,n/a,OK,4.0,    
144.50,1.330,2619.1,182.9,637.2,8.46,0.87,-4.94,113.0,-144.0,10.7,7.6,-5.2,-0.0,X0,OK,4.0,    
145.00,1.316,2593.1,185.3,636.1,8.30,0.91,-4.84,114.2,-102.0,10.4,7.7,-5.6,-0.0,X0,OK,4.0,    
145.50,1.302,2566.8,187.6,635.5,8.46,0.95,-4.74,114.7,-45.8,10.0,8.1,-5.9,-0.0,X0,OK,4.0,    
146.00,1.288,2540.5,189.5,635.3,8.66,0.99,-4.65,114.6,5.8,9.6,8.5,-6.1,-0.0,X0,OK,4.0,    
146.50,1.274,2514.3,191.2,635.5,8.70,1.04,-4.56,113.0,36.1,9.2,8.7,-6.3,-0.0,X0,OK,4.0,    
147.00,1.260,2488.6,192.7,635.9,8.71,1.09,-4.48,111.3,38.3,8.8,8.7,-6.3,-0.0,X0,OK,4.0,    
147.50,1.246,2463.2,193.8,636.1,8.47,1.14,-4.40,110.3,19.0,8.4,8.5,-6.4,-0.0,X0,OK,4.0,    
148.00,1.233,2438.0,194.8,636.1,8.28,1.19,-4.33,109.7,-22.2,8.0,8.2,-6.5,-0.0,X0,OK,4.0,    
148.50,1.219,2413.0,195.4,635.8,8.29,1.24,-4.26,109.1,-55.2,7.4,8.1,-6.6,-0.0,X0,OK,4.0,    
149.00,1.206,2388.1,195.8,635.0,8.55,1.29,-4.20,108.5,-129.2,7.5,8.1,-4.4,-0.0,X0,OK,4.0,    
149.50,1.193,2363.4,196.0,633.8,8.68,1.33,-4.14,107.3,-176.8,8.1,8.0,-1.7,-0.0,X0,OK,4.0,    
150.00,1.180,2339.0,196.3,632.1,8.67,1.37,-4.08,106.3,-237.0,8.2,7.7,-0.1,-0.0,X0,OK,4.0,    
150.50,1.167,2314.9,196.7,629.8,8.52,1.40,-4.02,105.5,-310.3,7.6,7.2,-0.5,-0.0,X0,OK,4.0,    
151.00,1.154,2290.9,196.9,626.9,8.28,1.43,-3.95,105.0,-388.9,7.0,6.7,-1.6,-0.0,X0,OK,4.0,    
151.50,1.141,2267.1,197.1,623.3,8.33,1.45,-3.89,104.5,-482.8,6.6,6.3,-2.2,-0.0,X0,OK,4.0,    
152.00,1.128,2243.4,197.2,618.9,8.52,1.47,-3.83,104.0,-577.3,6.4,6.1,-2.7,-0.0,X0,OK,4.0,    
152.50,1.115,2219.8,197.2,613.7,8.57,1.48,-3.77,103.5,-679.2,6.3,5.7,-3.3,-0.0,X0,OK,4.0,    
153.00,1.103,2196.4,197.1,607.6,8.44,1.49,-3.72,103.3,-782.9,6.2,5.2,-3.6,-0.0,X0,OK,4.0,    
153.50,1.090,2172.9,196.9,600.7,8.33,1.49,-3.66,103.7,-888.2,6.2,4.7,-3.4,-0.0,X0,OK,4.0,    
154.00,1.077,2149.2,196.5,592.9,8.06,1.48,-3.61,105.7,-965.9,6.3,4.2,-2.5,-0.0,X0,OK,4.0,    
154.50,1.064,2124.9,196.0,584.6,7.77,1.47,-3.56,108.5,-1019.6,6.4,3.8,-1.9,-0.0,X0,OK,4.0,    
155.00,1.051,2099.9,195.4,576.0,7.72,1.45,-3.51,111.2,-1047.2,6.3,3.7,-1.6,-0.0,X0,OK,4.0,    
155.50,1.037,2074.2,194.7,567.3,7.96,1.44,-3.46,113.4,-1029.2,6.0,3.9,-1.9,-0.0,X0,OK,4.0,    
156.00,1.023,2048.0,193.9,558.9,8.16,1.43,-3.40,115.4,-979.9,5.8,4.3,-2.3,-0.0,X0,OK,4.0,    
156.50,1.009,2021.3,193.0,551.1,8.27,1.43,-3.35,117.2,-892.9,5.1,4.8,-3.5,-0.0,X0,OK,4.0,    
157.00,0.994,1994.1,191.8,544.0,8.02,1.44,-3.31,118.9,-793.1,4.9,5.0,-3.4,-0.0,X0,OK,4.0,    
157.50,0.979,1966.5,190.5,537.8,7.42,1.45,-3.26,120.7,-694.0,5.2,4.8,-0.7,-0.0,X0,OK,4.0,    
158.00,0.964,1938.4,189.1,532.5,7.49,1.48,-3.22,122.2,-580.6,5.3,5.4,0.7,-0.0,X0,OK,4.0,    
158.50,0.949,1910.3,187.7,528.2,8.34,1.51,-3.17,120.1,-446.8,5.3,6.7,0.7,-0.0,X0,OK,4.0,    
159.00,0.934,1882.9,186.4,524.9,8.98,1.56,-3.12,116.7,-344.1,5.3,7.6,0.3,-0.0,X0,OK,4.0,    
159.50,0.920,1856.3,185.2,522.3,8.90,1.61,-3.07,114.4,-300.7,5.2,7.7,-0.4,-0.0,X0,OK,4.0,    
160.00,0.905,1830.3,184.0,519.7,8.59,1.66,-3.02,112.3,-313.9,4.7,7.2,-2.9,-0.0,X0,OK,4.0,    
160.50,0.892,1804.8,182.7,516.9,8.40,1.70,-2.97,110.4,-372.3,4.4,6.8,-4.5,-0.0,X0,OK,4.0,    
161.00,0.878,1779.8,181.2,513.5,8.49,1.74,-2.93,108.4,-446.7,4.2,6.6,-5.0,-0.0,X0,OK,4.0,    
161.50,0.865,1755.3,179.6,509.4,8.72,1.78,-2.89,106.5,-528.9,4.1,6.4,-5.1,-0.0,X0,OK,4.0,    
162.00,0.852,1731.3,177.9,504.6,8.78,1.80,-2.86,104.6,-634.3,3.9,6.0,-4.9,-0.0,X0,OK,4.0,    
162.50,0.839,1707.8,176.0,498.8,8.63,1.82,-2.84,103.0,-765.4,4.0,5.3,-3.6,-0.0,X0,OK,4.0,    
163.00,0.827,1684.8,174.0,491.9,8.61,1.82,-2.82,101.6,-915.6,4.1,4.5,-2.0,-0.0,X0,OK,4.0,    
163.50,0.814,1662.1,172.0,483.6,8.68,1.81,-2.80,100.3,-1071.2,3.9,3.9,-1.3,-0.0,X0,OK,4.0,    
164.00,0.802,1639.8,170.0,474.0,8.79,1.78,-2.78,99.2,-1235.3,3.7,3.2,-1.1,-0.0,X0,OK,4.0,    
164.50,0.790,1617.6,168.0,463.1,8.84,1.73,-2.77,99.5,-1400.6,3.6,2.5,-1.1,-0.0,X0,OK,4.0,    
165.00,0.778,1595.3,165.9,450.8,8.62,1.66,-2.75,101.5,-1548.8,3.4,1.7,-0.9,-0.0,X0,OK,4.0,    
165.50,0.766,1572.3,163.7,437.4,8.25,1.59,-2.74,104.7,-1670.6,3.5,0.9,0.2,-0.0,X0,OK,4.0,    
166.00,0.753,1548.5,161.4,423.0,8.08,1.50,-2.72,107.7,-1768.5,3.5,0.4,1.0,-0.0,X0,OK,4.0,    
166.50,0.740,1524.1,159.1,408.0,8.23,1.41,-2.70,109.9,-1829.4,3.5,0.5,0.9,-0.0,XX,OK,4.0,    
167.00,0.726,1499.1,156.8,392.7,8.39,1.31,-2.69,111.8,-1840.7,3.5,0.7,0.6,-0.0,XX,(OK),3.0,AA HLULX    
167.50,0.712,1473.7,154.4,377.4,8.27,1.20,-2.67,113.7,-1826.1,3.5,0.8,0.3,-0.0,XX,(OK),3.0,AA HLULX    
168.00,0.698,1447.8,152.0,362.3,8.16,1.10,-2.64,115.7,-1791.4,3.6,0.9,-0.0,-0.0,XX,(OK),3.0,AA HLULX    
168.50,0.684,1421.3,149.5,347.6,8.03,1.00,-2.62,117.7,-1740.2,3.7,1.0,-0.3,-0.0,XX,(OK),3.0,AA HLULX    
169.00,0.669,1394.3,146.9,333.4,7.98,0.91,-2.60,119.4,-1662.2,3.7,1.4,-0.3,-0.0,XX,(OK),3.0,AA HLULX    
169.50,0.654,1366.9,144.3,319.9,8.05,0.82,-2.58,120.6,-1569.3,3.7,1.9,-0.4,-0.0,XX,(OK),3.0,AA HLULX    
170.00,0.639,1339.3,141.6,307.2,8.32,0.74,-2.55,120.8,-1466.0,3.8,2.5,-0.3,-0.0,XX,(OK),3.0,AA HLULX    
170.50,0.624,1311.6,139.0,295.4,8.44,0.67,-2.53,120.5,-1362.4,3.7,3.0,-0.2,-0.0,XX,(OK),3.0,AA HLULX    
171.00,0.609,1284.1,136.4,284.5,8.36,0.61,-2.50,119.6,-1258.0,3.7,3.3,-0.1,-0.0,XX,(OK),3.0,AA HLULX    
171.50,0.595,1256.8,133.7,274.3,8.20,0.55,-2.48,118.4,-1184.8,3.6,3.4,0.0,-0.0,XX,(OK),3.0,AA HLULX    
172.00,0.580,1229.9,131.2,264.6,8.13,0.50,-2.45,117.4,-1145.4,3.5,3.5,0.0,-0.0,XX,(OK),3.0,AA HLULX    
172.50,0.566,1203.1,128.6,255.2,8.17,0.45,-2.42,116.7,-1126.7,3.6,3.6,-0.0,-0.0,XX,(OK),3.0,AA HLULX    
173.00,0.551,1176.4,126.0,245.9,8.42,0.40,-2.39,116.3,-1106.4,3.5,3.8,0.0,-0.0,XX,(OK),3.0,AA HLULX    
173.50,0.537,1150.0,123.4,236.6,8.37,0.35,-2.36,115.7,-1114.9,4.0,3.5,2.5,-0.0,XX,(OK),3.0,AA HLULX    
174.00,0.522,1123.6,120.9,227.3,8.11,0.29,-2.33,115.4,-1131.7,5.1,3.1,6.7,-0.0,XX,(OK),3.0,AA HLULX    
174.50,0.508,1097.2,118.8,217.7,8.35,0.22,-2.27,115.4,-1160.7,5.7,3.3,8.6,-0.0,XX,(OK),3.0,AA HLULX    
175.00,0.494,1070.8,117.1,207.9,9.19,0.15,-2.18,115.7,-1194.0,5.6,4.1,6.8,-0.0,IM,(OK),3.0,AA HLULX    
175.50,0.480,1044.3,115.7,198.0,9.97,0.07,-2.08,115.8,-1159.1,4.7,4.9,0.5,-0.0,IM,(OK),3.0,AA HLULX (SLO)LULIM   
176.00,0.465,1017.7,114.1,188.6,9.77,-0.00,-1.97,116.0,-1101.6,4.0,4.9,-4.9,-0.0,IM,--,2.0,AA HLULX _SLO_LULIM   
176.50,0.451,991.1,112.3,179.6,8.75,-0.07,-1.88,116.5,-1086.5,3.6,4.1,-6.6,-0.0,IM,--,2.0,AA HLULX _SLO_LULIM   
177.00,0.436,964.3,110.1,170.4,7.97,-0.15,-1.80,117.4,-1113.9,4.1,3.4,-3.9,-0.0,IM,--,2.0,AA HLULX _SLO_LULIM   
177.50,0.422,937.3,107.8,161.0,7.75,-0.23,-1.72,118.5,-1128.4,4.9,3.2,1.0,-0.0,IM,--,2.0,AA HLULX _SLO_LULIM   
178.00,0.407,909.8,105.7,151.8,8.09,-0.32,-1.62,121.4,-1071.8,5.3,3.9,3.7,-0.0,IM,--,2.0,AA HLULX _SLO_LULIM   
178.50,0.392,881.4,103.7,143.4,8.47,-0.39,-1.50,124.9,-932.6,5.4,4.9,4.2,-0.0,IM,--,2.0,AA HLULX _SLO_(LO)LULIM   
179.00,0.376,852.0,101.8,136.3,8.55,-0.43,-1.35,128.2,-748.3,5.1,5.9,2.5,-0.0,IM,--,2.0,AA HLULX _SLO_(LO)LULIM   
179.50,0.359,822.0,99.9,131.1,8.55,-0.43,-1.18,130.0,-496.8,4.3,6.8,-1.5,-0.0,IM,--,2.0,AA HLULX _SLO_(LO)LULIM   
180.00,0.343,791.8,97.9,127.9,8.37,-0.38,-1.01,128.3,-282.8,4.0,7.3,-3.7,-0.0,IM,--,2.0,AA HLULX _SLO_(LO)LULIM   
180.50,0.327,762.3,95.6,126.1,8.33,-0.29,-0.84,126.0,-141.0,3.8,7.8,-4.2,-0.0,IM,--,2.0,AA HLULX _SLO_(LO)LULIM   
181.00,0.312,733.3,93.3,125.4,8.51,-0.16,-0.68,124.2,-25.6,3.6,8.5,-4.3,-0.0,IM,--,2.0,AA HLULX _SLO_(LO)LULIM   
181.50,0.296,704.7,90.7,125.6,8.72,-0.01,-0.53,122.9,59.7,3.4,9.1,-4.4,-0.0,IM,--,2.0,AA HLULX _SLO_(LO)LULIM   
182.00,0.281,676.5,88.1,126.3,8.89,0.18,-0.37,121.0,108.9,3.1,9.3,-3.7,-0.0,IM,--,2.0,AA HLULX _SLO_(LO)LULIM   
182.50,0.266,648.9,85.3,127.3,8.79,0.39,-0.22,118.5,123.7,3.0,9.2,-2.6,-0.0,IM,--,2.0,AA HLULX _SLO_(LO)LULIM   
183.00,0.251,621.9,82.5,128.3,8.63,0.61,-0.07,116.2,107.2,2.9,9.0,-1.6,-0.0,IM,--,2.0,AA HLULX _SLO_(LO)LULIM   
183.50,0.237,595.5,79.7,129.0,8.57,0.84,0.08,114.2,67.9,2.9,8.8,-1.6,-0.0,IC,--,2.0,AA HLULX /_SLO_(H)LULIM   
184.00,0.223,569.6,76.9,129.3,8.80,1.08,0.24,112.1,-7.5,2.9,8.6,-1.7,-0.0,IC,--,2.0,AA HLULX /_SLO_(H)LULIM  HIC 
184.50,0.209,544.2,74.1,128.9,9.05,1.32,0.41,110.0,-104.0,2.8,8.5,-1.7,-0.0,IC,--,2.0,AA HLULX /_SLO_(H)LULIM  HIC 
185.00,0.196,519.4,71.3,127.5,9.44,1.53,0.58,108.1,-237.3,2.1,8.2,-2.9,-0.0,IC,--,2.0,AA HLULX /_SLO_(H)LULIM  (SLO)HIC 
185.50,0.182,495.0,68.6,125.0,9.70,1.73,0.77,106.1,-355.6,0.3,7.8,-6.4,-0.0,IC,--,2.0,AA HLULX /_SLO_(H)LULIM  SLO_H_(LUR)IC 
186.00,0.169,471.3,65.5,121.5,9.37,1.89,0.93,104.3,-498.4,0.8,6.8,-9.2,-0.0,IC,--,2.0,AA HLULX /_SLO_(H)LULIM  SLO_H_(LUR)IC 
186.50,0.157,447.9,62.0,116.7,8.42,2.00,1.04,104.0,-677.5,0.4,5.3,-7.9,-0.0,IC,WO,1.0,AA HLULX /_SLO_(H)LULIM  SLO_H_(LUR)IC 
187.00,0.144,424.3,58.3,110.4,7.64,2.06,1.12,106.1,-833.6,0.7,3.9,-4.1,0.0,IC,WO,1.0,AA HLULX /_SLO_(H)LULIM  SLO_H_(LUR)IC 
187.50,0.131,400.0,54.4,102.9,7.53,2.09,1.21,109.9,-941.8,1.1,3.4,-2.1,0.0,IC,WO,1.0,AA HLULX /_SLO_(H)LULIM  SLO_H_(LUR)IC 
188.00,0.117,374.8,50.4,94.9,8.00,2.10,1.31,113.7,-984.1,1.0,3.8,-1.3,0.0,IC,WO,1.0,AA HLULX /_SLO_(H)LULIM  SLO_H_(LUR)IC 
188.50,0.102,348.6,46.1,86.7,8.28,2.12,1.43,117.2,-959.2,0.8,4.3,-1.1,0.0,IC,WO,1.0,AA HLULX /_SLO_(H)LULIM  SLO_H_(LUR)IC 
189.00,0.088,321.6,41.6,79.0,8.12,2.20,1.56,119.9,-889.5,0.7,4.5,-1.7,0.0,IC,WO,1.0,AA HLULX /_SLO_(H)LULIM  SLO_H_(LUR)IC 
189.50,0.073,294.2,37.0,71.8,7.91,2.36,1.70,120.2,-835.5,0.4,4.5,-2.2,0.0,IC,WO,1.0,AA HLULX /_SLO_(H)LULIM  SLO_H_(LUR)IC 
190.00,0.058,266.8,32.2,65.0,8.01,2.59,1.85,120.3,-806.3,0.1,4.6,-0.7,0.0,IC,WO,1.0,AA HLULX /_SLO_(H)LULIM  SLO_H_(LUR)IC 
190.50,0.043,239.3,27.4,58.5,8.19,2.94,2.03,121.3,-759.2,0.2,5.1,0.6,-0.0,IC,WO,1.0,AA HLULX /_SLO_(H)LULIM  SLO_H_(LUR)IC 
191.00,0.027,211.4,22.6,52.4,8.68,3.53,2.36,122.8,-669.7,0.1,5.9,-0.2,-0.0,AR,WO,1.0,AA HLULX /_SLO_(H)LULIM  SLO_H_(LUR)IC 
191.50,0.012,183.0,17.7,47.4,8.51,4.67,2.84,125.4,-527.9,0.6,6.3,-1.7,-0.0,AR,WO,1.0,AA HLULX /_SLO_(H)LULIM  SLO_H_(LUR)IC _H_LURAR
192.00,-0.005,154.0,12.6,43.6,7.87,7.06,3.62,127.8,-388.6,0.7,6.4,-2.9,-0.0,AR,WO,1.0,AA HLULX /_SLO_(H)LULIM  SLO_H_(LUR)IC _H_LURAR
192.50,-0.020,124.6,7.2,40.7,8.05,13.19,5.34,127.7,-300.7,0.8,6.8,-2.8,-0.0,AR,WO,1.0,AA HLULX /_SLO_(H)LULIM  SLO_H_(LUR)IC _H_LURAR
193.00,-0.036,95.4,1.7,38.5,8.71,40.94,15.01,126.9,-239.1,1.0,7.6,-3.0,0.0,AR,WO,1.0,AA HLULX /_SLO_(H)LULIM  SLO_H_(LUR)IC _H_LURAR
193.50,-0.052,66.3,-3.8,36.9,9.10,28.28,172.97,126.8,-127.4,1.2,8.5,-3.2,0.0,AR,WO,1.0,AA HLULX /_SLO_(H)LULIM  SLO_H_(LUR)IC _H_LURAR
194.00,-0.068,37.3,-9.5,36.3,8.78,9.59,178.57,126.8,-6.1,1.3,8.6,-3.5,0.0,AR,WO,1.0,AA HLULX /_SLO_(H)LULIM  SLO_H_(LUR)IC _H_LURAR
194.50,-0.084,8.4,-15.4,36.7,7.76,4.75,-179.99,126.0,80.9,1.4,8.0,-3.2,0.0,AR,WO,1.0,AA HLULX /_SLO_(H)LULIM  SLO_H_(LUR)IC _H_LURAR
195.00,-0.100,-20.3,-21.3,37.5,7.42,2.63,-179.31,125.1,98.7,2.0,7.7,-2.9,-0.0,AR,WO,1.0,AA HLULX /_SLO_(H)LULIM  SLO_H_(LUR)IC _H_LURAR
195.50,-0.116,-48.7,-27.3,38.2,8.17,1.42,-178.87,124.2,87.8,2.5,8.5,-8.4,0.0,AR,WO,1.0,AA HLULX /_SLO_(H)LULIM  SLO_H_(LUR)IC _H_LURAR
196.00,-0.131,-76.8,-33.5,39.0,9.17,0.65,-178.49,123.2,115.1,4.4,9.6,-17.5,0.0,AR,WO,1.0,AA HLULX /_SLO_(H)LULIM  SLO_H_(LUR)IC _H_LURAR
196.50,-0.147,-104.5,-40.4,40.2,9.04,0.14,-177.98,122.3,169.9,6.7,9.6,-23.9,0.0,AR,WO,1.0,AA HLULX /_SLO_(H)LULIM  SLO_H_(LUR)IC _H_LURAR
197.00,-0.162,-131.9,-48.5,41.7,7.87,-0.21,-177.31,122.7,178.8,8.2,8.6,-25.8,0.0,AR,WO,1.0,AA HLULX /_SLO_(H)LULIM  SLO_H_(LUR)IC _H_LURAR
197.50,-0.177,-159.1,-57.6,43.0,7.29,-0.49,-176.55,123.7,125.4,9.5,7.8,-25.9,0.0,AR,WO,1.0,AA HLULX /_SLO_(H)LULIM  SLO_H_(LUR)IC _H_LURAR
198.00,-0.193,-186.4,-67.6,43.9,7.57,-0.75,-175.74,124.7,109.2,11.3,8.0,-25.8,0.0,AR,WO,1.0,AA HLULX /_SLO_(H)LULIM  SLO_H_(LUR)IC _H_LURAR
