#Time,Rho,X,Z,Alt,AoA,GSE,LUE,Vtot,Vy,Gamma,Pitch,Roll,Yaw,Step,Grade,Points,Details
0.00,-0.865,-1437.9,-42.8,103.1,3.56,-2.32,172.36,168.6,-556.0,10.2,1.8,1.5,-0.0,n/a,OK,4.0,    
0.50,-0.886,-1478.3,-41.4,98.3,4.05,-2.40,172.27,170.1,-577.0,10.3,2.3,1.3,-0.0,n/a,OK,4.0,    
1.00,-0.908,-1519.2,-40.0,93.6,4.25,-2.48,172.18,172.3,-551.8,10.3,2.7,1.0,-0.0,n/a,OK,4.0,    
1.50,-0.931,-1560.5,-38.4,89.2,4.18,-2.55,172.09,173.5,-506.4,10.3,2.9,0.6,-0.0,n/a,OK,4.0,    
2.00,-0.953,-1601.9,-36.8,85.1,4.40,-2.62,172.01,172.2,-469.9,10.3,3.2,0.1,-0.0,n/a,OK,4.0,    
2.50,-0.975,-1642.9,-35.3,81.4,5.02,-2.68,171.93,171.1,-391.6,10.3,4.0,-0.5,-0.0,n/a,OK,4.0,    
3.00,-0.997,-1683.7,-33.7,78.7,5.54,-2.72,171.85,170.6,-268.4,10.2,4.9,-0.9,-0.0,n/a,OK,4.0,    
3.50,-1.019,-1724.5,-32.2,77.0,5.76,-2.76,171.78,170.3,-116.0,10.0,5.5,-1.3,-0.0,n/a,OK,4.0,    
4.00,-1.041,-1765.1,-30.8,76.7,5.73,-2.78,171.72,169.9,37.3,9.9,6.0,-1.8,-0.0,n/a,OK,4.0,    
4.50,-1.063,-1805.6,-29.4,77.5,6.14,-2.78,171.66,169.2,159.5,9.8,6.6,-2.1,-0.0,n/a,OK,4.0,    
5.00,-1.085,-1845.9,-28.1,79.3,6.81,-2.78,171.61,168.2,288.9,9.7,7.7,-1.5,-0.0,n/a,OK,4.0,    
5.50,-1.106,-1885.9,-27.0,82.4,7.41,-2.77,171.56,166.2,446.2,9.7,8.7,-0.8,-0.0,n/a,OK,4.0,    
6.00,-1.127,-1925.2,-25.8,86.6,7.48,-2.75,171.51,163.5,576.6,9.7,9.2,0.3,-0.0,n/a,OK,4.0,    
6.50,-1.148,-1963.8,-24.6,91.8,7.53,-2.72,171.46,160.8,663.5,9.7,9.6,0.5,-0.0,n/a,OK,4.0,    
7.00,-1.169,-2001.7,-23.5,97.6,7.65,-2.68,171.42,158.2,732.6,9.6,10.0,-0.1,-0.0,n/a,OK,4.0,    
7.50,-1.189,-2038.9,-22.3,104.0,7.89,-2.65,171.38,155.4,787.0,9.5,10.5,-0.7,-0.0,n/a,OK,4.0,    
8.00,-1.208,-2075.4,-21.2,110.7,7.98,-2.61,171.34,152.7,816.2,9.4,10.8,-0.9,-0.0,n/a,OK,4.0,    
8.50,-1.228,-2111.1,-20.1,117.5,7.94,-2.57,171.31,149.9,829.2,9.5,11.0,-0.2,-0.0,n/a,OK,4.0,    
9.00,-1.247,-2146.2,-19.1,124.4,8.01,-2.53,171.27,147.2,826.4,9.6,11.2,0.1,-0.0,n/a,OK,4.0,    
9.50,-1.265,-2180.6,-18.1,131.2,8.25,-2.49,171.24,144.6,797.9,9.8,11.2,0.4,-0.0,n/a,OK,4.0,    
10.00,-1.283,-2214.3,-17.0,137.7,8.47,-2.45,171.21,142.1,753.9,9.8,11.1,0.4,-0.0,n/a,OK,4.0,    
10.50,-1.301,-2247.4,-15.9,143.7,8.44,-2.42,171.18,139.6,684.0,9.7,10.8,0.1,-0.0,n/a,OK,4.0,    
11.00,-1.319,-2279.9,-14.9,149.0,8.55,-2.40,171.15,137.3,568.2,9.6,10.5,-0.3,-0.0,n/a,OK,4.0,    
11.50,-1.336,-2311.8,-13.8,153.2,9.13,-2.38,171.12,135.1,437.0,9.4,10.6,-0.7,-0.0,n/a,OK,4.0,    
12.00,-1.353,-2343.2,-12.8,156.4,9.53,-2.38,171.09,132.8,316.6,9.3,10.5,-1.3,-0.0,n/a,OK,4.0,    
12.50,-1.370,-2374.0,-11.9,158.5,9.40,-2.37,171.07,130.7,179.9,9.2,9.9,-2.1,-0.0,n/a,OK,4.0,    
13.00,-1.386,-2404.3,-11.0,159.3,9.06,-2.38,171.04,129.0,12.3,9.2,9.0,-2.7,-0.0,n/a,OK,4.0,    
13.50,-1.402,-2434.2,-10.2,158.7,8.80,-2.40,171.02,128.4,-159.1,9.1,8.2,-3.0,-0.0,n/a,OK,4.0,    
14.00,-1.418,-2464.3,-9.5,156.8,8.82,-2.43,171.01,129.4,-303.9,9.0,7.8,-3.0,-0.0,n/a,OK,4.0,    
14.50,-1.435,-2494.7,-8.9,153.8,9.17,-2.46,170.99,131.6,-403.4,8.8,7.8,-2.2,-0.0,n/a,OK,4.0,    
15.00,-1.452,-2525.8,-8.4,150.2,9.23,-2.49,170.98,134.4,-448.7,8.6,7.7,-1.7,-0.0,n/a,OK,4.0,    
15.50,-1.469,-2557.7,-7.9,146.5,9.07,-2.53,170.97,137.6,-453.2,8.5,7.5,-1.2,-0.0,n/a,OK,4.0,    
16.00,-1.486,-2590.4,-7.5,142.8,8.66,-2.57,170.96,141.0,-433.5,8.3,7.1,-1.1,-0.0,n/a,OK,4.0,    
16.50,-1.505,-2624.0,-7.2,139.3,8.24,-2.60,170.95,144.4,-403.5,8.1,6.7,-1.7,-0.0,n/a,OK,4.0,    
17.00,-1.523,-2658.4,-6.9,136.1,8.04,-2.63,170.94,147.9,-345.1,7.6,6.8,-3.4,-0.0,n/a,OK,4.0,    
17.50,-1.542,-2693.8,-6.8,133.6,8.05,-2.66,170.94,151.3,-239.3,6.7,7.3,-7.4,-0.0,n/a,OK,4.0,    
18.00,-1.562,-2730.1,-7.1,132.2,8.11,-2.68,170.94,154.5,-98.7,5.7,7.5,-12.4,-0.0,n/a,OK,4.0,    
18.50,-1.582,-2767.1,-8.1,132.0,7.76,-2.69,170.96,157.8,50.5,4.5,7.6,-17.3,-0.0,n/a,OK,4.0,    
19.00,-1.602,-2805.0,-9.9,133.0,7.59,-2.70,171.00,160.8,203.4,3.2,7.9,-21.5,0.0,n/a,OK,4.0,    
19.50,-1.623,-2843.5,-12.9,135.4,7.35,-2.69,171.05,163.7,385.0,1.9,8.5,-23.7,0.0,n/a,OK,4.0,    
20.00,-1.644,-2882.5,-17.0,139.4,7.37,-2.68,171.13,164.3,568.0,0.3,8.9,-24.7,0.0,n/a,OK,4.0,    
20.50,-1.665,-2920.9,-22.2,144.4,7.40,-2.66,171.23,160.6,604.0,1.8,8.8,-27.4,0.0,n/a,OK,4.0,    
21.00,-1.685,-2958.2,-28.6,149.4,7.35,-2.64,171.34,158.0,603.4,3.7,8.8,-29.2,0.0,n/a,OK,4.0,    
21.50,-1.705,-2994.8,-36.2,154.4,7.59,-2.62,171.48,157.0,585.4,5.5,8.9,-29.7,0.0,n/a,OK,4.0,    
22.00,-1.725,-3031.1,-45.1,159.3,8.05,-2.61,171.64,157.5,599.7,7.3,9.2,-29.1,0.0,n/a,OK,4.0,    
22.50,-1.744,-3067.4,-55.3,164.5,8.63,-2.59,171.81,158.6,664.5,9.4,9.7,-28.7,0.0,n/a,OK,4.0,    
23.00,-1.764,-3103.4,-66.9,170.3,8.83,-2.57,172.01,158.8,744.3,11.5,10.0,-29.4,0.0,n/a,OK,4.0,    
23.50,-1.783,-3139.0,-79.9,176.9,8.63,-2.54,172.23,158.5,816.7,13.5,10.0,-30.7,0.0,n/a,OK,4.0,    
24.00,-1.802,-3173.9,-94.2,183.8,8.20,-2.52,172.46,157.8,841.4,15.3,9.7,-32.3,0.0,n/a,OK,4.0,    
24.50,-1.821,-3208.1,-109.9,190.7,7.81,-2.49,172.72,156.7,813.9,17.1,9.5,-33.7,0.0,n/a,OK,4.0,    
25.00,-1.839,-3241.4,-126.9,197.3,7.77,-2.46,172.99,155.9,764.6,19.1,9.3,-34.9,0.0,n/a,OK,4.0,    
25.50,-1.857,-3273.8,-145.2,203.5,8.13,-2.44,173.29,155.4,709.9,21.2,9.3,-35.8,0.0,n/a,OK,4.0,    
26.00,-1.875,-3305.4,-164.9,209.2,8.40,-2.42,173.60,154.9,640.9,23.5,9.3,-36.6,0.0,n/a,OK,4.0,    
26.50,-1.892,-3336.1,-185.9,214.1,8.69,-2.41,173.92,154.5,545.7,25.7,9.4,-36.8,0.1,n/a,OK,4.0,    
27.00,-1.909,-3365.8,-208.4,218.4,9.13,-2.40,174.27,155.4,516.9,27.0,10.2,-33.5,0.1,n/a,OK,4.0,    
27.50,-1.925,-3395.0,-232.4,223.2,8.89,-2.38,174.63,157.6,645.2,28.3,10.6,-28.8,0.1,n/a,OK,4.0,    
28.00,-1.942,-3423.8,-257.7,229.1,8.08,-2.36,175.01,159.3,749.3,30.1,9.7,-27.5,0.1,n/a,OK,4.0,    
28.50,-1.958,-3452.1,-284.3,235.5,7.66,-2.34,175.41,161.1,801.9,32.5,9.1,-29.1,0.0,n/a,OK,4.0,    
29.00,-1.974,-3479.8,-312.4,242.5,7.93,-2.32,175.82,163.5,875.6,35.0,9.3,-31.3,0.0,n/a,OK,4.0,    
29.50,-1.990,-3506.7,-341.9,250.0,8.32,-2.29,176.25,163.7,913.7,37.3,9.8,-33.1,0.1,n/a,OK,4.0,    
30.00,-2.006,-3532.1,-372.4,257.6,8.49,-2.26,176.69,160.8,903.3,38.6,10.2,-32.6,0.1,n/a,OK,4.0,    
30.50,-2.020,-3555.9,-403.3,265.0,8.45,-2.24,177.14,158.0,865.4,40.1,10.2,-32.1,0.1,n/a,OK,4.0,    
31.00,-2.034,-3578.2,-434.7,271.9,8.36,-2.21,177.58,156.7,793.5,41.9,9.8,-32.6,0.1,n/a,OK,4.0,    
31.50,-2.047,-3599.3,-466.9,278.2,8.39,-2.19,178.04,156.9,716.4,43.9,9.7,-33.1,0.1,n/a,OK,4.0,    
32.00,-2.060,-3619.3,-500.1,284.0,8.39,-2.17,178.51,157.5,688.6,45.8,9.7,-32.9,0.1,n/a,OK,4.0,    
32.50,-2.073,-3638.2,-534.1,289.6,8.37,-2.16,178.98,157.6,642.9,47.8,9.5,-33.3,0.1,n/a,OK,4.0,    
33.00,-2.085,-3655.7,-568.9,294.7,8.48,-2.14,179.47,157.1,572.7,50.0,9.2,-34.4,0.1,n/a,OK,4.0,    
33.50,-2.097,-3671.9,-604.3,299.1,8.73,-2.13,179.96,156.7,478.5,52.2,9.0,-35.8,0.1,n/a,OK,4.0,    
34.00,-2.108,-3686.6,-640.4,302.7,8.65,-2.12,-179.54,156.4,374.2,54.4,8.6,-37.1,0.1,n/a,OK,4.0,    
34.50,-2.118,-3699.9,-677.1,305.3,8.39,-2.11,-179.04,156.4,251.7,56.4,8.0,-38.2,0.1,n/a,OK,4.0,    
35.00,-2.128,-3711.7,-714.5,306.9,8.20,-2.11,-178.52,156.5,112.9,58.5,7.3,-39.2,0.1,n/a,OK,4.0,    
35.50,-2.137,-3722.0,-752.6,307.2,8.19,-2.12,-178.00,157.1,-43.7,60.8,6.7,-40.1,0.1,n/a,OK,4.0,    
36.00,-2.146,-3730.8,-791.3,306.2,8.32,-2.13,-177.46,158.3,-203.0,63.2,6.1,-40.9,0.1,n/a,OK,4.0,    
36.50,-2.154,-3738.0,-830.9,303.8,8.94,-2.14,-176.92,159.7,-375.4,65.5,6.5,-40.0,0.1,n/a,OK,4.0,    
37.00,-2.162,-3743.5,-871.2,300.4,9.60,-2.16,-176.36,160.4,-425.2,67.6,7.2,-36.5,0.1,n/a,OK,4.0,    
37.50,-2.169,-3747.6,-911.9,296.7,8.99,-2.18,-175.80,161.2,-466.1,69.4,6.4,-34.3,0.1,n/a,OK,4.0,    
38.00,-2.176,-3750.2,-953.1,292.5,8.21,-2.21,-175.22,162.3,-558.4,71.1,5.2,-33.7,0.1,n/a,OK,4.0,    
38.50,-2.182,-3751.4,-994.7,287.3,8.44,-2.23,-174.64,163.9,-672.7,73.2,5.2,-33.2,0.1,n/a,OK,4.0,    
39.00,-2.187,-3751.1,-1037.1,281.7,9.44,-2.26,-174.05,166.9,-632.0,75.1,6.7,-30.5,0.1,n/a,OK,4.0,    
39.50,-2.193,-3749.5,-1080.4,277.0,9.15,-2.29,-173.44,170.5,-487.5,77.0,6.8,-28.5,0.1,n/a,OK,4.0,    
40.00,-2.198,-3746.5,-1124.7,273.4,8.01,-2.30,-172.82,174.3,-406.4,78.7,5.8,-29.1,0.1,n/a,OK,4.0,    
40.50,-2.202,-3742.1,-1170.0,270.1,7.72,-2.32,-172.18,178.1,-369.6,80.8,5.5,-30.5,0.1,n/a,OK,4.0,    
41.00,-2.207,-3736.2,-1216.2,267.5,8.31,-2.33,-171.52,181.7,-244.5,82.9,6.5,-30.6,0.1,n/a,OK,4.0,    
41.50,-2.210,-3728.5,-1263.0,266.1,8.50,-2.34,-170.85,183.9,-75.8,85.1,7.1,-31.2,0.1,n/a,OK,4.0,    
42.00,-2.214,-3719.2,-1310.0,266.0,8.12,-2.35,-170.18,184.2,36.6,86.9,7.0,-32.6,0.1,n/a,OK,4.0,    
42.50,-2.216,-3708.2,-1356.8,266.6,7.77,-2.34,-169.49,185.1,88.6,88.6,7.0,-33.7,0.1,n/a,OK,4.0,    
43.00,-2.218,-3695.4,-1403.5,267.5,7.99,-2.34,-168.81,186.1,166.3,89.8,8.0,-30.9,0.1,n/a,OK,4.0,    
43.50,-2.220,-3681.1,-1450.2,269.6,8.34,-2.33,-168.12,186.8,341.2,91.5,9.0,-27.3,0.1,n/a,OK,4.0,    
44.00,-2.221,-3665.5,-1496.6,273.2,8.20,-2.32,-167.42,187.4,531.5,93.6,9.2,-26.5,0.1,n/a,OK,4.0,    
44.50,-2.222,-3648.5,-1542.8,278.3,7.87,-2.30,-166.72,188.0,685.0,95.6,9.2,-27.7,0.1,n/a,OK,4.0,    
45.00,-2.222,-3630.0,-1588.7,284.6,8.04,-2.27,-166.02,188.6,827.2,97.7,9.5,-29.4,0.1,n/a,OK,4.0,    
45.50,-2.222,-3609.9,-1634.1,292.0,8.13,-2.24,-165.32,189.1,960.3,99.7,9.9,-31.3,0.1,n/a,OK,4.0,    
46.00,-2.221,-3588.3,-1679.1,300.4,8.11,-2.20,-164.61,189.6,1059.4,101.6,10.3,-32.9,0.1,n/a,OK,4.0,    
46.50,-2.220,-3565.0,-1723.5,309.6,8.26,-2.16,-163.90,190.0,1141.5,103.6,10.8,-34.2,0.1,n/a,OK,4.0,    
47.00,-2.218,-3540.2,-1767.2,319.4,8.31,-2.12,-163.19,190.4,1226.3,105.7,11.1,-35.2,0.1,n/a,OK,4.0,    
47.50,-2.215,-3513.8,-1810.1,329.9,8.25,-2.07,-162.47,190.7,1286.7,107.9,11.1,-35.9,0.1,n/a,OK,4.0,    
48.00,-2.212,-3485.7,-1852.3,340.9,8.19,-2.02,-161.76,190.9,1334.8,110.2,11.2,-36.5,0.1,n/a,OK,4.0,    
48.50,-2.208,-3456.2,-1893.5,352.1,8.19,-1.97,-161.04,190.6,1348.8,112.6,11.2,-37.3,0.1,n/a,OK,4.0,    
49.00,-2.203,-3425.2,-1933.6,363.3,8.31,-1.92,-160.32,190.3,1348.9,115.0,11.1,-38.3,0.1,n/a,OK,4.0,    
49.50,-2.198,-3392.7,-1972.5,374.5,8.02,-1.86,-159.61,189.9,1309.7,117.4,10.5,-40.5,0.1,n/a,OK,4.0,    
50.00,-2.192,-3358.8,-2010.2,384.9,7.89,-1.81,-158.90,189.5,1167.2,119.9,9.8,-43.2,0.1,n/a,OK,4.0,    
50.50,-2.185,-3323.4,-2046.6,393.9,8.46,-1.77,-158.19,189.4,1023.9,122.3,10.3,-43.0,0.1,n/a,OK,4.0,    
51.00,-2.178,-3286.6,-2081.5,402.3,8.95,-1.73,-157.48,189.1,972.5,124.5,10.9,-40.1,0.1,n/a,OK,4.0,    
51.50,-2.170,-3248.6,-2115.2,410.2,8.75,-1.69,-156.77,188.8,927.2,126.7,10.4,-38.5,0.1,n/a,OK,4.0,    
52.00,-2.161,-3209.4,-2147.6,417.6,8.39,-1.65,-156.07,188.7,847.2,129.0,9.5,-38.5,0.1,n/a,OK,4.0,    
52.50,-2.152,-3169.1,-2178.6,424.3,8.43,-1.61,-155.37,188.6,746.7,131.6,9.0,-39.4,0.1,n/a,OK,4.0,    
53.00,-2.142,-3127.6,-2208.3,430.1,8.49,-1.57,-154.67,189.5,657.1,134.3,8.7,-40.8,0.1,n/a,OK,4.0,    
53.50,-2.132,-3084.7,-2236.8,435.2,8.45,-1.54,-153.96,191.3,564.5,136.8,8.3,-42.3,0.1,n/a,OK,4.0,    
54.00,-2.121,-3040.3,-2263.9,439.6,8.35,-1.51,-153.25,193.0,468.7,139.4,7.8,-43.7,0.1,n/a,OK,4.0,    
54.50,-2.109,-2994.5,-2289.5,443.0,8.26,-1.48,-152.54,194.2,342.6,141.9,7.3,-44.9,0.1,n/a,OK,4.0,    
55.00,-2.096,-2947.4,-2313.5,445.3,8.26,-1.46,-151.83,195.6,207.5,144.5,6.8,-45.9,0.1,n/a,OK,4.0,    
55.50,-2.082,-2899.1,-2335.9,446.5,8.40,-1.44,-151.12,196.6,61.9,147.2,6.4,-46.6,0.1,n/a,OK,4.0,    
56.00,-2.068,-2849.7,-2356.4,446.4,8.77,-1.43,-150.41,197.3,-82.2,150.1,6.4,-46.2,0.1,n/a,OK,4.0,    
56.50,-2.053,-2799.4,-2374.9,445.3,9.08,-1.42,-149.70,198.0,-185.5,152.8,6.5,-44.7,0.1,n/a,OK,4.0,    
57.00,-2.037,-2748.0,-2391.5,443.5,9.01,-1.41,-149.00,199.4,-241.7,155.3,6.5,-42.7,0.1,n/a,OK,4.0,    
57.50,-2.021,-2695.5,-2406.4,441.3,8.98,-1.40,-148.29,202.2,-276.2,157.5,6.8,-40.3,0.1,n/a,OK,4.0,    
58.00,-2.003,-2641.6,-2419.3,439.2,9.21,-1.40,-147.59,204.8,-194.3,158.6,8.2,-33.8,0.1,n/a,OK,4.0,    
58.50,-1.985,-2587.0,-2430.6,438.4,9.46,-1.38,-146.88,204.5,25.7,158.8,9.6,-23.8,0.1,n/a,OK,4.0,    
59.00,-1.967,-2532.7,-2440.6,439.5,9.09,-1.35,-146.17,201.1,234.2,158.7,9.9,-12.3,0.1,n/a,OK,4.0,    
59.50,-1.949,-2479.1,-2449.8,442.2,8.59,-1.32,-145.47,198.0,424.7,156.8,9.9,-0.0,0.1,n/a,OK,4.0,    
60.00,-1.931,-2426.3,-2459.0,446.4,8.35,-1.28,-144.77,195.7,568.3,156.1,10.1,3.2,0.1,n/a,OK,4.0,    
60.50,-1.915,-2373.9,-2468.2,451.6,8.28,-1.24,-144.06,194.6,679.6,157.8,10.5,1.8,0.0,n/a,OK,4.0,    
61.00,-1.898,-2321.8,-2477.3,457.6,8.52,-1.19,-143.34,192.6,756.3,159.2,11.1,-0.6,0.0,n/a,OK,4.0,    
61.50,-1.882,-2270.3,-2485.9,464.2,8.83,-1.13,-142.62,189.8,810.8,160.0,11.5,-3.1,0.0,n/a,OK,4.0,    
62.00,-1.866,-2219.5,-2494.2,471.1,8.75,-1.08,-141.90,187.6,853.6,160.2,11.6,-5.3,0.0,n/a,OK,4.0,    
62.50,-1.850,-2169.1,-2502.1,478.2,8.54,-1.02,-141.18,185.3,852.1,159.8,11.6,-6.1,0.0,n/a,OK,4.0,    
63.00,-1.835,-2119.4,-2509.6,485.2,8.43,-0.96,-140.46,182.8,820.0,159.2,11.6,-4.9,0.1,n/a,OK,4.0,    
63.50,-1.820,-2070.2,-2516.8,491.8,8.44,-0.91,-139.74,180.3,752.9,158.7,11.5,-2.7,0.1,n/a,OK,4.0,    
64.00,-1.806,-2021.5,-2523.8,497.8,8.55,-0.86,-139.01,178.8,699.1,158.4,11.3,0.1,0.1,n/a,OK,4.0,    
64.50,-1.792,-1973.1,-2530.9,503.5,8.50,-0.80,-138.28,178.5,649.6,159.1,11.1,0.3,0.0,n/a,OK,4.0,    
65.00,-1.778,-1924.6,-2538.0,508.7,8.46,-0.76,-137.54,178.5,604.4,159.9,10.9,-1.4,0.0,n/a,OK,4.0,    
65.50,-1.765,-1876.2,-2545.0,513.6,8.49,-0.71,-136.78,178.3,555.1,160.3,10.7,-3.3,0.0,n/a,OK,4.0,    
66.00,-1.751,-1828.0,-2551.8,517.9,8.55,-0.66,-136.02,176.8,478.1,160.7,10.5,-5.2,0.0,n/a,OK,4.0,    
66.50,-1.738,-1780.0,-2558.3,521.6,8.53,-0.62,-135.25,176.1,387.8,160.8,10.2,-6.3,0.1,n/a,OK,4.0,    
67.00,-1.726,-1732.0,-2564.6,524.5,8.46,-0.59,-134.48,176.8,314.9,160.9,9.9,-6.8,0.1,n/a,OK,4.0,    
67.50,-1.713,-1683.8,-2570.7,526.8,8.30,-0.55,-133.69,177.4,252.8,161.1,9.5,-7.0,0.1,n/a,OK,4.0,    
68.00,-1.701,-1635.3,-2576.6,528.7,8.16,-0.52,-132.89,178.6,196.9,161.5,9.1,-7.2,0.1,n/a,OK,4.0,    
68.50,-1.688,-1586.3,-2582.3,530.3,8.10,-0.49,-132.07,181.5,181.1,161.9,8.9,-7.3,0.1,n/a,OK,4.0,    
69.00,-1.676,-1536.5,-2587.9,531.9,8.12,-0.46,-131.23,184.4,205.5,162.4,8.9,-7.3,0.1,n/a,OK,4.0,    
69.50,-1.664,-1486.2,-2593.2,533.6,8.29,-0.43,-130.37,184.3,207.5,162.6,9.0,-6.1,0.1,n/a,OK,4.0,    
70.00,-1.652,-1436.2,-2598.3,535.2,8.33,-0.40,-129.51,182.5,178.0,162.9,9.0,-4.8,0.0,n/a,OK,4.0,    
70.50,-1.640,-1386.6,-2603.1,536.5,8.32,-0.37,-128.64,182.1,133.7,163.5,8.7,-4.7,0.0,n/a,OK,4.0,    
71.00,-1.629,-1336.7,-2607.8,537.6,8.33,-0.34,-127.75,184.0,119.9,164.0,8.6,-5.1,0.0,n/a,OK,4.0,    
71.50,-1.617,-1286.2,-2612.3,538.6,8.49,-0.31,-126.85,186.5,145.2,164.2,8.9,-4.8,0.0,n/a,OK,4.0,    
72.00,-1.606,-1235.1,-2616.6,540.0,8.59,-0.28,-125.93,187.6,197.8,164.3,9.2,-4.2,0.0,n/a,OK,4.0,    
72.50,-1.595,-1184.0,-2620.8,541.9,8.57,-0.25,-124.99,187.5,234.8,164.6,9.3,-4.4,0.0,n/a,OK,4.0,    
73.00,-1.585,-1132.8,-2624.8,543.9,8.48,-0.22,-124.04,187.6,263.0,164.9,9.4,-4.7,0.0,n/a,OK,4.0,    
73.50,-1.575,-1081.6,-2628.5,546.2,8.55,-0.18,-123.09,187.8,282.2,164.7,9.5,-3.5,0.0,n/a,OK,4.0,    
74.00,-1.565,-1030.3,-2632.2,548.7,8.58,-0.15,-122.11,188.4,325.6,164.7,9.7,-2.2,0.0,n/a,OK,4.0,    
74.50,-1.556,-978.8,-2635.8,551.6,8.63,-0.11,-121.13,188.9,376.7,165.0,9.9,-2.2,0.0,n/a,OK,4.0,    
75.00,-1.546,-927.3,-2639.3,555.0,8.62,-0.07,-120.13,189.2,428.6,165.3,10.0,-2.8,0.0,n/a,OK,4.0,    
75.50,-1.538,-875.7,-2642.6,558.7,8.50,-0.03,-119.13,188.7,466.8,165.6,10.1,-3.6,0.0,n/a,OK,4.0,    
76.00,-1.529,-824.2,-2645.7,562.7,8.43,0.01,-118.11,188.3,492.4,165.8,10.0,-4.1,0.0,n/a,OK,4.0,    
76.50,-1.522,-772.8,-2648.7,566.9,8.29,0.06,-117.09,188.4,520.3,165.7,10.1,-3.8,0.0,n/a,OK,4.0,    
77.00,-1.514,-721.4,-2651.4,571.3,8.33,0.10,-116.06,187.5,535.0,165.3,10.2,-1.7,0.0,n/a,OK,4.0,    
77.50,-1.507,-670.5,-2654.1,575.8,8.43,0.14,-115.03,185.0,518.3,165.2,10.3,0.2,0.0,n/a,OK,4.0,    
78.00,-1.500,-620.3,-2656.8,579.9,8.35,0.18,-114.01,182.5,463.7,165.3,10.2,1.3,0.0,n/a,OK,4.0,    
78.50,-1.494,-570.6,-2659.5,583.5,8.37,0.22,-112.99,180.7,395.4,166.1,10.0,0.1,0.0,n/a,OK,4.0,    
79.00,-1.489,-521.2,-2662.2,586.5,8.34,0.25,-111.97,180.4,339.1,166.8,9.8,-2.2,0.0,n/a,OK,4.0,    
79.50,-1.484,-471.7,-2664.7,589.2,8.50,0.28,-110.94,181.2,307.9,167.0,9.7,-4.2,0.0,n/a,OK,4.0,    
80.00,-1.479,-421.9,-2667.0,591.7,8.54,0.31,-109.90,182.5,304.8,167.1,9.7,-5.4,0.0,n/a,OK,4.0,    
80.50,-1.475,-371.9,-2669.1,594.3,8.49,0.33,-108.85,183.1,312.3,167.1,9.7,-5.9,0.0,n/a,OK,4.0,    
81.00,-1.471,-321.8,-2671.1,596.8,8.49,0.36,-107.80,182.0,282.6,167.1,9.5,-5.6,0.0,n/a,OK,4.0,    
81.50,-1.467,-272.2,-2672.7,598.9,8.52,0.38,-106.75,179.6,202.9,167.2,9.2,-4.6,0.0,n/a,OK,4.0,    
82.00,-1.464,-223.3,-2674.3,600.1,8.56,0.39,-105.71,177.5,93.6,167.4,8.9,-4.1,0.0,n/a,OK,4.0,    
82.50,-1.461,-174.6,-2675.6,600.5,8.75,0.40,-104.67,177.1,-11.2,167.7,8.7,-3.9,0.0,n/a,OK,4.0,    
83.00,-1.459,-125.9,-2676.8,600.2,9.00,0.40,-103.63,178.7,-61.0,167.9,8.6,-3.3,0.0,n/a,OK,4.0,    
83.50,-1.457,-76.6,-2677.9,599.6,9.00,0.40,-102.58,180.7,-78.2,168.2,8.5,-2.9,0.0,n/a,OK,4.0,    
84.00,-1.455,-26.9,-2678.9,598.9,8.81,0.40,-101.52,181.6,-99.4,168.6,8.2,-3.1,0.0,n/a,OK,4.0,    
84.50,-1.454,22.9,-2679.7,597.9,8.64,0.39,-100.45,181.9,-145.0,169.0,7.9,-3.6,0.0,n/a,OK,4.0,    
85.00,-1.453,73.0,-2680.5,596.5,8.66,0.39,-99.38,183.9,-166.1,169.3,7.9,-4.3,0.0,n/a,OK,4.0,    
85.50,-1.453,123.7,-2681.0,595.2,8.85,0.38,-98.30,185.7,-161.2,169.6,8.1,-5.0,0.0,n/a,OK,4.0,    
86.00,1.453,174.5,-2681.4,593.8,8.95,0.36,-97.21,185.7,-155.7,169.9,8.2,-5.7,0.0,n/a,OK,4.0,    
86.50,1.453,225.4,-2681.5,592.6,8.73,0.35,-96.13,185.7,-152.2,170.4,8.1,-7.4,0.0,n/a,OK,4.0,    
87.00,1.454,276.3,-2681.4,591.3,8.49,0.34,-95.04,186.2,-164.3,172.0,7.7,-11.6,0.0,n/a,OK,4.0,    
87.50,1.455,327.4,-2680.7,589.8,8.41,0.33,-93.95,187.6,-172.1,173.2,7.4,-14.6,0.0,n/a,OK,4.0,    
88.00,1.456,379.0,-2679.3,588.5,8.28,0.31,-92.86,190.6,-133.3,173.9,7.5,-16.4,0.0,n/a,OK,4.0,    
88.50,1.458,431.5,-2677.2,587.7,8.11,0.30,-91.74,194.0,-52.0,174.8,7.7,-18.2,0.0,n/a,OK,4.0,    
89.00,1.459,484.8,-2674.3,587.7,7.89,0.29,-90.61,197.2,55.5,176.0,7.9,-20.3,0.0,n/a,OK,4.0,    
89.50,1.461,538.8,-2670.4,588.6,7.71,0.29,-89.47,200.2,182.4,177.4,8.1,-22.4,0.0,n/a,OK,4.0,    
90.00,1.463,593.5,-2665.3,590.7,7.59,0.30,-88.31,203.1,331.2,178.9,8.4,-23.4,0.0,n/a,OK,4.0,    
90.50,1.465,648.7,-2659.1,594.1,7.54,0.32,-87.14,203.9,477.0,179.3,8.6,-24.7,0.0,n/a,OK,4.0,    
91.00,1.466,703.2,-2651.8,598.2,7.55,0.34,-85.99,199.9,482.6,177.3,8.5,-27.2,0.0,n/a,OK,4.0,    
91.50,1.468,756.6,-2643.4,602.1,7.86,0.35,-84.85,196.9,441.6,175.5,8.6,-28.8,0.0,n/a,OK,4.0,    
92.00,1.469,809.2,-2633.8,605.5,8.22,0.37,-83.73,194.9,380.1,173.7,8.7,-29.5,0.0,n/a,OK,4.0,    
92.50,1.471,861.1,-2623.1,608.4,8.51,0.38,-82.63,193.9,312.7,172.1,8.9,-28.9,0.0,n/a,OK,4.0,    
93.00,1.472,912.6,-2611.2,610.9,8.67,0.39,-81.52,194.1,305.0,170.8,9.0,-27.1,0.0,n/a,OK,4.0,    
93.50,1.473,963.9,-2598.2,613.5,8.68,0.40,-80.42,194.0,303.9,169.1,8.9,-25.9,-0.0,n/a,OK,4.0,    
94.00,1.474,1014.8,-2584.2,616.1,8.57,0.42,-79.31,194.0,316.5,166.9,8.4,-27.1,-0.0,n/a,OK,4.0,    
94.50,1.475,1065.5,-2568.9,618.7,8.43,0.43,-78.21,194.8,306.6,164.6,7.9,-30.1,-0.0,n/a,OK,4.0,    
95.00,1.476,1115.9,-2552.1,621.2,8.30,0.44,-77.11,195.6,287.2,162.6,7.7,-32.9,-0.0,n/a,OK,4.0,    
95.50,1.476,1166.0,-2533.9,623.5,8.26,0.45,-76.00,196.5,261.6,160.8,7.7,-34.5,-0.0,n/a,OK,4.0,    
96.00,1.476,1215.6,-2514.0,625.5,8.30,0.46,-74.89,196.8,217.9,158.9,7.8,-35.0,-0.0,n/a,OK,4.0,    
96.50,1.476,1264.6,-2492.7,627.2,8.56,0.47,-73.77,197.5,206.4,157.6,8.5,-32.6,-0.0,n/a,OK,4.0,    
97.00,1.476,1313.2,-2469.9,629.2,8.68,0.48,-72.66,197.7,282.6,155.9,8.8,-29.7,-0.0,n/a,OK,4.0,    
97.50,1.475,1361.0,-2446.1,631.5,8.36,0.49,-71.55,196.2,274.9,153.8,8.3,-29.4,-0.0,n/a,OK,4.0,    
98.00,1.475,1407.8,-2421.3,633.7,8.26,0.51,-70.45,195.0,244.9,151.7,7.9,-30.3,-0.0,n/a,OK,4.0,    
98.50,1.474,1453.8,-2395.4,635.7,8.23,0.52,-69.35,195.5,235.5,149.6,7.8,-31.6,-0.0,n/a,OK,4.0,    
99.00,1.473,1499.3,-2367.9,637.6,8.29,0.53,-68.24,196.9,216.0,147.7,7.9,-32.3,-0.0,n/a,OK,4.0,    
99.50,1.471,1544.0,-2339.1,639.5,8.28,0.55,-67.14,196.2,238.3,146.5,8.3,-30.6,-0.0,n/a,OK,4.0,    
100.00,1.470,1587.7,-2309.4,641.5,8.29,0.56,-66.04,194.9,243.9,144.6,8.3,-29.8,-0.0,n/a,OK,4.0,    
100.50,1.468,1630.3,-2278.8,643.5,8.33,0.58,-64.95,194.1,231.0,142.6,8.2,-30.5,-0.1,n/a,OK,4.0,    
101.00,1.466,1671.9,-2247.2,645.4,8.31,0.59,-63.86,193.4,219.3,140.6,8.1,-31.6,-0.1,n/a,OK,4.0,    
101.50,1.464,1712.5,-2214.6,647.2,8.23,0.61,-62.78,193.2,206.7,138.7,7.9,-32.7,-0.1,n/a,OK,4.0,    
102.00,1.461,1752.1,-2180.9,648.9,8.09,0.62,-61.69,193.3,189.2,136.8,7.8,-33.6,-0.1,n/a,OK,4.0,    
102.50,1.459,1790.5,-2146.1,650.3,8.33,0.64,-60.61,191.6,131.6,134.8,7.8,-34.4,-0.1,n/a,OK,4.0,    
103.00,1.456,1827.3,-2110.8,651.0,8.62,0.65,-59.55,187.9,17.0,133.2,8.0,-33.3,-0.1,n/a,OK,4.0,    
103.50,1.452,1862.5,-2075.1,650.9,8.94,0.66,-58.50,185.2,-37.3,132.0,8.3,-29.5,-0.1,n/a,OK,4.0,    
104.00,1.449,1896.5,-2039.3,650.3,9.11,0.66,-57.47,182.5,-119.4,130.2,7.9,-27.2,-0.1,n/a,OK,4.0,    
104.50,1.446,1929.3,-2003.4,649.0,9.02,0.66,-56.45,180.1,-198.8,128.1,7.2,-27.3,-0.1,n/a,OK,4.0,    
105.00,1.443,1960.9,-1967.2,646.9,8.98,0.65,-55.44,177.7,-321.8,126.0,6.5,-29.0,-0.1,n/a,OK,4.0,    
105.50,1.440,1991.1,-1930.8,643.6,8.85,0.64,-54.45,175.5,-458.7,124.2,5.9,-30.7,-0.1,n/a,OK,4.0,    
106.00,1.436,2020.1,-1894.2,639.1,8.83,0.62,-53.47,174.0,-632.1,122.6,5.3,-32.2,-0.1,n/a,OK,4.0,    
106.50,1.433,2048.0,-1857.1,633.2,8.76,0.59,-52.49,173.0,-804.2,121.0,4.7,-33.2,-0.1,n/a,OK,4.0,    
107.00,1.429,2074.6,-1819.6,625.7,9.03,0.55,-51.52,171.6,-996.5,119.3,4.5,-33.2,-0.1,n/a,OK,4.0,    
107.50,1.425,2099.9,-1781.7,616.8,9.66,0.50,-50.56,170.1,-1136.5,117.9,4.8,-31.1,-0.1,n/a,OK,4.0,    
108.00,1.420,2124.0,-1743.5,606.8,9.79,0.45,-49.61,169.9,-1232.8,116.5,4.7,-28.1,-0.1,n/a,OK,4.0,    
108.50,1.416,2147.1,-1704.9,596.2,9.12,0.39,-48.66,170.2,-1326.6,114.9,3.5,-26.9,-0.1,n/a,OK,4.0,    
109.00,1.411,2169.4,-1665.4,584.7,8.24,0.32,-47.70,172.4,-1443.6,113.3,2.3,-27.0,-0.1,n/a,OK,4.0,    
109.50,1.406,2190.8,-1624.8,572.3,8.29,0.25,-46.73,175.4,-1525.2,111.2,1.9,-27.7,-0.1,n/a,OK,4.0,    
110.00,1.401,2211.3,-1582.9,559.4,8.47,0.18,-45.74,178.6,-1553.0,109.0,2.0,-28.9,-0.1,n/a,OK,4.0,    
110.50,1.395,2230.5,-1539.7,546.4,8.44,0.11,-44.74,181.6,-1550.7,106.9,2.0,-30.3,-0.1,n/a,OK,4.0,    
111.00,1.389,2248.5,-1495.5,533.6,8.20,0.04,-43.73,181.6,-1543.6,105.2,1.9,-31.8,-0.1,n/a,OK,4.0,    
111.50,1.382,2264.9,-1451.1,520.6,8.01,-0.03,-42.72,180.4,-1577.7,104.0,2.1,-31.7,-0.1,n/a,OK,4.0,    
112.00,1.375,2279.9,-1406.3,507.4,8.04,-0.10,-41.72,181.8,-1562.2,102.6,2.4,-30.3,-0.1,n/a,OK,4.0,    
112.50,1.368,2293.6,-1360.6,494.6,8.08,-0.17,-40.70,184.6,-1507.7,100.7,2.6,-30.0,-0.1,n/a,OK,4.0,    
113.00,1.360,2305.9,-1313.8,482.3,8.02,-0.24,-39.68,187.8,-1419.6,98.6,2.7,-30.5,-0.1,n/a,OK,4.0,    
113.50,1.352,2316.6,-1265.8,471.0,7.85,-0.30,-38.63,190.5,-1300.7,96.4,2.9,-31.2,-0.1,n/a,OK,4.0,    
114.00,1.343,2325.6,-1217.0,460.8,7.84,-0.35,-37.58,192.9,-1134.5,94.2,3.3,-32.2,-0.1,n/a,OK,4.0,    
114.50,1.333,2332.8,-1167.4,451.9,7.89,-0.39,-36.51,193.3,-991.9,91.9,3.8,-33.3,-0.1,n/a,OK,4.0,    
115.00,1.323,2338.1,-1118.2,444.3,7.94,-0.42,-35.46,190.7,-863.7,89.6,4.1,-34.3,-0.1,n/a,OK,4.0,    
115.50,1.313,2341.7,-1069.5,437.5,8.05,-0.44,-34.42,187.7,-774.3,87.4,4.4,-35.1,-0.1,n/a,OK,4.0,    
116.00,1.303,2343.6,-1021.7,431.3,8.22,-0.46,-33.40,185.3,-712.9,85.1,4.6,-35.9,-0.1,n/a,OK,4.0,    
116.50,1.292,2343.7,-974.3,425.5,8.36,-0.48,-32.40,183.8,-699.5,82.8,4.8,-36.3,-0.1,n/a,OK,4.0,    
117.00,1.281,2342.0,-927.6,419.9,8.55,-0.50,-31.40,181.4,-635.6,81.2,5.5,-34.1,-0.1,n/a,OK,4.0,    
117.50,1.270,2338.9,-881.7,414.8,8.72,-0.51,-30.43,178.4,-576.7,79.7,6.1,-30.4,-0.1,n/a,OK,4.0,    
118.00,1.259,2334.5,-836.7,410.4,8.61,-0.52,-29.46,176.2,-498.7,77.6,6.1,-28.8,-0.1,n/a,OK,4.0,    
118.50,1.247,2328.8,-792.4,406.5,8.56,-0.52,-28.51,174.8,-399.6,75.6,6.2,-28.3,-0.1,n/a,OK,4.0,    
119.00,1.236,2321.9,-748.9,403.3,8.66,-0.52,-27.57,172.5,-352.5,73.4,6.4,-29.6,-0.1,n/a,OK,4.0,    
119.50,1.224,2313.8,-706.3,400.5,8.61,-0.51,-26.64,170.0,-339.6,71.5,6.3,-31.2,-0.1,n/a,OK,4.0,    
120.00,1.213,2304.5,-664.8,397.6,8.51,-0.50,-25.73,166.9,-370.6,69.7,6.2,-32.2,-0.1,n/a,OK,4.0,    
120.50,1.201,2294.0,-624.3,394.5,8.52,-0.50,-24.84,165.9,-372.3,68.1,6.5,-31.9,-0.1,n/a,OK,4.0,    
121.00,1.189,2282.2,-584.2,391.4,8.54,-0.50,-23.95,166.6,-358.6,66.1,6.5,-32.2,-0.1,n/a,OK,4.0,    
121.50,1.176,2268.7,-544.7,388.4,8.53,-0.49,-23.06,166.4,-352.9,64.4,6.7,-31.7,-0.1,n/a,OK,4.0,    
122.00,1.163,2254.0,-505.8,385.7,8.44,-0.48,-22.18,166.3,-291.8,62.6,6.6,-30.7,-0.1,n/a,OK,4.0,    
122.50,1.150,2237.8,-467.4,383.5,8.08,-0.46,-21.30,167.8,-247.0,60.6,6.5,-30.8,-0.1,n/a,OK,4.0,    
123.00,1.136,2220.1,-429.5,381.7,8.19,-0.44,-20.43,167.3,-175.8,58.6,6.8,-30.3,-0.1,n/a,OK,4.0,    
123.50,1.122,2201.6,-392.9,380.3,8.45,-0.42,-19.57,163.3,-166.2,56.5,6.8,-30.9,-0.1,n/a,OK,4.0,    
124.00,1.108,2182.2,-357.8,378.8,8.39,-0.39,-18.73,160.7,-165.2,55.2,7.0,-29.7,-0.1,n/a,OK,4.0,    
124.50,1.095,2162.2,-323.9,377.2,8.51,-0.37,-17.91,157.9,-207.6,53.9,7.1,-27.7,-0.1,n/a,OK,4.0,    
125.00,1.081,2141.6,-291.2,375.5,8.71,-0.35,-17.11,155.4,-212.1,52.2,7.1,-26.4,-0.1,n/a,OK,4.0,    
125.50,1.067,2120.5,-259.7,373.6,8.68,-0.32,-16.32,153.8,-239.4,50.5,7.0,-26.4,-0.1,n/a,OK,4.0,    
126.00,1.053,2098.7,-229.1,371.6,8.63,-0.30,-15.53,152.4,-271.7,49.0,7.0,-26.2,-0.1,n/a,OK,4.0,    
126.50,1.040,2076.5,-199.6,369.1,8.67,-0.28,-14.77,149.8,-320.2,47.3,6.8,-26.7,-0.1,n/a,OK,4.0,    
127.00,1.026,2053.7,-171.2,366.3,8.57,-0.27,-14.01,149.0,-351.0,45.7,6.6,-26.8,-0.1,n/a,OK,4.0,    
127.50,1.012,2030.2,-143.7,363.1,8.42,-0.25,-13.27,149.2,-415.6,43.9,6.1,-28.2,-0.1,n/a,OK,4.0,    
128.00,0.998,2005.7,-117.0,359.4,8.32,-0.24,-12.53,149.1,-467.4,42.2,5.9,-29.3,-0.1,n/a,OK,4.0,    
128.50,0.983,1980.4,-91.4,355.3,8.50,-0.23,-11.80,148.4,-543.7,40.4,5.8,-30.2,-0.1,n/a,OK,4.0,    
129.00,0.968,1954.3,-66.7,350.6,8.70,-0.23,-11.08,149.6,-565.4,38.8,6.0,-29.9,-0.1,n/a,OK,4.0,    
129.50,0.953,1927.0,-42.9,345.9,8.56,-0.23,-10.37,150.4,-577.3,37.0,5.9,-29.8,-0.1,n/a,OK,4.0,    
130.00,0.938,1898.8,-20.0,341.0,8.23,-0.22,-9.67,151.5,-583.9,35.1,5.5,-30.5,-0.1,n/a,OK,4.0,    
130.50,0.922,1869.4,1.8,336.1,8.04,-0.22,-8.98,153.4,-586.4,33.1,5.3,-31.2,-0.1,n/a,OK,4.0,    
131.00,0.905,1838.8,22.6,331.1,8.28,-0.21,-8.29,154.3,-577.2,31.4,5.6,-30.5,-0.1,n/a,OK,4.0,    
131.50,0.888,1807.5,42.1,326.3,8.47,-0.20,-7.63,153.1,-562.9,30.0,6.2,-28.1,-0.1,n/a,OK,4.0,    
132.00,0.871,1775.7,60.4,321.9,8.47,-0.18,-6.98,153.5,-489.8,28.7,6.5,-25.2,-0.1,X0,OK,4.0,    
132.50,0.854,1743.4,77.7,318.1,8.46,-0.16,-6.35,152.3,-442.4,27.3,6.6,-22.8,-0.1,X0,OK,4.0,    
133.00,0.837,1711.0,93.8,314.6,8.45,-0.13,-5.72,150.7,-366.6,25.9,6.7,-21.5,-0.1,X0,OK,4.0,    
133.50,0.820,1678.5,109.0,311.7,8.38,-0.10,-5.11,150.5,-339.3,23.4,6.2,-23.7,-0.1,X0,OK,4.0,    
134.00,0.803,1645.6,122.9,308.8,8.50,-0.06,-4.52,149.8,-327.6,22.3,6.5,-24.2,-0.1,X0,OK,4.0,    
134.50,0.786,1612.6,135.7,306.3,8.58,-0.02,-3.94,147.9,-276.6,21.7,7.1,-24.4,-0.0,X0,OK,4.0,    
135.00,0.769,1579.6,147.6,304.1,8.42,0.03,-3.38,147.8,-274.4,19.4,6.6,-27.2,-0.0,X0,OK,4.0,    
135.50,0.751,1546.1,158.1,301.7,8.34,0.08,-2.84,148.7,-282.2,17.4,6.4,-30.4,-0.0,X0,OK,4.0,    
136.00,0.734,1511.9,167.4,299.4,8.45,0.13,-2.32,149.2,-283.0,15.5,6.6,-31.8,-0.0,X0,OK,4.0,    
136.50,0.716,1477.5,175.2,297.0,8.58,0.19,-1.84,148.4,-299.7,13.5,6.7,-32.5,-0.0,X0,OK,4.0,    
137.00,0.698,1443.1,181.6,294.3,8.56,0.24,-1.39,147.7,-332.0,11.6,6.5,-33.0,-0.0,X0,OK,4.0,    
137.50,0.680,1408.6,186.5,291.3,8.47,0.30,-0.98,147.4,-387.3,9.6,6.2,-33.6,-0.0,X0,OK,4.0,    
138.00,0.661,1373.9,189.9,287.9,8.44,0.35,-0.62,147.1,-436.5,7.4,5.9,-34.2,-0.0,X0,OK,4.0,    
138.50,0.643,1339.2,191.8,284.1,8.39,0.40,-0.30,147.4,-474.7,5.2,5.7,-34.9,-0.0,XX,OK,4.0,    
139.00,0.624,1304.4,192.1,280.0,8.29,0.45,-0.04,147.8,-526.3,2.9,5.3,-35.8,-0.0,XX,OK,4.0,(H)X    
139.50,0.606,1269.7,190.9,275.2,8.45,0.49,0.16,146.2,-625.5,0.7,5.1,-36.8,0.0,XX,OK,4.0,(H)X    
140.00,0.587,1235.5,188.0,269.5,8.58,0.53,0.29,144.7,-759.7,1.1,5.0,-36.4,0.0,XX,OK,4.0,(H)X    
140.50,0.569,1201.8,183.4,262.6,9.25,0.54,0.35,143.6,-879.8,1.4,6.2,-26.6,0.0,XX,OK,4.0,(H)X    
141.00,0.551,1168.7,177.9,255.6,10.15,0.55,0.34,141.5,-741.2,0.6,7.6,-1.0,0.0,XX,OK,4.0,(SLOH)X    
141.50,0.533,1136.1,172.5,250.2,9.87,0.59,0.35,139.2,-570.3,3.6,7.5,9.0,0.0,XX,--,2.0,_SLO_(H)X    
142.00,0.516,1104.0,167.8,245.6,8.34,0.64,0.39,137.2,-550.5,3.8,5.9,12.8,0.0,XX,--,2.0,_SLO_(H)X    
142.50,0.498,1072.2,163.6,240.5,7.37,0.68,0.45,136.0,-680.6,2.1,4.9,10.6,-0.0,IM,--,2.0,_SLO_(H)X    
143.00,0.481,1040.6,159.7,234.3,8.20,0.71,0.53,136.0,-768.8,0.3,5.4,2.5,-0.1,IM,--,2.0,_SLO_(H)X (FH)IM   
143.50,0.464,1008.9,155.5,227.9,9.05,0.74,0.61,136.9,-743.2,0.8,6.3,-4.0,-0.0,IM,--,2.0,_SLO_(H)X (FHLUR)IM   
144.00,0.446,977.1,151.0,222.0,8.93,0.77,0.66,137.4,-682.8,0.3,6.5,-7.2,-0.0,IM,--,2.0,_SLO_(H)X (SLOHLUR)IM   
144.50,0.429,945.3,146.3,216.4,8.01,0.82,0.71,135.8,-669.7,0.3,5.7,-10.0,0.0,IM,--,2.0,_SLO_(H)X (SLOHLUR)IM   
145.00,0.412,914.2,141.2,210.4,7.65,0.85,0.74,133.9,-783.2,0.1,5.1,-11.0,0.0,IM,--,2.0,_SLO_(H)X (SLO)H(LUR)IM   
145.50,0.395,883.5,135.9,203.4,8.07,0.87,0.74,132.5,-887.2,0.7,5.3,-8.7,0.0,IM,--,2.0,_SLO_(H)X (SLO)H(LUR)IM   
146.00,0.379,853.1,130.5,195.8,8.70,0.87,0.73,131.9,-937.2,0.9,5.7,-5.6,0.0,IM,--,2.0,_SLO_(H)X (SLO)H(LUR)IM   
146.50,0.362,822.6,125.0,187.9,8.64,0.87,0.71,133.1,-950.6,0.2,5.4,-3.4,0.0,IM,--,2.0,_SLO_(H)X (SLO)H(LUR)IM   
147.00,0.345,791.8,119.3,179.9,8.41,0.87,0.68,135.3,-972.7,0.4,4.9,-1.8,0.0,IM,--,2.0,_SLO_(H)X (SLO)H(LUR)IM   
147.50,0.328,760.4,113.3,171.8,8.61,0.87,0.64,137.3,-975.1,0.2,4.9,1.2,0.0,IM,--,2.0,_SLO_(H)X (SLO)H(LUR)IM   
148.00,0.310,728.9,107.5,163.6,8.82,0.86,0.60,135.5,-990.0,0.2,5.1,3.2,-0.0,IM,--,2.0,_SLO_(H)X (SLO)H(LUR)IM   
148.50,0.293,697.9,101.8,155.3,8.79,0.85,0.58,134.8,-1013.2,0.5,5.0,2.9,-0.0,IM,--,2.0,_SLO_(H)X (SLO)H(LUR)IM   
149.00,0.276,666.6,96.2,146.8,8.56,0.83,0.56,137.0,-1020.4,0.7,4.9,1.7,-0.0,IM,--,2.0,_SLO_(H)X (SLO)H(LUR)IM   
149.50,0.259,634.8,90.6,138.3,8.68,0.82,0.53,138.2,-1015.1,0.5,5.0,0.9,-0.0,IM,--,2.0,_SLO_(H)X (SLO)H(LUR)IM   
150.00,0.241,602.9,84.9,129.9,8.56,0.81,0.50,137.8,-994.5,0.1,5.0,0.4,-0.0,IC,--,2.0,_SLO_(H)X (SLO)H(LUR)IM   
150.50,0.224,571.2,79.3,121.6,8.12,0.79,0.48,137.0,-1003.3,0.0,4.6,-0.8,0.0,IC,--,2.0,_SLO_(H)X (SLO)H(LUR)IM  H(LUR)IC 
151.00,0.206,539.4,73.6,113.2,7.60,0.78,0.45,138.7,-1016.2,0.1,4.2,-2.2,0.0,IC,--,2.0,_SLO_(H)X (SLO)H(LUR)IM  H(LUR)IC 
151.50,0.189,507.1,67.7,104.7,7.76,0.76,0.39,141.3,-1013.9,0.4,4.5,-1.5,0.0,IC,--,2.0,_SLO_(H)X (SLO)H(LUR)IM  H(LUR)IC 
152.00,0.171,474.3,61.8,96.4,8.39,0.75,0.32,141.5,-975.9,0.8,5.2,0.6,0.0,IC,--,2.0,_SLO_(H)X (SLO)H(LUR)IM  H(LUR)IC 
152.50,0.153,441.6,55.9,88.5,8.68,0.76,0.26,140.8,-935.3,0.8,5.5,2.4,0.0,IC,--,2.0,_SLO_(H)X (SLO)H(LUR)IM  H(LUR)IC 
153.00,0.135,409.1,50.2,80.8,8.76,0.78,0.20,139.9,-919.0,1.0,5.4,4.1,0.0,IC,--,2.0,_SLO_(H)X (SLO)H(LUR)IM  H(LUR)IC 
153.50,0.117,376.8,44.7,73.1,8.48,0.80,0.17,139.6,-924.9,0.8,5.3,4.6,-0.0,IC,--,2.0,_SLO_(H)X (SLO)H(LUR)IM  H(LUR)IC 
154.00,0.100,344.4,39.4,65.3,8.36,0.82,0.17,139.4,-936.2,0.5,5.2,3.2,-0.0,IC,--,2.0,_SLO_(H)X (SLO)H(LUR)IM  H(LUR)IC 
154.50,0.082,312.2,34.2,57.5,8.33,0.84,0.19,139.0,-950.3,0.4,5.1,1.1,-0.0,IC,--,2.0,_SLO_(H)X (SLO)H(LUR)IM  H(LUR)IC 
155.00,0.064,280.0,29.1,49.5,8.28,0.86,0.23,139.2,-957.5,0.1,5.1,-1.0,-0.0,IC,--,2.0,_SLO_(H)X (SLO)H(LUR)IM  H(LUR)IC 
155.50,0.047,247.7,23.8,41.5,8.17,0.87,0.25,139.4,-971.0,0.4,5.0,-1.3,0.0,IC,--,2.0,_SLO_(H)X (SLO)H(LUR)IM  H(LUR)IC 
156.00,0.029,215.5,18.5,33.2,8.57,0.86,0.26,138.9,-1008.9,0.9,5.1,-0.8,0.0,AR,--,2.0,_SLO_(H)X (SLO)H(LUR)IM  H(LUR)IC 
156.50,0.011,183.2,13.2,24.8,8.87,0.82,0.30,139.4,-1015.7,0.9,5.2,-0.6,0.0,AR,--,2.0,_SLO_(H)X (SLO)H(LUR)IM  H(LUR)IC HAR
157.00,-0.006,150.8,7.9,16.4,8.80,0.76,0.37,140.9,-995.2,0.8,5.2,-1.0,0.0,AR,--,2.0,_SLO_(H)X (SLO)H(LUR)IM  H(LUR)IC HAR
157.50,-0.024,117.9,2.5,8.2,8.43,0.71,0.53,142.6,-973.1,0.6,4.8,-1.4,0.0,AR,--,2.0,_SLO_(H)X (SLO)H(LUR)IM  H(LUR)IC HAR
158.00,-0.043,84.7,-3.0,2.0,6.44,66.10,35.61,143.7,-937.0,0.5,3.2,-1.8,0.0,AR,--,2.0,_SLO_(H)X (SLO)H(LUR)IM  H(LUR)IC HAR
158.50,-0.061,51.4,-8.5,-0.4,5.26,-3.70,-179.98,143.3,-809.0,0.5,2.4,-1.4,0.0,AR,--,2.0,_SLO_(H)X (SLO)H(LUR)IM  H(LUR)IC HAR
159.00,-0.078,19.1,-13.6,-0.5,0.27,-3.64,179.92,138.6,-277.6,0.9,-0.6,-0.5,0.0,AR,--,2.0,_SLO_(H)X (SLO)H(LUR)IM  H(LUR)IC HAR
