#Time,Rho,X,Z,Alt,AoA,GSE,LUE,Vtot,Vy,Gamma,Pitch,Roll,Yaw,Step,Grade,Points,Details
0.00,-0.685,-1105.4,-9.0,214.0,8.70,-0.36,171.15,128.9,1246.1,7.9,13.5,-1.8,-0.0,n/a,OK,4.0,    
0.50,-0.701,-1135.1,-9.0,223.8,9.08,-0.30,171.14,126.6,1119.6,7.8,13.5,-1.6,-0.0,n/a,OK,4.0,    
1.00,-0.716,-1164.2,-9.1,232.7,9.27,-0.25,171.14,124.6,989.5,8.0,13.3,-0.1,-0.0,n/a,OK,4.0,    
1.50,-0.732,-1192.8,-9.1,240.3,9.39,-0.22,171.13,123.0,837.7,8.0,12.8,0.8,-0.0,n/a,OK,4.0,    
2.00,-0.747,-1221.3,-9.0,246.7,9.13,-0.20,171.12,122.9,705.7,7.7,12.0,0.7,-0.0,n/a,OK,4.0,    
2.50,-0.763,-1250.0,-8.9,252.2,8.86,-0.20,171.11,124.9,613.2,7.2,11.3,-1.4,-0.0,n/a,OK,4.0,    
3.00,-0.779,-1279.3,-8.8,257.1,8.65,-0.21,171.10,127.8,568.9,5.6,10.7,-7.2,-0.0,n/a,OK,4.0,    
3.50,-0.795,-1309.5,-9.1,261.8,8.25,-0.22,171.11,131.0,563.2,3.7,10.1,-15.3,-0.0,n/a,OK,4.0,    
4.00,-0.812,-1340.4,-10.3,266.5,7.72,-0.24,171.15,134.1,549.1,2.9,9.5,-21.8,-0.0,n/a,OK,4.0,    
4.50,-0.829,-1372.2,-12.4,271.0,7.34,-0.25,171.23,137.4,536.8,2.6,9.4,-24.3,0.0,n/a,OK,4.0,    
5.00,-0.846,-1404.7,-15.5,275.4,7.38,-0.27,171.34,140.8,537.3,1.8,9.5,-24.2,0.0,n/a,OK,4.0,    
5.50,-0.864,-1437.8,-19.5,280.0,7.96,-0.29,171.48,142.3,558.9,0.4,10.0,-23.1,0.0,n/a,OK,4.0,    
6.00,-0.882,-1470.8,-24.5,284.7,8.38,-0.31,171.65,140.5,558.0,1.4,10.2,-22.2,0.0,n/a,OK,4.0,    
6.50,-0.900,-1503.1,-30.3,289.3,8.30,-0.32,171.84,139.3,537.0,3.2,9.8,-21.9,0.0,n/a,OK,4.0,    
7.00,-0.917,-1535.2,-37.0,293.6,8.05,-0.34,172.06,139.3,499.5,4.9,9.2,-22.4,0.0,n/a,OK,4.0,    
7.50,-0.934,-1567.2,-44.7,297.6,7.95,-0.36,172.30,139.8,447.4,6.6,8.8,-23.5,0.0,n/a,OK,4.0,    
8.00,-0.952,-1599.0,-53.3,301.1,8.07,-0.38,172.57,139.8,402.2,8.3,8.7,-25.0,0.0,n/a,OK,4.0,    
8.50,-0.969,-1630.6,-63.0,304.3,8.17,-0.41,172.86,140.0,361.3,9.9,8.6,-26.5,0.0,n/a,OK,4.0,    
9.00,-0.986,-1661.9,-73.8,307.2,8.04,-0.43,173.18,140.9,325.6,11.5,8.4,-27.9,0.0,n/a,OK,4.0,    
9.50,-1.003,-1693.1,-85.9,309.8,7.85,-0.46,173.53,141.8,287.0,13.1,8.1,-29.0,0.0,n/a,OK,4.0,    
10.00,-1.020,-1724.1,-99.2,312.0,7.88,-0.49,173.90,142.6,245.5,14.9,8.0,-30.0,0.0,n/a,OK,4.0,    
10.50,-1.037,-1754.8,-113.7,313.9,8.06,-0.53,174.30,143.2,204.6,16.8,8.0,-30.7,0.0,n/a,OK,4.0,    
11.00,-1.054,-1785.0,-129.6,315.4,8.13,-0.56,174.73,143.9,166.3,18.8,7.9,-31.5,0.0,n/a,OK,4.0,    
11.50,-1.071,-1814.8,-146.7,316.6,8.26,-0.60,175.19,144.6,124.8,20.9,7.7,-32.4,0.0,n/a,OK,4.0,    
12.00,-1.088,-1844.1,-165.3,317.5,8.21,-0.64,175.67,145.5,74.7,22.9,7.4,-33.4,0.1,n/a,OK,4.0,    
12.50,-1.104,-1872.9,-185.2,317.9,8.26,-0.68,176.18,146.4,11.2,25.1,7.2,-34.3,0.1,n/a,OK,4.0,    
13.00,-1.120,-1901.0,-206.4,317.7,8.40,-0.72,176.71,147.3,-53.1,27.3,7.0,-35.4,0.1,n/a,OK,4.0,    
13.50,-1.136,-1928.4,-229.1,317.0,8.37,-0.77,177.27,148.3,-109.5,29.6,6.8,-36.4,0.1,n/a,OK,4.0,    
14.00,-1.152,-1955.0,-253.3,315.9,8.18,-0.82,177.86,149.6,-170.0,31.9,6.4,-37.4,0.1,n/a,OK,4.0,    
14.50,-1.168,-1980.7,-279.0,314.2,8.05,-0.87,178.47,150.7,-247.5,34.2,5.9,-38.5,0.1,n/a,OK,4.0,    
15.00,-1.183,-2005.6,-306.1,311.7,8.26,-0.92,179.11,152.2,-348.3,36.6,5.8,-39.2,0.1,n/a,OK,4.0,    
15.50,-1.198,-2029.5,-334.9,308.6,8.84,-0.98,179.78,155.2,-378.2,39.1,6.4,-38.4,0.1,n/a,OK,4.0,    
16.00,-1.213,-2052.6,-365.5,305.7,8.79,-1.04,-179.51,158.5,-316.0,41.5,6.5,-37.3,0.1,n/a,OK,4.0,    
16.50,-1.228,-2074.9,-398.0,303.3,8.08,-1.09,-178.77,162.3,-272.0,43.8,5.9,-37.5,0.1,n/a,OK,4.0,    
17.00,-1.243,-2096.3,-432.4,301.1,8.02,-1.14,-178.00,166.3,-222.7,46.2,6.0,-37.3,0.1,n/a,OK,4.0,    
17.50,-1.257,-2116.6,-468.8,299.8,8.41,-1.17,-177.19,170.0,-63.3,48.9,6.8,-35.9,0.1,n/a,OK,4.0,    
18.00,-1.272,-2135.7,-507.0,300.2,8.15,-1.20,-176.35,173.4,147.3,51.4,7.1,-35.2,0.1,n/a,OK,4.0,    
18.50,-1.286,-2153.5,-546.7,301.9,7.68,-1.21,-175.48,175.3,266.5,53.7,7.1,-35.9,0.1,n/a,OK,4.0,    
19.00,-1.300,-2169.4,-587.6,304.7,7.90,-1.22,-174.60,175.0,410.0,56.0,7.8,-35.8,0.1,n/a,OK,4.0,    
19.50,-1.313,-2183.6,-629.1,308.6,7.99,-1.21,-173.71,175.2,541.1,58.5,8.3,-36.4,0.1,n/a,OK,4.0,    
20.00,-1.325,-2195.9,-671.5,313.6,7.75,-1.20,-172.80,176.0,665.0,60.9,8.5,-37.9,0.1,n/a,OK,4.0,    
20.50,-1.338,-2206.4,-714.9,319.6,7.53,-1.17,-171.88,177.0,753.1,63.3,8.5,-39.5,0.1,n/a,OK,4.0,    
21.00,-1.349,-2214.8,-758.9,326.1,7.75,-1.15,-170.94,177.3,803.5,65.9,8.7,-40.9,0.1,n/a,OK,4.0,    
21.50,-1.360,-2221.1,-803.4,333.0,7.90,-1.12,-170.00,176.3,831.3,68.6,8.9,-42.1,0.1,n/a,OK,4.0,    
22.00,-1.370,-2225.2,-848.0,339.9,7.98,-1.09,-169.04,175.6,825.5,71.3,8.9,-43.1,0.1,n/a,OK,4.0,    
22.50,-1.379,-2227.1,-892.8,346.7,8.08,-1.06,-168.09,175.4,786.0,74.0,8.8,-44.2,0.1,n/a,OK,4.0,    
23.00,-1.388,-2226.8,-937.8,352.9,8.28,-1.03,-167.12,175.4,716.9,76.8,8.9,-44.5,0.1,n/a,OK,4.0,    
23.50,-1.396,-2224.3,-982.8,358.8,8.37,-1.00,-166.14,175.2,683.8,79.4,9.0,-43.3,0.1,n/a,OK,4.0,    
24.00,-1.403,-2219.6,-1027.8,364.3,8.38,-0.98,-165.16,175.1,630.7,81.9,9.0,-42.2,0.1,n/a,OK,4.0,    
24.50,-1.409,-2212.9,-1072.7,369.5,8.35,-0.96,-164.17,175.0,613.7,84.0,9.2,-39.5,0.1,n/a,OK,4.0,    
25.00,-1.415,-2204.2,-1117.3,374.6,8.39,-0.93,-163.18,174.8,628.7,86.3,9.2,-37.4,0.1,n/a,OK,4.0,    
25.50,-1.421,-2193.7,-1161.6,379.8,8.29,-0.91,-162.18,174.6,624.0,89.0,8.8,-37.9,0.1,n/a,OK,4.0,    
26.00,-1.426,-2181.4,-1205.6,384.8,8.28,-0.88,-161.18,175.0,571.5,91.5,8.5,-39.4,0.1,n/a,OK,4.0,    
26.50,-1.430,-2167.2,-1249.2,389.4,8.17,-0.86,-160.18,176.2,538.2,93.7,8.5,-39.3,0.1,n/a,OK,4.0,    
27.00,-1.433,-2150.9,-1292.9,393.8,8.29,-0.84,-159.15,178.4,544.4,95.8,8.7,-37.8,0.1,n/a,OK,4.0,    
27.50,-1.437,-2132.9,-1336.4,398.5,8.37,-0.81,-158.12,179.3,563.5,98.1,8.8,-36.8,0.1,n/a,OK,4.0,    
28.00,-1.439,-2113.1,-1379.4,403.2,8.27,-0.79,-157.08,179.6,571.3,100.3,8.9,-35.7,0.1,n/a,OK,4.0,    
28.50,-1.442,-2091.6,-1421.9,408.1,8.31,-0.76,-156.03,181.1,621.2,102.4,9.2,-34.4,0.1,n/a,OK,4.0,    
29.00,-1.444,-2068.4,-1464.0,413.5,8.32,-0.73,-154.98,181.8,681.8,104.8,9.2,-34.6,0.1,n/a,OK,4.0,    
29.50,-1.445,-2043.6,-1505.5,419.3,8.36,-0.69,-153.92,182.5,700.3,107.2,9.2,-36.1,0.1,n/a,OK,4.0,    
30.00,-1.446,-2017.1,-1546.2,425.2,8.23,-0.65,-152.85,183.1,709.4,109.5,9.1,-37.8,0.1,n/a,OK,4.0,    
30.50,-1.446,-1989.0,-1586.1,431.0,8.27,-0.62,-151.78,183.7,689.3,111.8,9.1,-39.2,0.1,n/a,OK,4.0,    
31.00,-1.446,-1959.2,-1625.1,436.6,8.31,-0.58,-150.70,184.0,636.9,114.1,9.1,-39.5,0.1,n/a,OK,4.0,    
31.50,-1.445,-1927.8,-1663.0,441.8,8.36,-0.55,-149.62,184.3,607.3,116.2,9.1,-38.9,0.1,n/a,OK,4.0,    
32.00,-1.444,-1895.0,-1700.0,446.7,8.34,-0.51,-148.53,185.0,578.8,118.6,9.0,-39.2,0.1,n/a,OK,4.0,    
32.50,-1.443,-1860.6,-1735.9,451.2,8.45,-0.48,-147.44,185.5,508.4,121.1,8.8,-39.3,0.1,n/a,OK,4.0,    
33.00,-1.441,-1824.8,-1770.6,455.3,8.49,-0.45,-146.35,185.8,478.3,123.3,8.9,-37.7,0.1,n/a,OK,4.0,    
33.50,-1.438,-1787.7,-1804.2,459.2,8.53,-0.42,-145.25,186.1,449.8,125.7,8.6,-37.3,0.1,n/a,OK,4.0,    
34.00,-1.435,-1749.3,-1836.6,462.8,8.28,-0.39,-144.14,186.7,412.3,128.2,7.9,-38.3,0.1,n/a,OK,4.0,    
34.50,-1.431,-1709.5,-1867.8,465.9,8.16,-0.36,-143.03,187.7,340.0,130.3,7.7,-38.1,0.1,n/a,OK,4.0,    
35.00,-1.428,-1668.5,-1897.7,468.6,8.42,-0.33,-141.91,188.1,306.5,132.3,8.1,-36.0,0.1,n/a,OK,4.0,    
35.50,-1.423,-1626.6,-1926.2,471.0,8.60,-0.31,-140.80,186.5,240.6,134.4,8.2,-33.8,0.1,n/a,OK,4.0,    
36.00,-1.418,-1584.0,-1953.0,472.6,9.19,-0.29,-139.69,184.2,202.1,134.8,9.4,-20.1,0.1,n/a,OK,4.0,    
36.50,-1.414,-1541.5,-1978.7,475.1,9.34,-0.26,-138.59,181.9,393.1,132.2,10.8,-9.8,0.1,n/a,OK,4.0,    
37.00,-1.410,-1499.4,-2003.9,478.7,8.84,-0.23,-137.50,179.2,443.5,132.3,10.4,-7.3,0.1,n/a,OK,4.0,    
37.50,-1.406,-1457.6,-2028.4,482.2,8.12,-0.20,-136.42,177.8,351.9,134.0,9.2,-5.9,0.1,n/a,OK,4.0,    
38.00,-1.402,-1415.7,-2052.2,485.0,8.38,-0.17,-135.35,175.8,307.3,135.1,9.3,-5.5,0.1,n/a,OK,4.0,    
38.50,-1.398,-1374.0,-2075.5,487.5,9.13,-0.14,-134.27,174.9,316.9,136.2,10.0,-6.2,0.1,n/a,OK,4.0,    
39.00,-1.395,-1332.4,-2098.7,490.5,9.21,-0.12,-133.20,175.4,364.3,138.8,9.7,-14.4,0.1,n/a,OK,4.0,    
39.50,-1.392,-1290.1,-2121.3,493.5,8.59,-0.09,-132.12,176.8,352.6,141.2,8.5,-24.2,0.1,n/a,OK,4.0,    
40.00,-1.389,-1246.9,-2142.9,496.0,7.91,-0.07,-131.03,177.0,239.3,141.6,8.0,-29.2,0.1,n/a,OK,4.0,    
40.50,-1.386,-1203.2,-2163.7,497.6,7.70,-0.05,-129.93,178.1,141.6,141.7,8.3,-29.2,0.1,n/a,OK,4.0,    
41.00,-1.382,-1158.7,-2183.6,498.6,8.27,-0.04,-128.83,179.2,104.4,142.7,9.0,-27.7,0.1,n/a,OK,4.0,    
41.50,-1.379,-1113.5,-2202.8,499.4,8.54,-0.02,-127.71,180.4,98.1,144.5,9.1,-26.6,0.1,n/a,OK,4.0,    
42.00,-1.375,-1067.7,-2221.0,500.0,8.43,-0.01,-126.59,181.2,53.6,146.4,8.7,-25.9,0.1,n/a,OK,4.0,    
42.50,-1.372,-1021.2,-2238.4,500.2,8.18,-0.00,-125.46,182.2,21.9,148.3,8.0,-25.7,0.1,n/a,OK,4.0,    
43.00,-1.368,-974.2,-2254.8,500.3,8.20,0.01,-124.32,182.4,-28.7,150.3,7.5,-26.2,0.1,n/a,OK,4.0,    
43.50,-1.364,-926.8,-2270.1,499.7,8.56,0.01,-123.18,182.7,-77.0,152.4,7.5,-26.9,0.1,n/a,OK,4.0,    
44.00,-1.360,-878.7,-2284.4,499.0,8.96,0.01,-122.03,184.4,-89.3,154.2,7.8,-27.1,0.1,n/a,OK,4.0,    
44.50,-1.356,-829.9,-2297.7,498.2,9.09,0.02,-120.86,185.6,-66.0,155.7,8.1,-26.2,0.1,n/a,OK,4.0,    
45.00,-1.352,-780.6,-2309.8,497.7,8.76,0.02,-119.69,186.5,-47.5,157.1,7.9,-25.8,0.1,n/a,OK,4.0,    
45.50,-1.348,-730.7,-2320.9,497.4,8.18,0.03,-118.51,187.5,-20.0,158.6,7.5,-25.8,0.1,n/a,OK,4.0,    
46.00,-1.343,-680.3,-2331.0,497.1,7.91,0.04,-117.32,188.3,-32.5,160.2,7.1,-26.6,0.0,n/a,OK,4.0,    
46.50,-1.339,-629.5,-2339.8,496.8,8.02,0.05,-116.13,189.4,-62.8,161.8,7.2,-27.2,0.1,n/a,OK,4.0,    
47.00,-1.334,-578.2,-2347.3,496.2,9.19,0.05,-114.92,189.9,-43.4,161.8,9.1,-20.8,0.1,n/a,OK,4.0,    
47.50,-1.329,-526.7,-2354.1,497.0,9.42,0.07,-113.71,189.7,213.9,161.8,10.2,-13.3,0.1,n/a,OK,4.0,    
48.00,-1.325,-475.2,-2360.3,499.2,8.00,0.09,-112.49,190.1,290.1,163.2,8.9,-11.1,0.0,n/a,OK,4.0,    
48.50,-1.321,-423.5,-2365.9,501.7,7.28,0.12,-111.27,190.7,310.8,164.6,8.1,-12.3,0.0,n/a,OK,4.0,    
49.00,-1.317,-371.5,-2370.9,504.7,7.87,0.15,-110.04,191.0,399.8,166.1,8.9,-14.5,0.0,n/a,OK,4.0,    
49.50,-1.314,-319.7,-2375.2,508.4,8.42,0.18,-108.81,189.5,491.5,167.3,9.8,-16.6,0.0,n/a,OK,4.0,    
50.00,-1.310,-268.1,-2378.6,512.6,8.42,0.22,-107.58,188.4,511.1,168.1,10.0,-18.2,0.0,n/a,OK,4.0,    
50.50,-1.307,-216.8,-2381.1,516.9,8.00,0.26,-106.36,187.3,508.7,168.0,9.9,-17.6,0.1,n/a,OK,4.0,    
51.00,-1.304,-165.7,-2382.9,521.3,8.16,0.30,-105.14,186.6,500.8,168.1,10.1,-15.2,0.1,n/a,OK,4.0,    
51.50,-1.301,-114.9,-2383.9,525.5,8.69,0.34,-103.92,184.4,513.0,167.3,10.7,-8.7,0.1,n/a,OK,4.0,    
52.00,-1.299,-64.8,-2384.8,529.9,8.99,0.37,-102.72,181.8,513.8,167.6,10.8,-2.5,0.0,n/a,OK,4.0,    
52.50,-1.297,-15.2,-2385.5,534.2,8.75,0.41,-101.53,179.4,464.2,168.6,10.3,-0.5,0.0,n/a,OK,4.0,    
53.00,-1.295,33.7,-2386.1,537.9,8.45,0.44,-100.36,177.1,416.8,169.0,10.0,1.3,0.0,n/a,OK,4.0,    
53.50,-1.295,82.1,-2386.7,541.0,8.73,0.46,-99.19,175.2,310.6,169.8,9.8,-0.1,0.0,n/a,OK,4.0,    
54.00,-1.294,130.1,-2387.3,543.3,9.07,0.47,-98.04,174.7,239.6,170.4,9.8,-2.8,0.0,n/a,OK,4.0,    
54.50,1.294,178.2,-2387.6,545.2,9.01,0.48,-96.89,175.4,192.1,170.6,9.5,-5.5,0.0,n/a,OK,4.0,    
55.00,1.295,226.6,-2387.7,546.6,8.77,0.49,-95.73,176.8,156.2,170.3,9.3,-6.5,0.0,n/a,OK,4.0,    
55.50,1.296,275.2,-2387.5,547.9,8.75,0.49,-94.56,177.7,139.5,169.8,9.3,-5.5,0.0,n/a,OK,4.0,    
56.00,1.297,324.0,-2387.2,548.8,8.75,0.49,-93.40,178.2,104.9,170.0,9.1,-5.2,0.0,n/a,OK,4.0,    
56.50,1.299,372.9,-2386.7,549.6,8.74,0.49,-92.24,178.5,63.3,170.2,9.0,-4.5,0.0,n/a,OK,4.0,    
57.00,1.301,421.9,-2386.0,550.1,8.87,0.49,-91.08,178.4,47.3,170.5,9.0,-3.8,0.0,n/a,OK,4.0,    
57.50,1.304,470.9,-2385.2,550.4,9.23,0.48,-89.92,178.7,19.8,170.8,9.3,-3.0,0.0,n/a,OK,4.0,    
58.00,1.307,520.2,-2384.3,550.7,9.08,0.47,-88.77,180.3,62.4,171.2,9.3,-2.8,0.0,n/a,OK,4.0,    
58.50,1.310,569.6,-2383.2,551.1,8.79,0.46,-87.62,180.4,42.7,171.6,9.0,-3.4,0.0,n/a,OK,4.0,    
59.00,1.315,619.0,-2382.0,551.5,8.53,0.44,-86.47,180.1,43.8,172.0,8.7,-4.2,0.0,n/a,OK,4.0,    
59.50,1.319,668.5,-2380.7,551.9,8.16,0.43,-85.34,180.5,33.1,172.6,8.2,-6.1,0.0,n/a,OK,4.0,    
60.00,1.324,718.1,-2379.2,552.1,7.84,0.41,-84.21,181.6,3.6,174.5,7.5,-11.6,-0.0,n/a,OK,4.0,    
60.50,1.329,768.0,-2377.1,552.2,7.61,0.40,-83.07,183.5,-17.1,176.8,6.8,-20.4,-0.0,n/a,OK,4.0,    
61.00,1.335,818.4,-2373.9,551.9,7.55,0.38,-81.94,184.8,-50.2,177.9,6.6,-27.3,0.0,n/a,OK,4.0,    
61.50,1.340,869.0,-2369.7,551.2,7.41,0.36,-80.80,186.5,-128.6,179.0,6.6,-31.5,0.0,n/a,OK,4.0,    
62.00,1.345,920.1,-2364.1,550.0,7.58,0.33,-79.65,189.7,-172.2,179.8,6.9,-32.2,0.0,n/a,OK,4.0,    
62.50,1.351,971.9,-2357.2,548.4,7.61,0.30,-78.48,192.3,-206.6,177.9,6.8,-32.1,0.0,n/a,OK,4.0,    
63.00,1.356,1023.8,-2348.9,546.6,7.79,0.27,-77.31,192.3,-232.7,175.8,6.7,-31.3,0.0,n/a,OK,4.0,    
63.50,1.361,1075.3,-2339.3,544.5,7.91,0.24,-76.15,192.1,-273.3,173.7,6.3,-30.8,0.0,n/a,OK,4.0,    
64.00,1.365,1126.7,-2328.4,542.1,7.86,0.21,-74.99,193.4,-295.6,171.4,5.9,-30.9,-0.0,n/a,OK,4.0,    
64.50,1.370,1178.3,-2315.9,539.5,7.91,0.18,-73.82,196.5,-308.1,169.2,5.6,-31.7,-0.0,n/a,OK,4.0,    
65.00,1.375,1230.3,-2301.7,537.1,7.78,0.15,-72.64,199.2,-279.8,166.9,5.5,-32.9,-0.0,n/a,OK,4.0,    
65.50,1.379,1282.3,-2285.9,534.9,7.70,0.12,-71.45,200.4,-271.3,164.7,5.4,-34.0,-0.0,n/a,OK,4.0,    
66.00,1.383,1333.9,-2268.2,532.7,7.77,0.09,-70.25,201.5,-226.2,163.1,6.0,-32.7,-0.0,n/a,OK,4.0,    
66.50,1.387,1385.2,-2249.0,531.1,7.79,0.07,-69.06,201.6,-150.5,161.3,6.3,-30.8,-0.0,n/a,OK,4.0,    
67.00,1.390,1435.9,-2228.5,530.1,7.54,0.05,-67.87,201.6,-76.8,159.1,6.3,-31.6,-0.0,n/a,OK,4.0,    
67.50,1.394,1486.1,-2206.5,529.6,7.31,0.04,-66.67,202.8,-20.6,156.8,6.1,-33.8,-0.0,n/a,OK,4.0,    
68.00,1.397,1535.7,-2182.7,529.6,7.14,0.03,-65.48,203.5,17.0,154.6,6.2,-35.2,-0.0,n/a,OK,4.0,    
68.50,1.399,1584.6,-2157.3,529.9,7.18,0.02,-64.28,203.6,57.8,152.4,6.4,-36.1,-0.0,n/a,OK,4.0,    
69.00,1.402,1632.5,-2130.4,530.5,7.32,0.02,-63.09,203.3,83.6,150.1,6.5,-36.7,-0.0,n/a,OK,4.0,    
69.50,1.404,1679.5,-2101.9,531.3,7.40,0.02,-61.90,203.1,118.5,147.8,6.6,-37.2,-0.0,n/a,OK,4.0,    
70.00,1.405,1725.3,-2072.0,532.3,7.44,0.02,-60.72,202.1,124.7,145.4,6.6,-37.7,-0.0,n/a,OK,4.0,    
70.50,1.407,1769.7,-2040.9,533.3,7.55,0.02,-59.55,199.9,106.6,143.0,6.6,-38.3,-0.0,n/a,OK,4.0,    
71.00,1.408,1812.5,-2008.7,534.0,7.59,0.02,-58.39,198.2,62.3,140.7,6.4,-38.9,-0.0,n/a,OK,4.0,    
71.50,1.408,1853.9,-1975.4,534.3,7.73,0.02,-57.24,196.5,23.3,138.4,6.5,-38.5,-0.0,n/a,OK,4.0,    
72.00,1.408,1893.8,-1941.0,534.3,7.79,0.02,-56.10,195.0,-32.1,136.1,6.3,-38.5,-0.1,n/a,OK,4.0,    
72.50,1.408,1932.2,-1905.5,533.8,7.87,0.01,-54.97,194.5,-94.7,133.9,6.3,-38.1,-0.1,n/a,OK,4.0,    
73.00,1.407,1969.3,-1868.8,533.0,7.91,0.01,-53.84,194.9,-74.4,131.8,6.5,-36.3,-0.1,n/a,OK,4.0,    
73.50,1.406,2005.1,-1830.8,532.3,7.80,0.00,-52.71,194.9,-92.2,129.7,6.5,-34.6,-0.1,n/a,OK,4.0,    
74.00,1.405,2039.6,-1791.7,531.7,7.90,0.00,-51.59,194.6,-47.2,127.9,6.9,-31.8,-0.1,n/a,OK,4.0,    
74.50,1.403,2072.8,-1751.8,531.7,7.96,0.00,-50.47,194.1,45.0,126.0,7.2,-29.2,-0.1,n/a,OK,4.0,    
75.00,1.401,2104.7,-1711.1,532.4,7.90,0.01,-49.35,193.8,137.2,123.8,7.2,-29.3,-0.1,n/a,OK,4.0,    
75.50,1.399,2135.3,-1669.6,533.9,7.65,0.02,-48.23,193.3,224.4,121.7,7.2,-30.9,-0.1,n/a,OK,4.0,    
76.00,1.396,2164.6,-1627.4,536.1,7.52,0.04,-47.12,192.7,281.6,119.3,7.1,-34.4,-0.1,n/a,OK,4.0,    
76.50,1.393,2192.2,-1584.3,538.5,7.46,0.06,-46.01,192.8,303.9,117.1,7.1,-37.5,-0.1,n/a,OK,4.0,    
77.00,1.390,2218.2,-1540.3,541.0,7.34,0.09,-44.91,192.8,305.1,115.0,7.2,-39.0,-0.1,n/a,OK,4.0,    
77.50,1.386,2242.4,-1495.7,543.5,7.31,0.11,-43.81,190.7,271.6,112.8,7.2,-39.5,-0.1,n/a,OK,4.0,    
78.00,1.382,2264.7,-1450.9,545.5,7.45,0.14,-42.72,188.0,208.7,110.5,7.2,-39.6,-0.1,n/a,OK,4.0,    
78.50,1.378,2285.1,-1406.2,546.9,7.81,0.15,-41.66,184.7,119.9,108.1,7.2,-39.2,-0.1,n/a,OK,4.0,    
79.00,1.373,2303.6,-1361.7,547.5,8.02,0.17,-40.61,181.4,25.8,105.7,7.1,-38.4,-0.1,n/a,OK,4.0,    
79.50,1.368,2320.4,-1317.6,547.3,8.22,0.18,-39.59,178.1,-73.0,103.4,6.8,-37.8,-0.1,n/a,OK,4.0,    
80.00,1.363,2335.5,-1273.7,546.3,8.27,0.19,-38.58,175.4,-190.9,101.0,6.2,-37.8,-0.1,n/a,OK,4.0,    
80.50,1.357,2348.9,-1230.0,544.2,8.37,0.19,-37.58,174.2,-310.5,98.7,5.7,-38.1,-0.1,n/a,OK,4.0,    
81.00,1.351,2360.7,-1186.0,541.2,8.45,0.18,-36.60,174.6,-407.4,96.4,5.4,-38.2,-0.1,n/a,OK,4.0,    
81.50,1.345,2370.7,-1141.5,537.5,8.46,0.17,-35.61,175.6,-470.2,94.2,5.2,-38.0,-0.1,n/a,OK,4.0,    
82.00,1.338,2379.0,-1096.8,533.3,8.55,0.16,-34.62,174.1,-548.4,92.0,5.1,-37.7,-0.1,n/a,OK,4.0,    
82.50,1.330,2385.6,-1052.6,528.3,8.56,0.14,-33.65,171.4,-645.3,89.9,4.8,-37.2,-0.1,n/a,OK,4.0,    
83.00,1.323,2390.6,-1008.8,522.5,8.64,0.12,-32.70,169.3,-748.0,87.8,4.6,-36.7,-0.1,n/a,OK,4.0,    
83.50,1.315,2394.0,-965.5,515.9,8.73,0.10,-31.76,167.9,-842.6,85.7,4.4,-36.3,-0.1,n/a,OK,4.0,    
84.00,1.307,2395.8,-922.5,508.6,8.59,0.07,-30.83,167.4,-925.3,83.6,4.1,-36.3,-0.1,n/a,OK,4.0,    
84.50,1.298,2396.0,-879.5,500.6,8.43,0.03,-29.90,168.4,-991.6,81.5,3.8,-36.4,-0.1,n/a,OK,4.0,    
85.00,1.289,2394.3,-836.3,492.1,8.12,-0.00,-28.97,170.6,-1028.6,79.3,3.5,-36.5,-0.1,n/a,OK,4.0,    
85.50,1.279,2390.7,-792.7,483.5,8.02,-0.04,-28.03,173.3,-1033.1,77.0,3.4,-36.6,-0.1,n/a,OK,4.0,    
86.00,1.268,2385.0,-748.7,475.0,7.90,-0.07,-27.09,175.8,-1003.8,74.6,3.3,-36.6,-0.1,n/a,OK,4.0,    
86.50,1.256,2377.2,-704.6,466.9,7.77,-0.10,-26.15,178.2,-943.5,72.1,3.3,-36.7,-0.1,n/a,OK,4.0,    
87.00,1.244,2367.3,-660.6,459.3,7.62,-0.13,-25.20,178.5,-870.0,69.6,3.5,-37.0,-0.1,n/a,OK,4.0,    
87.50,1.232,2355.6,-617.4,452.3,7.61,-0.15,-24.27,176.9,-815.3,67.2,3.6,-37.2,-0.1,n/a,OK,4.0,    
88.00,1.219,2342.3,-575.2,445.7,7.66,-0.16,-23.35,175.8,-769.9,64.9,3.8,-37.4,-0.1,n/a,OK,4.0,    
88.50,1.205,2327.2,-533.9,439.4,7.90,-0.17,-22.45,175.4,-726.9,62.5,4.1,-37.6,-0.1,n/a,OK,4.0,    
89.00,1.191,2310.3,-493.4,433.6,7.97,-0.18,-21.56,175.4,-660.0,60.1,4.4,-37.7,-0.1,n/a,OK,4.0,    
89.50,1.177,2291.8,-454.1,428.4,7.99,-0.18,-20.68,173.8,-607.8,57.7,4.6,-37.8,-0.1,n/a,OK,4.0,    
90.00,1.162,2271.8,-416.1,423.5,7.97,-0.18,-19.83,171.8,-558.5,55.4,4.8,-37.8,-0.1,n/a,OK,4.0,    
90.50,1.147,2250.4,-379.4,419.0,8.08,-0.18,-18.99,171.7,-532.5,53.2,5.1,-37.2,-0.1,n/a,OK,4.0,    
91.00,1.131,2227.4,-343.9,414.7,8.10,-0.17,-18.17,170.4,-466.5,51.5,5.8,-34.2,-0.1,n/a,OK,4.0,    
91.50,1.115,2203.3,-309.8,411.3,8.09,-0.15,-17.37,168.5,-364.9,50.0,6.4,-29.7,-0.1,n/a,OK,4.0,    
92.00,1.100,2178.6,-277.0,408.8,8.07,-0.12,-16.59,165.8,-215.9,48.5,6.8,-26.0,-0.1,n/a,OK,4.0,    
92.50,1.084,2153.4,-245.5,407.5,7.87,-0.09,-15.82,163.9,-102.7,45.5,6.2,-28.6,-0.1,n/a,OK,4.0,    
93.00,1.068,2127.3,-215.2,406.7,7.74,-0.05,-15.06,163.2,-88.7,42.8,5.6,-34.0,-0.1,n/a,OK,4.0,    
93.50,1.051,2099.9,-186.4,405.9,7.65,-0.00,-14.33,162.2,-104.5,40.9,5.8,-36.7,-0.1,n/a,OK,4.0,    
94.00,1.035,2071.8,-159.2,405.0,7.82,0.04,-13.63,159.9,-121.7,39.4,6.2,-36.9,-0.1,n/a,OK,4.0,    
94.50,1.018,2043.0,-133.6,403.9,7.93,0.09,-12.95,157.5,-160.9,37.4,6.5,-36.7,-0.1,n/a,OK,4.0,    
95.00,1.002,2013.8,-109.6,402.3,8.09,0.13,-12.29,155.6,-205.6,35.2,6.5,-36.9,-0.1,n/a,OK,4.0,    
95.50,0.985,1984.0,-87.2,400.4,8.22,0.17,-11.67,153.6,-275.0,32.8,6.3,-37.3,-0.1,n/a,OK,4.0,    
96.00,0.968,1953.8,-66.5,397.7,8.38,0.21,-11.08,151.8,-360.2,30.5,6.1,-37.2,-0.1,n/a,OK,4.0,    
96.50,0.951,1923.0,-47.4,394.4,8.43,0.24,-10.51,150.3,-442.3,28.7,6.1,-35.0,-0.0,n/a,OK,4.0,    
97.00,0.934,1891.9,-29.8,390.6,8.40,0.27,-9.98,148.8,-468.0,27.1,6.1,-31.7,-0.1,n/a,OK,4.0,    
97.50,0.917,1860.5,-13.6,386.5,8.31,0.29,-9.47,147.3,-523.7,25.4,5.9,-29.2,-0.1,n/a,OK,4.0,    
98.00,0.900,1829.0,1.2,382.0,8.38,0.32,-8.99,145.7,-549.7,24.4,6.2,-25.2,-0.0,n/a,OK,4.0,    
98.50,0.883,1797.4,14.8,377.4,8.37,0.34,-8.54,144.2,-548.1,23.6,6.4,-20.1,-0.1,n/a,OK,4.0,    
99.00,0.866,1765.8,27.5,372.9,8.28,0.37,-8.09,142.6,-523.4,22.9,6.4,-15.2,-0.1,n/a,OK,4.0,    
99.50,0.849,1734.5,39.5,368.6,8.23,0.39,-7.66,140.9,-513.7,21.6,6.1,-13.6,-0.1,n/a,OK,4.0,    
100.00,0.832,1703.4,50.8,364.2,8.20,0.42,-7.23,139.1,-552.4,20.2,5.8,-14.9,-0.1,X0,OK,4.0,    
100.50,0.816,1672.5,61.2,359.4,8.26,0.44,-6.81,137.8,-607.9,19.4,5.7,-16.2,-0.1,X0,OK,4.0,    
101.00,0.799,1641.6,70.9,354.1,8.21,0.46,-6.41,137.7,-644.2,19.2,5.9,-15.5,-0.0,X0,OK,4.0,    
101.50,0.783,1610.4,80.0,348.7,8.19,0.48,-6.02,138.2,-663.6,18.4,5.8,-15.5,-0.0,X0,OK,4.0,    
102.00,0.766,1579.0,88.5,343.1,8.16,0.49,-5.62,138.7,-686.8,17.3,5.6,-16.7,-0.0,X0,OK,4.0,    
102.50,0.749,1547.2,96.4,337.2,8.10,0.51,-5.24,139.1,-711.6,16.3,5.4,-17.8,-0.0,X0,OK,4.0,    
103.00,0.732,1515.3,103.4,331.2,8.10,0.52,-4.88,138.7,-744.3,15.3,5.3,-18.7,-0.0,X0,OK,4.0,    
103.50,0.715,1483.5,109.7,324.8,8.17,0.53,-4.52,137.8,-793.2,14.2,5.2,-19.9,-0.0,X0,OK,4.0,    
104.00,0.698,1451.7,115.2,318.0,8.15,0.54,-4.19,137.4,-839.2,13.0,5.0,-21.0,-0.0,X0,OK,4.0,    
104.50,0.681,1419.7,119.9,310.8,8.06,0.54,-3.87,138.4,-889.3,11.6,4.6,-22.3,-0.0,X0,OK,4.0,    
105.00,0.664,1387.3,123.6,303.2,8.00,0.54,-3.58,139.9,-925.4,10.1,4.4,-23.2,-0.0,X0,OK,4.0,    
105.50,0.647,1354.5,126.4,295.4,8.04,0.53,-3.31,140.4,-960.5,8.6,4.2,-23.5,-0.0,X0,OK,4.0,    
106.00,0.629,1321.6,128.3,287.2,8.12,0.53,-3.07,140.0,-1004.8,7.0,4.0,-23.9,-0.0,X0,OK,4.0,    
106.50,0.612,1288.8,129.1,278.6,8.22,0.51,-2.87,139.7,-1064.0,5.5,3.9,-24.4,-0.0,X0,OK,4.0,    
107.00,0.594,1256.1,128.8,269.4,8.35,0.48,-2.71,139.7,-1142.6,4.4,4.0,-22.1,0.0,X0,OK,4.0,    
107.50,0.576,1223.4,127.5,259.9,8.49,0.45,-2.59,140.1,-1139.4,5.1,4.7,-16.9,0.0,X0,OK,4.0,    
108.00,0.559,1190.5,125.7,250.6,8.43,0.42,-2.49,140.8,-1090.3,5.5,5.0,-11.8,0.0,X0,OK,4.0,    
108.50,0.541,1157.5,123.4,241.7,8.17,0.40,-2.41,141.3,-1037.3,5.1,4.7,-5.8,0.0,X0,OK,4.0,    
109.00,0.523,1124.4,120.8,233.2,7.84,0.38,-2.34,141.2,-987.2,4.7,4.4,0.1,-0.0,XX,OK,4.0,    
109.50,0.505,1091.4,118.2,225.1,7.81,0.37,-2.26,140.2,-965.8,4.2,4.5,4.4,-0.0,XX,(OK),3.0,AA LULX    
110.00,0.487,1058.7,115.8,217.1,8.11,0.36,-2.17,139.5,-957.9,3.4,4.9,4.7,-0.1,IM,(OK),3.0,AA LULX    
110.50,0.470,1026.0,113.6,209.2,8.49,0.35,-2.07,139.7,-928.2,2.5,5.3,0.6,-0.1,IM,(OK),3.0,AA LULX LULIM   
111.00,0.452,993.3,111.1,201.6,8.44,0.34,-1.97,139.6,-905.2,2.3,5.2,-4.1,-0.0,IM,(OK),3.0,AA LULX LULIM   
111.50,0.434,960.7,108.4,194.1,8.16,0.33,-1.88,139.4,-894.3,2.8,5.1,-6.9,-0.0,IM,(OK),3.0,AA LULX LULIM   
112.00,0.417,928.2,105.4,186.7,8.07,0.33,-1.81,139.3,-888.6,3.4,5.2,-7.4,0.0,IM,(OK),3.0,AA LULX LULIM   
112.50,0.399,895.6,102.1,179.3,8.02,0.32,-1.74,139.4,-877.1,4.0,5.2,-5.9,0.0,IM,(OK),3.0,AA LULX LULIM   
113.00,0.381,863.1,98.6,172.0,7.96,0.32,-1.69,139.7,-862.6,4.2,5.2,-3.6,0.0,IM,(OK),3.0,AA LULX LULIM   
113.50,0.364,830.5,95.1,164.9,7.67,0.32,-1.63,139.5,-849.3,4.0,5.0,-2.0,0.0,IM,(OK),3.0,AA LULX LULIM   
114.00,0.346,798.0,91.5,157.9,7.61,0.33,-1.58,139.2,-843.7,3.6,4.8,-1.1,0.0,IM,(OK),3.0,AA LULX LULIM   
114.50,0.328,765.5,87.9,150.9,7.53,0.33,-1.52,139.5,-838.9,3.3,4.7,-0.0,0.0,IM,(OK),3.0,AA LULX LULIM   
115.00,0.311,732.8,84.2,143.9,7.89,0.34,-1.46,140.0,-839.0,3.0,4.9,0.7,-0.0,IM,(OK),3.0,AA LULX LULIM   
115.50,0.293,700.1,80.5,136.9,8.22,0.34,-1.39,140.3,-834.0,3.2,5.4,1.9,-0.0,IM,(OK),3.0,AA LULX LULIM   
116.00,0.275,667.4,77.0,130.0,8.45,0.35,-1.31,139.4,-813.8,3.1,5.6,2.2,-0.0,IM,(OK),3.0,AA LULX LULIM   
116.50,0.257,635.0,73.5,123.3,8.31,0.37,-1.21,138.7,-808.1,2.9,5.4,0.6,-0.0,IM,(OK),3.0,AA LULX LULIM   
117.00,0.240,602.6,70.1,116.6,7.77,0.39,-1.09,139.2,-802.1,2.7,5.0,-1.5,-0.0,IC,(OK),3.0,AA LULX LULIM   
117.50,0.222,569.9,66.5,109.9,7.47,0.41,-0.97,140.3,-808.2,2.7,4.7,-3.0,-0.0,IC,(OK),3.0,AA LULX LULIM  LULIC 
118.00,0.204,537.1,62.7,103.1,7.68,0.43,-0.85,140.9,-812.4,2.8,4.9,-3.7,0.0,IC,(OK),3.0,AA LULX LULIM  (H)LULIC 
118.50,0.186,504.2,58.9,96.3,8.11,0.46,-0.73,140.7,-809.1,2.7,5.4,-3.9,0.0,IC,(OK),3.0,AA LULX LULIM  (H)LULIC 
119.00,0.169,471.5,54.9,89.7,8.39,0.49,-0.60,139.7,-795.6,2.4,5.8,-4.2,0.0,IC,(OK),3.0,AA LULX LULIM  (H)LULIC 
119.50,0.151,439.1,50.9,83.0,8.36,0.54,-0.47,138.5,-800.2,1.9,5.7,-5.0,0.0,IC,(OK),3.0,AA LULX LULIM  (H)LULIC 
120.00,0.134,406.9,46.6,76.2,8.21,0.57,-0.36,138.0,-834.4,1.6,5.3,-4.9,0.0,IC,(OK),3.0,AA LULX LULIM  (H)LULIC 
120.50,0.116,374.8,42.1,69.1,8.19,0.60,-0.27,139.0,-866.8,1.6,5.2,-3.4,0.0,IC,(OK),3.0,AA LULX LULIM  (H)LULIC 
121.00,0.098,342.3,37.5,61.9,8.34,0.64,-0.16,140.2,-851.9,1.3,5.3,-2.6,-0.0,IC,(OK),3.0,AA LULX LULIM  (H)LULIC 
121.50,0.080,309.7,32.9,54.8,8.22,0.69,-0.05,140.1,-849.8,0.7,5.2,-3.4,-0.0,IC,(OK),3.0,AA LULX LULIM  (H)LULIC 
122.00,0.063,277.2,28.0,47.7,8.32,0.76,0.06,139.8,-876.3,0.3,5.1,-4.3,-0.0,IC,(OK),3.0,AA LULX LULIM  (H)LULIC 
122.50,0.045,244.6,23.0,40.3,8.21,0.83,0.13,140.6,-883.9,0.1,5.1,-5.0,0.0,IC,(OK),3.0,AA LULX LULIM  (H)LULIC 
123.00,0.027,212.0,17.6,32.9,8.45,0.94,0.11,140.4,-895.5,0.5,5.1,-3.8,0.0,AR,(OK),3.0,AA LULX LULIM  HLULIC 
123.50,0.009,179.5,12.2,25.4,8.55,1.09,0.02,140.2,-915.8,0.7,5.1,-2.2,0.0,AR,(OK),3.0,AA LULX LULIM  HLULIC HAR
124.00,-0.008,147.0,6.6,17.7,8.71,1.36,-0.22,140.2,-930.3,0.8,5.2,-0.7,0.0,AR,(OK),3.0,AA LULX LULIM  HLULIC HAR
124.50,-0.026,114.5,1.1,9.9,8.19,2.20,-0.96,140.9,-929.5,0.5,4.9,-0.1,0.0,AR,(OK),3.0,AA LULX LULIM  HLULIC HAR
125.00,-0.044,81.7,-4.4,2.0,7.21,7.75,-165.17,142.4,-970.9,0.2,3.5,-1.0,0.0,AR,(OK),3.0,AA LULX LULIM  HLULIC HAR
125.50,-0.062,48.4,-10.0,-0.8,5.89,-3.89,-178.33,142.5,-907.6,0.1,2.6,-1.4,-0.0,AR,(OK),3.0,AA LULX LULIM  HLULIC HAR
126.00,-0.080,16.2,-15.4,-0.9,1.90,-3.72,-178.95,139.4,-439.5,0.3,0.1,-0.5,-0.0,AR,(OK),3.0,AA LULX LULIM  HLULIC HAR
