#Time,Rho,X,Z,Alt,AoA,GSE,LUE,Vtot,Vy,Gamma,Pitch,Roll,Yaw,Step,Grade,Points,Details
0.00,3.889,7292.6,1024.4,1293.5,10.30,-0.40,-1.02,136.6,-1084.5,5.1,5.8,2.1,0.0,X0,_OK_,5.0,Unicorn
0.50,3.873,7265.2,1014.5,1284.7,10.26,-0.41,-1.07,137.1,-1015.5,5.2,6.1,3.5,0.0,X0,_OK_,5.0,Unicorn
1.00,3.858,7237.7,1004.8,1276.5,10.25,-0.42,-1.11,137.4,-950.7,5.2,6.3,3.8,0.0,X0,_OK_,5.0,Unicorn
1.50,3.842,7210.1,995.2,1268.8,10.22,-0.42,-1.16,137.7,-881.2,5.3,6.5,3.8,0.0,X0,_OK_,5.0,Unicorn
2.00,3.827,7182.3,985.8,1261.7,10.18,-0.43,-1.20,137.7,-818.7,5.2,6.7,4.6,0.0,X0,_OK_,5.0,Unicorn
2.50,3.811,7154.6,976.5,1255.1,10.18,-0.43,-1.25,137.4,-761.8,5.0,6.9,5.6,-0.0,X0,_OK_,5.0,Unicorn
3.00,3.796,7126.8,967.5,1249.0,10.18,-0.43,-1.29,137.1,-719.7,4.7,7.0,6.2,-0.0,X0,_OK_,5.0,Unicorn
3.50,3.780,7099.1,958.7,1243.2,10.13,-0.44,-1.33,136.7,-675.8,4.3,7.1,6.1,-0.0,X0,_OK_,5.0,Unicorn
4.00,3.765,7071.4,950.2,1237.7,10.05,-0.44,-1.37,136.3,-638.0,3.8,7.2,6.4,-0.0,X0,_OK_,5.0,Unicorn
4.50,3.750,7043.7,942.0,1232.5,9.96,-0.44,-1.40,135.9,-602.9,3.2,7.2,6.5,-0.0,X0,_OK_,5.0,Unicorn
5.00,3.734,7016.1,934.1,1227.6,9.84,-0.44,-1.44,135.3,-576.2,2.7,7.3,6.2,0.0,X0,_OK_,5.0,Unicorn
5.50,3.719,6988.6,926.4,1222.9,9.87,-0.44,-1.47,134.8,-571.4,2.1,7.3,5.7,0.0,X0,_OK_,5.0,Unicorn
6.00,3.704,6961.1,919.0,1218.0,9.93,-0.44,-1.50,134.3,-584.2,1.7,7.4,5.4,0.0,X0,_OK_,5.0,Unicorn
6.50,3.689,6933.7,911.9,1213.2,10.02,-0.44,-1.53,133.8,-581.8,1.3,7.6,4.2,0.0,X0,_OK_,5.0,Unicorn
7.00,3.673,6906.5,904.9,1208.4,10.06,-0.44,-1.55,133.2,-569.2,0.9,7.7,2.7,0.0,X0,_OK_,5.0,Unicorn
7.50,3.658,6879.3,898.1,1203.6,10.04,-0.44,-1.58,132.7,-567.4,0.7,7.8,2.1,0.0,X0,_OK_,5.0,Unicorn
8.00,3.643,6852.2,891.5,1198.9,10.09,-0.44,-1.61,132.3,-573.2,0.6,7.8,1.1,0.0,X0,_OK_,5.0,Unicorn
8.50,3.629,6825.3,884.9,1194.1,10.14,-0.44,-1.63,131.8,-573.0,0.7,7.9,0.2,0.0,X0,_OK_,5.0,Unicorn
9.00,3.614,6798.4,878.4,1189.3,10.17,-0.44,-1.66,131.3,-589.1,0.8,7.9,0.6,0.0,X0,_OK_,5.0,Unicorn
9.50,3.599,6771.7,872.0,1184.3,10.25,-0.44,-1.68,130.8,-605.0,1.0,8.0,1.9,0.0,X0,_OK_,5.0,Unicorn
10.00,3.584,6745.0,865.7,1179.2,10.45,-0.44,-1.70,130.3,-631.7,1.2,8.0,3.4,-0.0,X0,_OK_,5.0,Unicorn
10.50,3.570,6718.5,859.6,1173.8,10.45,-0.44,-1.73,129.6,-655.8,1.2,7.9,4.3,-0.0,X0,_OK_,5.0,Unicorn
11.00,3.555,6692.2,853.7,1168.2,10.43,-0.44,-1.75,129.0,-689.7,1.1,7.7,4.2,-0.0,X0,_OK_,5.0,Unicorn
11.50,3.541,6665.9,847.9,1162.3,10.30,-0.44,-1.77,128.5,-730.4,0.9,7.4,3.4,-0.0,X0,_OK_,5.0,Unicorn
12.00,3.526,6639.8,842.2,1156.0,10.28,-0.45,-1.79,128.1,-787.6,0.7,7.1,2.1,-0.0,X0,_OK_,5.0,Unicorn
12.50,3.512,6613.8,836.6,1149.2,10.27,-0.45,-1.81,127.7,-852.9,0.4,6.8,0.9,0.0,X0,_OK_,5.0,Unicorn
13.00,3.498,6587.9,831.1,1141.8,10.33,-0.46,-1.83,127.4,-919.6,0.1,6.5,0.5,0.0,X0,_OK_,5.0,Unicorn
13.50,3.483,6562.0,825.6,1133.9,10.32,-0.47,-1.84,127.0,-985.9,0.2,6.2,1.4,0.0,X0,_OK_,5.0,Unicorn
14.00,3.469,6536.3,820.3,1125.4,10.41,-0.48,-1.86,126.8,-1059.9,0.4,5.8,2.3,0.0,X0,_OK_,5.0,Unicorn
14.50,3.455,6510.6,815.0,1116.2,10.46,-0.49,-1.88,126.6,-1139.0,0.6,5.5,3.5,0.0,X0,_OK_,5.0,Unicorn
15.00,3.441,6484.9,809.8,1106.4,10.41,-0.51,-1.90,126.5,-1216.0,0.8,5.0,5.1,-0.0,X0,_OK_,5.0,Unicorn
15.50,3.427,6459.2,804.9,1096.0,10.35,-0.52,-1.91,126.7,-1290.6,1.0,4.6,5.6,-0.0,X0,_OK_,5.0,Unicorn
16.00,3.413,6433.4,800.1,1085.0,10.23,-0.54,-1.93,127.3,-1356.8,1.3,4.3,5.2,-0.0,X0,_OK_,5.0,Unicorn
16.50,3.399,6407.4,795.5,1073.4,10.29,-0.56,-1.94,128.0,-1411.0,1.7,4.1,5.2,-0.0,X0,_OK_,5.0,Unicorn
17.00,3.384,6381.3,791.0,1061.5,10.27,-0.58,-1.95,128.6,-1453.2,2.1,3.9,5.9,-0.0,X0,_OK_,5.0,Unicorn
17.50,3.370,6354.9,786.8,1049.2,10.26,-0.60,-1.96,129.3,-1486.0,2.5,3.8,6.0,-0.0,X0,_OK_,5.0,Unicorn
18.00,3.355,6328.4,782.7,1036.8,10.34,-0.63,-1.96,129.9,-1507.9,2.9,3.7,4.9,-0.0,X0,_OK_,5.0,Unicorn
18.50,3.341,6301.6,778.9,1024.2,10.29,-0.65,-1.97,130.6,-1516.5,3.3,3.6,3.0,0.0,X0,_OK_,5.0,Unicorn
19.00,3.326,6274.7,775.1,1011.5,10.29,-0.67,-1.97,131.2,-1524.7,3.5,3.5,1.4,0.0,X0,_OK_,5.0,Unicorn
19.50,3.311,6247.7,771.4,998.7,10.39,-0.69,-1.97,131.9,-1526.6,3.7,3.4,1.2,0.0,X0,_OK_,5.0,Unicorn
20.00,3.297,6220.4,767.8,986.1,10.25,-0.72,-1.97,132.4,-1513.6,3.8,3.4,2.6,0.0,X0,_OK_,5.0,Unicorn
20.50,3.282,6193.0,764.3,973.5,10.15,-0.74,-1.97,132.8,-1497.9,3.8,3.4,4.0,-0.0,X0,_OK_,5.0,Unicorn
21.00,3.267,6165.5,761.0,961.1,9.97,-0.76,-1.97,133.4,-1480.1,3.9,3.4,5.3,-0.0,X0,_OK_,5.0,Unicorn
21.50,3.252,6137.8,757.9,948.8,9.93,-0.79,-1.97,133.9,-1475.4,4.0,3.4,6.9,-0.0,X0,_OK_,5.0,Unicorn
22.00,3.237,6110.0,755.1,936.6,9.97,-0.81,-1.96,134.3,-1463.0,4.4,3.5,6.7,-0.0,X0,_OK_,5.0,Unicorn
22.50,3.221,6082.0,752.5,924.5,10.02,-0.83,-1.96,134.7,-1437.3,4.9,3.7,4.9,-0.0,X0,_OK_,5.0,Unicorn
23.00,3.206,6053.9,750.0,912.6,9.92,-0.85,-1.94,135.1,-1401.3,5.5,3.9,3.5,-0.0,X0,_OK_,5.0,Unicorn
23.50,3.191,6025.7,747.7,901.1,9.76,-0.87,-1.93,135.6,-1364.0,6.1,4.1,2.9,0.0,X0,_OK_,5.0,Unicorn
24.00,3.176,5997.3,745.5,889.9,9.67,-0.89,-1.92,136.0,-1328.6,6.5,4.3,3.4,0.0,X0,_OK_,5.0,Unicorn
24.50,3.160,5968.8,743.5,879.0,9.75,-0.91,-1.90,136.6,-1290.3,6.9,4.6,5.0,-0.0,X0,_OK_,5.0,Unicorn
25.00,3.145,5940.1,741.7,868.4,9.79,-0.93,-1.89,137.0,-1241.9,7.1,5.1,6.6,-0.0,X0,_OK_,5.0,Unicorn
25.50,3.129,5911.3,740.3,858.3,9.95,-0.95,-1.86,137.1,-1180.1,7.3,5.5,7.2,-0.0,X0,_OK_,5.0,Unicorn
26.00,3.114,5882.5,739.1,848.7,10.17,-0.97,-1.84,136.9,-1121.7,7.6,5.9,7.0,-0.0,X0,_OK_,5.0,Unicorn
26.50,3.098,5853.8,738.3,839.6,10.25,-0.98,-1.81,136.7,-1058.2,8.0,6.2,6.2,-0.0,X0,_OK_,5.0,Unicorn
27.00,3.083,5825.1,737.7,831.0,10.51,-0.99,-1.78,136.4,-996.2,8.4,6.3,5.3,-0.0,X0,_OK_,5.0,Unicorn
27.50,3.067,5796.5,737.3,823.0,10.44,-1.01,-1.75,136.0,-941.0,8.8,6.4,4.5,-0.0,X0,_OK_,5.0,Unicorn
28.00,3.052,5767.9,737.1,815.4,10.16,-1.02,-1.72,136.0,-881.7,9.3,6.4,4.0,-0.0,X0,_OK_,5.0,Unicorn
28.50,3.037,5739.3,737.1,808.2,9.93,-1.03,-1.68,136.2,-827.8,9.8,6.4,3.8,-0.0,X0,_OK_,5.0,Unicorn
29.00,3.021,5710.7,737.2,801.5,9.81,-1.03,-1.64,136.4,-781.6,10.3,6.6,3.7,0.0,X0,_OK_,5.0,Unicorn
29.50,3.006,5682.0,737.6,795.2,9.94,-1.04,-1.60,136.4,-737.2,10.7,6.8,3.9,0.0,X0,_OK_,5.0,Unicorn
30.00,2.991,5653.3,738.1,789.3,10.02,-1.05,-1.55,136.5,-678.3,11.0,7.2,4.2,0.0,X0,_OK_,5.0,Unicorn
30.50,2.975,5624.5,738.9,783.9,10.03,-1.05,-1.51,136.3,-602.2,11.3,7.5,4.8,-0.0,X0,_OK_,5.0,Unicorn
31.00,2.960,5595.9,739.9,779.1,10.01,-1.05,-1.46,136.1,-543.5,11.6,7.8,5.7,-0.0,X0,_OK_,5.0,Unicorn
31.50,2.945,5567.3,741.1,774.8,10.02,-1.06,-1.41,136.0,-486.6,11.8,8.1,6.2,-0.0,X0,_OK_,5.0,Unicorn
32.00,2.930,5538.7,742.6,771.0,10.25,-1.06,-1.35,135.9,-431.4,12.1,8.4,5.3,-0.0,X0,_OK_,5.0,Unicorn
32.50,2.915,5510.1,744.3,767.7,10.28,-1.05,-1.29,135.7,-368.7,12.3,8.8,2.2,-0.0,X0,_OK_,5.0,Unicorn
33.00,2.900,5481.6,746.1,764.9,10.18,-1.05,-1.23,135.4,-294.3,12.4,9.0,-0.2,0.0,X0,_OK_,5.0,Unicorn
33.50,2.884,5453.2,747.9,762.7,10.27,-1.04,-1.17,135.2,-234.1,12.4,9.1,-0.2,0.0,X0,_OK_,5.0,Unicorn
34.00,2.869,5424.8,749.8,760.9,10.37,-1.04,-1.11,134.9,-184.2,12.3,9.3,1.4,-0.0,X0,_OK_,5.0,Unicorn
34.50,2.854,5396.6,751.7,759.6,10.39,-1.03,-1.05,134.5,-143.5,12.2,9.4,3.4,-0.0,X0,_OK_,5.0,Unicorn
35.00,2.840,5368.4,753.8,758.5,10.30,-1.02,-0.98,133.8,-120.7,12.2,9.6,4.3,-0.0,X0,_OK_,5.0,Unicorn
35.50,2.825,5340.5,756.0,757.6,10.24,-1.01,-0.92,133.0,-99.1,12.4,9.6,3.9,-0.0,X0,_OK_,5.0,Unicorn
36.00,2.810,5312.8,758.4,756.8,10.10,-1.00,-0.85,132.1,-94.2,12.7,9.6,3.1,-0.0,X0,_OK_,5.0,Unicorn
36.50,2.796,5285.4,760.8,755.9,9.94,-0.99,-0.78,131.2,-104.9,13.1,9.5,2.3,-0.0,X0,_OK_,5.0,Unicorn
37.00,2.781,5258.2,763.3,755.0,9.81,-0.98,-0.71,130.4,-133.8,13.5,9.4,1.5,-0.0,X0,_OK_,5.0,Unicorn
37.50,2.767,5231.2,765.9,753.7,10.04,-0.97,-0.64,129.6,-175.7,13.9,9.5,1.3,0.0,X0,_OK_,5.0,Unicorn
38.00,2.753,5204.3,768.5,752.1,10.16,-0.96,-0.57,129.1,-193.4,14.2,9.5,2.0,0.0,X0,_OK_,5.0,Unicorn
38.50,2.739,5177.6,771.2,750.4,10.44,-0.96,-0.49,128.7,-232.7,14.5,9.5,2.8,0.0,X0,_OK_,5.0,Unicorn
39.00,2.725,5151.0,774.0,748.3,10.64,-0.95,-0.42,128.3,-269.2,14.6,9.4,3.2,-0.0,X0,_OK_,5.0,Unicorn
39.50,2.711,5124.5,776.9,745.9,10.67,-0.95,-0.34,127.8,-305.9,14.8,9.3,3.4,-0.0,X0,_OK_,5.0,Unicorn
40.00,2.697,5098.2,779.9,743.2,10.60,-0.94,-0.26,127.4,-342.9,15.0,9.0,3.5,-0.0,X0,_OK_,5.0,Unicorn
40.50,2.684,5072.0,783.1,740.2,10.38,-0.94,-0.18,126.9,-391.1,15.2,8.6,3.5,-0.0,X0,_OK_,5.0,Unicorn
41.00,2.670,5045.9,786.4,736.6,10.02,-0.94,-0.09,126.5,-460.9,15.3,8.2,3.6,-0.0,X0,_OK_,5.0,Unicorn
41.50,2.656,5019.9,789.8,732.5,10.06,-0.94,-0.01,126.5,-529.3,15.4,7.8,3.7,-0.0,X0,_OK_,5.0,Unicorn
42.00,2.643,4993.9,793.4,727.8,10.01,-0.95,0.08,127.0,-591.9,15.6,7.6,3.7,-0.0,X0,_OK_,5.0,Unicorn
42.50,2.629,4967.7,797.2,722.7,10.25,-0.95,0.17,127.5,-640.7,15.7,7.5,3.7,-0.0,X0,_OK_,5.0,Unicorn
43.00,2.616,4941.5,801.1,717.2,10.45,-0.96,0.27,128.0,-683.8,15.9,7.5,3.5,-0.0,X0,_OK_,5.0,Unicorn
43.50,2.602,4915.1,805.1,711.4,10.73,-0.97,0.36,128.4,-707.1,16.1,7.5,3.3,-0.0,X0,_OK_,5.0,Unicorn
44.00,2.588,4888.7,809.3,705.5,10.59,-0.97,0.46,128.8,-711.1,16.2,7.3,3.2,-0.0,X0,_OK_,5.0,Unicorn
44.50,2.575,4862.2,813.6,699.5,10.35,-0.98,0.57,129.3,-725.5,16.4,7.1,2.6,-0.0,X0,_OK_,5.0,Unicorn
45.00,2.561,4835.5,818.1,693.4,10.24,-0.99,0.67,129.8,-734.4,16.5,7.0,-1.3,-0.0,X0,_OK_,5.0,Unicorn
45.50,2.547,4808.8,822.5,687.3,10.09,-1.00,0.78,130.3,-739.9,16.4,7.1,-7.4,0.0,X0,_OK_,5.0,Unicorn
46.00,2.533,4781.8,826.6,681.0,9.94,-1.01,0.88,130.7,-755.3,16.1,7.1,-11.2,0.0,X0,_OK_,5.0,Unicorn
46.50,2.519,4754.8,830.4,674.7,9.86,-1.02,0.98,131.2,-765.1,15.3,7.2,-10.9,0.0,X0,_OK_,5.0,Unicorn
47.00,2.505,4727.5,834.0,668.3,10.11,-1.03,1.08,131.6,-766.3,14.3,7.3,-8.7,0.0,X0,_OK_,5.0,Unicorn
47.50,2.491,4700.2,837.2,661.9,10.30,-1.04,1.18,131.9,-760.9,13.0,7.4,-7.4,-0.0,X0,_OK_,5.0,Unicorn
48.00,2.476,4672.7,840.2,655.6,10.32,-1.05,1.28,132.2,-756.1,11.7,7.5,-7.8,-0.0,X0,_OK_,5.0,Unicorn
48.50,2.462,4645.2,842.9,649.4,10.38,-1.06,1.37,132.4,-743.1,10.5,7.6,-10.0,-0.0,X0,_OK_,5.0,Unicorn
49.00,2.447,4617.5,845.1,643.2,10.39,-1.07,1.46,132.7,-727.1,9.5,7.7,-13.3,-0.0,X0,_OK_,5.0,Unicorn
49.50,2.433,4589.8,846.7,637.2,10.19,-1.07,1.55,132.8,-711.4,8.5,7.7,-16.6,0.0,X0,_OK_,5.0,Unicorn
50.00,2.418,4562.0,847.6,631.3,10.04,-1.08,1.62,133.0,-704.2,7.5,7.6,-19.2,0.0,X0,_OK_,5.0,Unicorn
50.50,2.404,4534.2,847.8,625.4,9.83,-1.09,1.69,133.2,-709.4,6.4,7.5,-20.3,0.0,X0,_OK_,5.0,Unicorn
51.00,2.389,4506.3,847.1,619.5,9.84,-1.10,1.75,133.4,-719.8,5.2,7.3,-19.8,0.0,X0,_OK_,5.0,Unicorn
51.50,2.374,4478.3,845.7,613.4,10.04,-1.11,1.80,133.7,-733.4,3.8,7.3,-18.6,0.0,X0,_OK_,5.0,Unicorn
52.00,2.359,4450.4,843.5,607.3,10.38,-1.12,1.84,133.9,-742.5,2.3,7.3,-17.9,0.0,X0,_OK_,5.0,Unicorn
52.50,2.344,4422.4,840.5,601.2,10.17,-1.13,1.87,134.0,-713.9,0.9,7.2,-18.0,0.0,X0,_OK_,5.0,Unicorn
53.00,2.328,4394.5,836.7,595.3,9.99,-1.13,1.89,134.1,-698.2,0.5,7.2,-15.4,0.0,X0,_OK_,5.0,Unicorn
53.50,2.313,4366.7,832.3,589.5,10.21,-1.14,1.90,134.0,-696.0,1.6,7.3,-9.1,-0.0,X0,_OK_,5.0,Unicorn
54.00,2.298,4339.0,827.5,583.8,10.25,-1.15,1.91,133.9,-666.3,2.5,7.5,-6.1,-0.0,X0,_OK_,5.0,Unicorn
54.50,2.283,4311.3,822.3,578.4,10.37,-1.16,1.91,133.7,-637.5,3.1,7.6,-8.5,-0.0,X0,_OK_,5.0,Unicorn
55.00,2.268,4283.8,816.6,573.2,10.25,-1.16,1.91,133.5,-619.6,3.5,7.7,-12.0,-0.0,X0,_OK_,5.0,Unicorn
55.50,2.252,4256.4,810.4,568.0,10.15,-1.17,1.90,133.1,-619.6,4.0,7.7,-13.7,0.0,X0,_OK_,5.0,Unicorn
56.00,2.237,4229.3,803.7,562.8,10.03,-1.17,1.88,132.9,-626.0,4.6,7.6,-11.9,0.0,X0,_OK_,5.0,Unicorn
56.50,2.222,4202.2,796.4,557.6,10.08,-1.18,1.85,133.3,-612.5,5.2,7.6,-7.5,-0.0,X0,_OK_,5.0,Unicorn
57.00,2.207,4175.0,788.9,552.7,10.04,-1.18,1.82,133.9,-578.9,5.8,7.7,-3.9,-0.0,X0,_OK_,5.0,Unicorn
57.50,2.192,4147.8,781.1,548.0,9.93,-1.19,1.79,134.3,-537.5,6.3,8.0,-3.0,-0.0,X0,_OK_,5.0,Unicorn
58.00,2.177,4120.5,773.1,543.7,10.03,-1.19,1.75,134.0,-493.4,6.4,8.2,-3.7,-0.0,X0,_OK_,5.0,Unicorn
58.50,2.161,4093.4,764.9,539.7,10.14,-1.19,1.71,133.9,-458.9,6.4,8.5,-3.5,-0.0,X0,_OK_,5.0,Unicorn
59.00,2.146,4066.4,756.5,536.1,10.39,-1.19,1.67,134.2,-406.8,6.3,8.8,-3.4,-0.0,X0,_OK_,5.0,Unicorn
59.50,2.131,4039.2,747.9,532.9,10.56,-1.19,1.62,134.4,-352.0,6.2,9.1,-3.5,-0.0,X0,_OK_,5.0,Unicorn
60.00,2.116,4012.2,739.1,530.2,10.55,-1.18,1.57,134.1,-308.5,6.0,9.3,-1.8,-0.0,X0,_OK_,5.0,Unicorn
60.50,2.100,3985.2,730.3,527.8,10.40,-1.18,1.51,133.8,-266.4,5.9,9.4,0.6,-0.0,X0,_OK_,5.0,Unicorn
61.00,2.085,3958.3,721.5,525.7,10.24,-1.17,1.46,133.5,-232.4,5.7,9.5,1.4,-0.0,X0,_OK_,5.0,Unicorn
61.50,2.070,3931.5,712.7,523.8,10.24,-1.16,1.41,133.3,-218.1,5.5,9.5,1.0,-0.0,X0,_OK_,5.0,Unicorn
62.00,2.055,3904.7,704.0,522.0,10.11,-1.15,1.35,133.1,-213.4,5.2,9.7,0.6,0.0,X0,_OK_,5.0,Unicorn
62.50,2.040,3878.0,695.3,520.3,10.02,-1.15,1.30,132.8,-194.1,5.0,9.8,0.2,0.0,X0,_OK_,5.0,Unicorn
63.00,2.025,3851.3,686.6,518.7,10.11,-1.14,1.24,132.5,-192.2,4.8,10.0,-0.0,0.0,X0,_OK_,5.0,Unicorn
63.50,2.010,3824.7,677.9,517.2,10.21,-1.13,1.18,132.1,-173.3,4.8,10.2,-0.0,0.0,X0,_OK_,5.0,Unicorn
64.00,1.995,3798.2,669.3,515.8,10.39,-1.11,1.13,131.8,-167.5,4.7,10.3,0.0,0.0,X0,_OK_,5.0,Unicorn
64.50,1.980,3771.8,660.7,514.4,10.46,-1.10,1.07,131.6,-156.8,4.7,10.5,0.4,0.0,X0,_OK_,5.0,Unicorn
65.00,1.965,3745.4,652.1,513.2,10.55,-1.09,1.01,131.4,-135.3,4.8,10.7,0.9,0.0,X0,_OK_,5.0,Unicorn
65.50,1.951,3719.0,643.6,512.2,10.59,-1.08,0.95,131.1,-115.4,4.9,10.8,1.0,0.0,X0,_OK_,5.0,Unicorn
66.00,1.936,3692.8,635.2,511.2,10.84,-1.06,0.90,130.8,-109.1,4.9,10.9,1.0,0.0,X0,_OK_,5.0,Unicorn
66.50,1.921,3666.5,626.8,510.4,10.77,-1.05,0.84,130.6,-98.1,5.0,10.9,1.0,0.0,X0,_OK_,5.0,Unicorn
67.00,1.906,3640.3,618.4,509.6,10.64,-1.04,0.78,130.4,-76.1,4.9,10.8,1.2,0.0,X0,_OK_,5.0,Unicorn
67.50,1.892,3614.2,610.1,509.1,10.59,-1.02,0.72,130.3,-55.2,4.8,10.7,1.5,0.0,X0,_OK_,5.0,Unicorn
68.00,1.877,3588.0,601.8,508.6,10.29,-1.00,0.66,130.2,-52.5,4.7,10.7,1.4,0.0,X0,_OK_,5.0,Unicorn
68.50,1.862,3561.9,593.6,508.2,10.22,-0.99,0.60,130.0,-44.0,4.5,10.7,1.1,0.0,X0,_OK_,5.0,Unicorn
69.00,1.848,3535.9,585.5,507.9,10.29,-0.97,0.54,129.6,-35.0,4.4,10.6,0.8,0.0,X0,_OK_,5.0,Unicorn
69.50,1.833,3509.9,577.4,507.6,10.20,-0.95,0.48,129.4,-39.6,4.1,10.6,0.9,0.0,X0,_OK_,5.0,Unicorn
70.00,1.819,3483.9,569.4,507.3,10.23,-0.93,0.42,129.4,-39.4,3.9,10.6,1.4,0.0,X0,_OK_,5.0,Unicorn
70.50,1.804,3458.0,561.4,506.9,10.18,-0.91,0.36,129.3,-47.9,3.7,10.6,1.8,0.0,X0,_OK_,5.0,Unicorn
71.00,1.790,3432.0,553.5,506.5,10.27,-0.90,0.31,129.2,-63.3,3.7,10.7,3.5,0.0,X0,_OK_,5.0,Unicorn
71.50,1.775,3406.0,545.8,505.9,10.40,-0.88,0.25,129.0,-69.5,3.7,10.8,6.8,-0.0,X0,_OK_,5.0,Unicorn
72.00,1.761,3380.1,538.4,505.3,10.46,-0.86,0.20,128.9,-90.1,3.5,10.8,9.0,-0.0,X0,_OK_,5.0,Unicorn
72.50,1.746,3354.0,531.3,504.4,10.59,-0.84,0.15,128.8,-115.3,3.2,10.8,9.1,-0.0,X0,_OK_,5.0,Unicorn
73.00,1.732,3328.0,524.4,503.4,10.65,-0.83,0.10,128.7,-129.5,2.6,10.7,7.8,-0.0,X0,_OK_,5.0,Unicorn
73.50,1.717,3301.9,517.9,502.2,10.86,-0.81,0.06,128.5,-152.7,1.9,10.5,6.1,-0.0,X0,_OK_,5.0,Unicorn
74.00,1.703,3275.8,511.5,500.8,10.96,-0.80,0.03,128.4,-184.9,1.3,10.1,4.7,-0.0,X0,_OK_,5.0,Unicorn
74.50,1.688,3249.7,505.3,499.1,10.73,-0.78,-0.01,128.5,-218.7,0.6,9.7,3.8,0.0,X0,_OK_,5.0,Unicorn
75.00,1.674,3223.5,499.3,497.2,10.48,-0.77,-0.04,128.8,-234.0,0.1,9.3,3.5,0.0,X0,_OK_,5.0,Unicorn
75.50,1.659,3197.2,493.5,495.2,10.25,-0.76,-0.07,129.2,-247.0,0.2,8.9,4.3,0.0,X0,_OK_,5.0,Unicorn
76.00,1.645,3170.7,487.8,493.1,10.08,-0.75,-0.10,129.6,-259.0,0.5,8.6,5.2,0.0,X0,_OK_,5.0,Unicorn
76.50,1.630,3144.1,482.3,491.0,10.05,-0.73,-0.12,130.0,-263.2,0.8,8.5,5.8,-0.0,X0,_OK_,5.0,Unicorn
77.00,1.615,3117.4,477.1,488.7,9.98,-0.72,-0.14,130.4,-270.5,1.1,8.5,6.3,-0.0,X0,_OK_,5.0,Unicorn
77.50,1.601,3090.5,472.1,486.5,10.02,-0.71,-0.15,131.0,-274.7,1.4,8.5,6.4,-0.0,X0,_OK_,5.0,Unicorn
78.00,1.586,3063.4,467.3,484.2,10.23,-0.70,-0.16,131.6,-272.7,1.8,8.7,6.3,-0.0,X0,_OK_,5.0,Unicorn
78.50,1.571,3036.1,462.8,481.9,10.21,-0.69,-0.16,132.1,-267.8,2.2,9.0,6.0,-0.0,X0,_OK_,5.0,Unicorn
79.00,1.556,3008.6,458.5,479.7,10.18,-0.67,-0.16,132.6,-248.8,2.6,9.3,5.7,-0.0,X0,_OK_,5.0,Unicorn
79.50,1.541,2981.1,454.4,477.8,10.23,-0.66,-0.16,133.0,-211.8,2.9,9.5,5.6,-0.0,X0,_OK_,5.0,Unicorn
80.00,1.526,2953.3,450.6,476.2,10.11,-0.64,-0.15,133.7,-174.9,3.3,9.6,5.7,-0.0,X0,_OK_,5.0,Unicorn
80.50,1.510,2925.3,447.0,474.9,10.14,-0.62,-0.13,134.5,-126.4,3.7,9.9,5.7,-0.0,X0,_OK_,5.0,Unicorn
81.00,1.495,2897.2,443.6,474.1,10.23,-0.60,-0.11,134.9,-77.4,4.2,10.3,5.6,-0.0,X0,_OK_,5.0,Unicorn
81.50,1.480,2868.9,440.4,473.7,10.35,-0.57,-0.09,135.2,-6.7,4.7,10.6,5.3,-0.0,X0,_OK_,5.0,Unicorn
82.00,1.464,2840.6,437.4,473.9,10.34,-0.54,-0.05,135.3,72.1,5.2,11.1,5.1,-0.0,X0,_OK_,5.0,Unicorn
82.50,1.449,2812.2,434.7,474.9,10.74,-0.50,-0.02,135.3,161.3,5.8,11.4,4.9,0.0,X0,_OK_,5.0,Unicorn
83.00,1.434,2783.9,432.2,476.6,10.66,-0.46,0.03,135.2,250.1,6.2,11.7,4.8,0.0,X0,_OK_,5.0,Unicorn
83.50,1.418,2755.5,429.9,479.0,10.52,-0.41,0.07,135.2,330.2,6.7,11.8,4.8,0.0,X0,_OK_,5.0,Unicorn
84.00,1.403,2727.2,427.9,482.1,10.28,-0.36,0.13,134.9,396.2,7.1,12.0,4.9,0.0,X0,_OK_,5.0,Unicorn
84.50,1.388,2698.9,426.1,485.6,10.46,-0.30,0.19,134.6,457.5,7.4,12.2,5.0,0.0,X0,_OK_,5.0,Unicorn
85.00,1.373,2670.7,424.5,489.6,10.56,-0.24,0.25,134.2,491.6,7.8,12.4,3.7,0.0,X0,_OK_,5.0,Unicorn
85.50,1.358,2642.6,423.0,493.8,10.62,-0.18,0.32,133.6,533.5,8.0,12.7,-2.8,0.0,X0,_OK_,5.0,Unicorn
86.00,1.343,2614.7,421.5,498.4,10.31,-0.11,0.39,133.1,573.8,8.0,13.0,-10.9,0.1,X0,_OK_,5.0,Unicorn
86.50,1.328,2587.0,419.5,503.4,9.83,-0.04,0.45,132.7,602.5,7.5,13.0,-14.7,0.1,X0,_OK_,5.0,Unicorn
87.00,1.313,2559.4,417.1,508.4,9.89,0.03,0.50,132.2,603.5,6.5,12.9,-13.4,0.1,X0,_OK_,5.0,Unicorn
87.50,1.298,2531.9,414.2,513.4,10.23,0.11,0.54,131.6,606.6,5.1,12.9,-9.8,0.0,X0,_OK_,5.0,Unicorn
88.00,1.283,2504.7,411.2,518.5,10.29,0.18,0.58,130.8,613.4,3.6,12.8,-6.3,0.0,X0,_OK_,5.0,Unicorn
88.50,1.268,2477.7,407.9,523.6,10.24,0.26,0.61,129.3,592.1,2.3,12.7,-4.5,-0.0,X0,_OK_,5.0,Unicorn
89.00,1.254,2451.2,404.4,528.3,10.16,0.34,0.64,127.5,537.4,1.2,12.4,-6.3,-0.0,X0,_OK_,5.0,Unicorn
89.50,1.240,2425.2,400.7,532.4,10.27,0.41,0.65,125.6,439.8,0.4,12.0,-11.8,0.0,X0,_OK_,5.0,Unicorn
90.00,1.226,2399.7,396.6,535.6,10.18,0.47,0.66,124.0,313.3,0.2,11.6,-15.9,0.0,X0,_OK_,5.0,Unicorn
90.50,1.212,2374.7,392.0,537.6,10.35,0.53,0.65,122.3,166.3,0.9,11.1,-15.8,0.0,X0,_OK_,5.0,Unicorn
91.00,1.199,2350.1,387.0,538.5,10.43,0.58,0.64,120.8,21.4,1.7,10.5,-12.6,0.0,X0,_OK_,5.0,Unicorn
91.50,1.185,2326.0,381.7,538.0,10.44,0.62,0.61,119.5,-129.9,2.4,9.8,-8.6,0.0,X0,_OK_,5.0,Unicorn
92.00,1.172,2302.3,376.3,536.3,10.36,0.66,0.57,118.2,-291.1,3.1,9.0,-6.4,-0.0,X0,_OK_,5.0,Unicorn
92.50,1.159,2278.9,370.7,533.2,10.54,0.68,0.53,116.8,-471.0,3.7,8.2,-6.0,-0.0,X0,_OK_,5.0,Unicorn
93.00,1.147,2255.9,364.9,528.5,10.48,0.68,0.48,115.9,-666.1,4.1,7.3,-6.6,-0.0,X0,_OK_,5.0,Unicorn
93.50,1.134,2233.2,358.9,522.1,10.34,0.68,0.43,115.5,-858.6,4.4,6.5,-7.5,-0.0,X0,_OK_,5.0,Unicorn
94.00,1.121,2210.6,352.6,514.2,10.48,0.66,0.36,115.7,-1049.8,4.7,5.7,-8.3,0.0,X0,_OK_,5.0,Unicorn
94.50,1.109,2187.9,346.1,504.7,10.64,0.63,0.29,116.3,-1227.0,5.1,5.1,-8.7,0.0,X0,_OK_,5.0,Unicorn
95.00,1.096,2165.3,339.2,493.8,10.88,0.58,0.21,116.8,-1403.6,5.5,4.6,-8.6,0.0,X0,_OK_,5.0,Unicorn
95.50,1.083,2142.6,332.1,481.4,11.12,0.53,0.12,117.0,-1567.8,6.0,4.0,-8.3,0.0,X0,_OK_,5.0,Unicorn
96.00,1.071,2120.1,324.7,467.8,11.19,0.46,0.01,117.6,-1725.3,6.6,3.3,-7.4,0.0,X0,_OK_,5.0,Unicorn
96.50,1.058,2097.3,317.0,452.8,10.90,0.37,-0.10,118.8,-1876.0,7.1,2.6,-5.1,-0.0,X0,_OK_,5.0,Unicorn
97.00,1.045,2074.4,309.1,436.6,10.83,0.28,-0.22,120.2,-2011.3,7.5,1.9,-2.7,-0.0,X0,_OK_,5.0,Unicorn
97.50,1.032,2051.2,301.0,419.3,10.61,0.17,-0.35,121.4,-2139.6,7.7,1.3,-0.6,-0.0,X0,_OK_,5.0,Unicorn
98.00,1.019,2027.8,292.7,401.0,10.49,0.06,-0.48,122.4,-2255.8,7.8,0.8,2.0,-0.0,X0,_OK_,5.0,Unicorn
98.50,1.005,2004.2,284.4,381.7,10.49,-0.07,-0.62,123.5,-2368.9,7.7,0.3,5.7,-0.0,X0,_OK_,5.0,Unicorn
99.00,0.992,1980.3,276.2,361.6,10.63,-0.21,-0.75,125.1,-2466.9,7.4,-0.0,6.6,-0.0,X0,_OK_,5.0,Unicorn
99.50,0.978,1955.9,267.9,340.7,10.67,-0.36,-0.89,127.6,-2538.0,6.7,-0.3,4.8,-0.0,X0,_OK_,5.0,Unicorn
100.00,0.964,1930.7,259.5,319.4,10.47,-0.51,-1.04,130.6,-2567.1,5.8,-0.4,2.0,-0.0,X0,_OK_,5.0,Unicorn
100.50,0.950,1904.9,251.0,298.0,10.35,-0.67,-1.19,133.4,-2568.6,5.0,-0.4,0.5,0.0,X0,_OK_,5.0,Unicorn
101.00,0.935,1878.3,242.4,276.7,10.21,-0.83,-1.34,136.0,-2542.9,4.4,-0.3,3.5,0.0,X0,_OK_,5.0,Unicorn
101.50,0.920,1851.0,233.8,255.7,10.08,-1.00,-1.49,138.5,-2467.5,4.0,0.0,7.6,-0.0,X0,_OK_,5.0,Unicorn
102.00,0.904,1822.9,225.5,235.6,9.66,-1.15,-1.64,140.8,-2362.9,3.6,0.4,9.4,-0.0,X0,_OK_,5.0,Unicorn
102.50,0.888,1794.1,217.3,216.4,9.41,-1.31,-1.79,143.1,-2239.7,2.9,0.9,9.4,-0.0,X0,_OK_,5.0,Unicorn
103.00,0.872,1764.6,209.4,198.2,9.56,-1.46,-1.92,145.4,-2108.6,2.0,1.6,8.7,-0.0,X0,_OK_,5.0,Unicorn
103.50,0.855,1734.5,201.8,181.3,9.71,-1.60,-2.06,147.3,-1954.8,1.1,2.5,9.6,-0.0,X0,_OK_,5.0,Unicorn
104.00,0.838,1703.7,194.5,165.7,9.92,-1.73,-2.18,148.6,-1762.7,0.2,3.6,10.5,-0.0,X0,_OK_,5.0,Unicorn
104.50,0.821,1672.6,187.7,151.9,9.94,-1.84,-2.28,149.3,-1534.9,0.9,4.5,10.2,-0.0,X0,_OK_,5.0,Unicorn
105.00,0.804,1641.2,181.4,140.1,9.62,-1.94,-2.37,149.5,-1298.3,1.9,5.2,9.6,0.0,X0,_OK_,5.0,Unicorn
105.50,0.786,1609.6,175.5,130.1,9.27,-2.02,-2.45,149.9,-1095.3,2.7,5.9,9.3,0.0,X0,_OK_,5.0,Unicorn
106.00,0.769,1577.7,170.2,121.7,9.63,-2.09,-2.51,150.9,-902.2,3.3,6.7,9.6,0.0,X0,_OK_,5.0,Unicorn
106.50,0.751,1545.4,165.3,115.1,10.03,-2.13,-2.56,152.2,-664.2,3.8,7.8,10.1,-0.0,X0,_OK_,5.0,Unicorn
107.00,0.734,1512.7,160.9,110.8,10.45,-2.15,-2.58,153.1,-353.0,4.5,9.0,9.9,-0.0,X0,_OK_,5.0,Unicorn
107.50,0.716,1479.8,157.0,109.2,10.56,-2.14,-2.59,153.7,-9.4,5.3,10.1,6.3,0.0,X0,_OK_,5.0,Unicorn
108.00,0.698,1446.7,153.4,110.6,10.00,-2.09,-2.58,154.1,357.7,5.8,11.0,2.1,0.0,XX,_OK_,5.0,Unicorn
108.50,0.680,1413.5,150.0,115.0,9.82,-2.00,-2.56,154.2,694.5,6.1,11.8,1.4,0.0,XX,--,2.0,_LO_LULX    
109.00,0.662,1380.5,146.8,122.0,9.58,-1.87,-2.54,153.6,986.2,6.1,12.7,4.2,0.0,XX,--,2.0,(F)_LO_LULX    
109.50,0.644,1347.6,143.9,131.2,9.49,-1.70,-2.50,152.5,1232.3,6.1,13.8,6.5,-0.0,XX,--,2.0,(F)_LO_LULX    
110.00,0.626,1315.1,141.3,142.3,9.96,-1.49,-2.44,151.1,1443.4,6.4,14.9,5.7,-0.0,XX,--,2.0,(F)_LO_LULX    
110.50,0.609,1283.1,139.0,155.2,10.42,-1.26,-2.37,149.3,1645.0,6.7,16.0,1.4,0.0,XX,--,2.0,(F)_LO_LULX    
111.00,0.592,1251.5,136.8,169.8,10.20,-0.98,-2.30,147.5,1866.1,6.8,16.9,-4.1,0.0,XX,--,2.0,(F)_LO_LULX    
111.50,0.575,1220.6,134.4,186.1,9.69,-0.66,-2.23,145.6,2061.5,6.4,17.5,-7.2,0.0,XX,--,2.0,(F)_LO_LULX    
112.00,0.559,1190.2,131.9,203.9,9.55,-0.31,-2.17,143.6,2197.6,5.5,18.0,-6.7,0.0,XX,--,2.0,(F)_LO_LULX    
112.50,0.543,1160.4,129.1,222.6,9.78,0.08,-2.13,141.5,2290.9,4.6,18.5,-5.3,0.0,XX,--,2.0,(F)_LO_LULX    
113.00,0.527,1131.2,126.2,242.0,10.14,0.50,-2.09,138.9,2350.4,3.9,19.1,-5.8,0.0,XX,--,2.0,(F)_LO_LULX    
113.50,0.511,1102.9,123.1,261.7,9.94,0.94,-2.07,135.6,2379.3,3.3,19.6,-7.8,0.0,XX,--,2.0,/(F)_LO_LULX    
114.00,0.497,1075.4,119.8,281.6,9.52,1.41,-2.06,132.8,2381.7,2.6,19.6,-8.8,0.0,IM,--,2.0,/(F)_LO_LULX    
114.50,0.482,1048.5,116.1,301.3,9.65,1.90,-2.08,131.2,2339.9,1.7,19.7,-8.5,0.0,IM,--,2.0,/(F)_LO_LULX (F)HLULIM   
115.00,0.467,1022.0,112.3,320.6,10.23,2.41,-2.12,130.4,2311.6,0.7,19.9,-7.8,-0.0,IM,--,2.0,/(F)_LO_LULX (F)_H_LULIM   
115.50,0.453,995.6,108.1,339.9,10.63,2.94,-2.17,129.5,2314.6,0.2,20.3,-7.3,-0.0,IM,--,2.0,/(F)_LO_LULX (F)_H_LULIM   
116.00,0.439,969.6,103.7,359.2,11.09,3.50,-2.25,128.2,2308.0,0.9,20.6,-6.5,-0.0,IM,--,2.0,/(F)_LO_LULX (F)_H_LULIM   
116.50,0.425,944.0,99.1,378.3,11.06,4.09,-2.35,126.6,2289.0,1.4,20.7,-4.5,-0.0,IM,--,2.0,/(F)_LO_LULX (F)_H_LULIM   
117.00,0.411,918.9,94.3,397.3,11.06,4.70,-2.47,125.1,2253.2,1.7,20.6,-3.8,-0.0,IM,--,2.0,/(F)_LO_LULX (F)_H_LULIM   
117.50,0.397,894.1,89.4,415.8,10.98,5.34,-2.61,123.8,2187.3,1.8,20.2,-4.6,-0.0,IM,--,2.0,/(F)_LO_LULX (F)_H_LULIM   
118.00,0.384,869.5,84.3,433.7,10.90,6.00,-2.78,123.1,2110.0,1.8,19.9,-5.9,-0.0,IM,--,2.0,/(F)_LO_LULX (F)_H_LULIM   
118.50,0.371,845.2,79.0,451.0,10.88,6.69,-2.97,122.6,2031.4,1.7,19.7,-7.2,0.0,IM,--,2.0,/(F)_LO_LULX (F)_H_LULIM   
119.00,0.357,820.9,73.4,467.6,10.89,7.40,-3.20,121.9,1945.1,1.7,19.5,-7.9,0.0,IM,--,2.0,/(F)_LO_LULX (F)_H_LULIM   
119.50,0.344,796.9,67.6,483.5,10.88,8.13,-3.46,121.4,1852.0,1.9,19.2,-7.6,0.0,IM,--,2.0,/(F)_LO_LULX (F)_HLUL_IM   
120.00,0.331,773.0,61.6,498.5,11.08,8.89,-3.76,120.9,1764.5,2.2,19.0,-2.8,0.0,IM,--,2.0,/(F)_LO_LULX (F)_HLUL_IM   
120.50,0.318,749.2,55.5,512.9,11.05,9.68,-4.09,120.4,1683.0,2.4,18.7,5.0,-0.0,IM,--,2.0,/(F)_LO_LULX (F)_HLUL_IM   
121.00,0.305,725.5,49.7,526.6,10.91,10.51,-4.43,120.1,1592.0,2.6,18.4,9.9,-0.0,IM,--,2.0,/(F)_LO_LULX (F)_HLUL_IM   
121.50,0.292,701.7,44.1,539.4,10.94,11.38,-4.76,119.9,1490.9,2.3,18.0,10.1,-0.1,IM,--,2.0,/(F)_LO_LULX (F)_HLUL_IM   
122.00,0.279,677.9,38.7,551.5,11.35,12.28,-5.10,119.6,1402.8,1.7,17.7,6.4,-0.0,IM,--,2.0,/(F)_LO_LULX (F)_HLUL_IM   
122.50,0.266,654.2,33.4,562.8,11.39,13.23,-5.47,119.4,1318.8,0.9,17.4,0.6,-0.0,IM,--,2.0,/(F)_LO_LULX SLO_HLUL_IM   
123.00,0.253,630.5,28.1,573.5,11.17,14.23,-5.86,119.3,1242.8,0.1,16.9,-3.9,0.0,IM,--,2.0,/(F)_LO_LULX SLO_HLUL_IM   
123.50,0.240,606.8,22.6,583.5,11.16,15.28,-6.31,119.3,1147.9,0.4,16.5,-6.0,0.0,IM,--,2.0,/(F)_LO_LULX SLO_HLUL_IM   
124.00,0.227,583.0,17.0,592.7,11.16,16.40,-6.81,119.4,1048.0,0.5,16.0,-5.8,0.1,IC,WO,1.0,/(F)_LO_LULX SLO_HLUL_IM  (SLO)_HLUL_IC 
124.50,0.214,559.3,11.4,601.0,11.28,17.59,-7.38,119.5,952.7,0.4,15.6,-3.1,0.0,IC,WO,1.0,/(F)_LO_LULX SLO_HLUL_IM  (SLO)_HLUL_IC 
125.00,0.201,535.5,5.7,608.6,11.50,18.86,-8.01,119.7,874.7,0.0,15.2,1.3,0.0,IC,WO,1.0,/(F)_LO_LULX SLO_HLUL_IM  (SLO)_HLUL_IC 
125.50,0.189,511.6,0.1,615.6,11.45,20.22,-8.70,119.9,797.5,0.4,14.7,4.7,-0.0,IC,WO,1.0,/(F)_LO_LULX SLO_HLUL_IM  (SLO)_HLUL_IC 
126.00,0.176,487.5,-5.4,622.0,11.26,21.69,-9.45,120.3,726.4,0.8,14.3,6.5,-0.0,IC,WO,1.0,/(F)_LO_LULX SLO_HLUL_IM  (SLO)_HLUL_IC 
126.50,0.163,463.4,-10.7,627.8,10.92,23.29,-10.27,120.6,656.4,0.9,13.8,6.8,-0.0,IC,WO,1.0,/(F)_LO_LULX SLO_HLUL_IM  (SLO)_HLUL_IC 
127.00,0.150,439.1,-15.8,632.9,10.56,25.03,-11.18,121.1,583.4,0.9,13.2,6.1,-0.0,IC,WO,1.0,/(F)_LO_LULX SLO_HLUL_IM  (SLO)_HLUL_IC 
127.50,0.137,414.6,-20.8,637.5,10.58,26.94,-12.19,121.7,497.3,0.7,12.7,5.0,-0.0,IC,WO,1.0,/(F)_LO_LULX SLO_HLUL_IM  (SLO)_HLUL_IC 
128.00,0.124,390.0,-25.7,641.3,10.63,29.04,-13.35,122.3,413.9,0.2,12.4,5.3,-0.0,IC,WO,1.0,/(F)_LO_LULX SLO_HLUL_IM  (SLO)_HLUL_IC 
128.50,0.112,365.2,-30.4,644.4,10.77,31.36,-14.68,122.9,342.2,0.3,12.2,5.8,-0.0,IC,WO,1.0,/(F)_LO_LULX SLO_HLUL_IM  (SLO)_HLUL_IC 
129.00,0.099,340.2,-35.0,647.0,10.80,33.93,-16.23,123.5,287.3,0.8,12.0,5.2,-0.0,IC,WO,1.0,/(F)_LO_LULX SLO_HLUL_IM  (SLO)_HLUL_IC 
129.50,0.086,315.0,-39.4,649.3,10.68,36.80,-18.06,124.1,247.7,1.4,11.8,4.1,-0.0,IC,WO,1.0,/(F)_LO_LULX SLO_HLUL_IM  (SLO)_HLUL_IC 
130.00,0.074,289.6,-43.6,651.2,10.55,40.01,-20.30,124.7,211.7,2.0,11.5,3.4,-0.0,IC,WO,1.0,/(F)_LO_LULX SLO_HLUL_IM  (SLO)_HLUL_IC 
130.50,0.063,264.1,-47.8,652.8,10.46,43.58,-23.10,125.3,171.6,2.5,11.4,3.8,-0.0,IC,WO,1.0,/(F)_LO_LULX SLO_HLUL_IM  (SLO)_HLUL_IC 
131.00,0.053,238.3,-51.8,654.1,10.44,47.52,-26.68,126.0,142.0,2.9,11.3,5.6,-0.0,IC,WO,1.0,/(F)_LO_LULX SLO_HLUL_IM  (SLO)_HLUL_IC 
131.50,0.044,212.4,-55.6,655.2,10.66,51.81,-31.43,126.6,122.7,3.3,11.3,6.9,-0.0,IC,WO,1.0,/(F)_LO_LULX SLO_HLUL_IM  (SLO)_HLUL_IC 
132.00,0.039,186.3,-59.1,656.1,10.68,56.35,-37.93,127.0,103.9,3.7,11.3,7.2,-0.0,AR,WO,1.0,/(F)_LO_LULX SLO_HLUL_IM  (SLO)_HLUL_IC 
132.50,-0.039,160.1,-62.4,657.0,10.64,60.89,-47.21,127.4,98.1,4.2,11.3,7.2,-0.0,AR,WO,1.0,/(F)_LO_LULX SLO_HLUL_IM  (SLO)_HLUL_IC _HLUL_AR
133.00,-0.043,133.7,-65.4,657.8,10.74,64.92,-60.78,127.8,107.2,4.6,11.2,6.9,-0.0,AR,WO,1.0,/(F)_LO_LULX SLO_HLUL_IM  (SLO)_HLUL_IC _HLUL_AR
133.50,-0.051,107.2,-68.1,658.7,10.70,67.59,-79.85,128.3,105.6,5.1,11.0,6.5,-0.0,AR,WO,1.0,/(F)_LO_LULX SLO_HLUL_IM  (SLO)_HLUL_IC _HLUL_AR
134.00,-0.062,80.6,-70.6,659.5,10.69,67.93,-102.46,128.8,92.4,5.7,10.9,6.1,-0.0,AR,WO,1.0,/(F)_LO_LULX SLO_HLUL_IM  (SLO)_HLUL_IC _HLUL_AR
134.50,-0.074,53.8,-72.8,660.3,10.63,65.79,-122.92,129.2,100.8,6.1,10.8,5.8,-0.0,AR,WO,1.0,/(F)_LO_LULX SLO_HLUL_IM  (SLO)_HLUL_IC _HLUL_AR
135.00,-0.086,26.9,-74.8,661.2,10.53,61.98,-137.93,129.7,112.6,6.6,10.7,5.7,-0.0,AR,WO,1.0,/(F)_LO_LULX SLO_HLUL_IM  (SLO)_HLUL_IC _HLUL_AR
135.50,-0.099,-0.1,-76.6,662.2,10.28,57.47,-148.20,130.2,113.4,7.0,10.7,5.7,-0.0,AR,WO,1.0,/(F)_LO_LULX SLO_HLUL_IM  (SLO)_HLUL_IC _HLUL_AR
136.00,-0.113,-27.3,-78.1,663.2,10.39,52.84,-155.31,130.6,128.5,7.4,10.8,5.7,-0.0,AR,WO,1.0,/(F)_LO_LULX SLO_HLUL_IM  (SLO)_HLUL_IC _HLUL_AR
136.50,-0.127,-54.6,-79.3,664.4,10.17,48.43,-160.42,130.9,155.3,7.8,10.9,5.4,-0.0,AR,WO,1.0,/(F)_LO_LULX SLO_HLUL_IM  (SLO)_HLUL_IC _HLUL_AR
137.00,-0.141,-82.0,-80.4,665.8,10.05,44.38,-164.25,131.3,184.9,8.1,11.0,4.7,-0.0,AR,WO,1.0,/(F)_LO_LULX SLO_HLUL_IM  (SLO)_HLUL_IC _HLUL_AR
137.50,-0.155,-109.4,-81.2,667.4,10.13,40.72,-167.21,131.7,203.6,8.5,11.2,4.1,-0.0,AR,WO,1.0,/(F)_LO_LULX SLO_HLUL_IM  (SLO)_HLUL_IC _HLUL_AR
138.00,-0.169,-137.0,-81.9,669.1,10.34,37.44,-169.57,132.0,214.0,8.8,11.6,3.7,-0.0,AR,WO,1.0,/(F)_LO_LULX SLO_HLUL_IM  (SLO)_HLUL_IC _HLUL_AR
138.50,-0.183,-164.6,-82.4,671.1,10.71,34.54,-171.49,132.1,256.9,9.1,12.1,3.3,0.0,AR,WO,1.0,/(F)_LO_LULX SLO_HLUL_IM  (SLO)_HLUL_IC _HLUL_AR
139.00,-0.198,-192.3,-82.7,673.4,10.77,31.98,-173.10,132.3,306.1,9.3,12.3,3.2,-0.0,AR,WO,1.0,/(F)_LO_LULX SLO_HLUL_IM  (SLO)_HLUL_IC _HLUL_AR
