#Time,Rho,X,Z,Alt,AoA,GSE,LUE,Vtot,Vy,Gamma,Pitch,Roll,Yaw,Step,Grade,Points,Details
0.00,0.879,1790.9,40.5,308.8,8.10,-0.34,-7.67,171.8,-271.5,50.4,4.8,-48.1,-0.1,X0,OK,4.0,    
0.50,0.867,1766.7,75.0,306.3,8.12,-0.33,-6.47,170.5,-339.9,47.1,4.4,-50.1,-0.1,X0,OK,4.0,    
1.00,0.854,1740.7,107.6,303.0,8.11,-0.32,-5.31,169.2,-445.2,43.8,4.0,-51.1,-0.1,X0,OK,4.0,    
1.50,0.840,1713.0,138.2,298.9,7.97,-0.31,-4.18,168.1,-552.8,40.9,3.9,-49.5,-0.1,X0,OK,4.0,    
2.00,0.826,1683.8,166.7,294.0,8.06,-0.31,-3.07,167.1,-595.6,37.9,4.0,-46.7,-0.1,X0,OK,4.0,    
2.50,0.811,1653.3,193.2,289.0,8.19,-0.31,-2.00,166.2,-609.9,34.8,4.0,-46.6,-0.1,X0,OK,4.0,    
3.00,0.796,1621.4,217.6,283.8,8.22,-0.31,-0.96,165.3,-657.2,31.4,3.6,-48.5,-0.1,X0,OK,4.0,    
3.50,0.780,1588.4,239.8,278.0,8.42,-0.32,0.04,164.4,-739.2,28.0,3.2,-50.6,-0.0,X0,OK,4.0,    
4.00,0.763,1554.2,259.4,271.4,8.52,-0.33,0.99,163.7,-863.3,24.6,2.8,-51.8,-0.0,X0,OK,4.0,    
4.50,0.747,1519.0,276.5,263.7,8.63,-0.35,1.90,163.0,-971.9,21.6,2.9,-49.7,-0.0,X0,OK,4.0,    
5.00,0.729,1482.9,291.2,255.4,8.91,-0.38,2.75,162.6,-1007.2,18.4,3.2,-47.7,-0.0,X0,OK,4.0,    
5.50,0.711,1446.2,303.5,247.0,9.82,-0.41,3.56,162.1,-1018.2,14.3,3.6,-48.8,-0.0,XX,OK,4.0,    
6.00,0.693,1408.9,313.0,238.5,10.94,-0.44,4.29,161.3,-1014.9,9.5,4.0,-51.4,-0.0,XX,--,2.0,_SLO_(LO)_OS_X    
6.50,0.674,1371.2,319.5,229.9,11.34,-0.48,4.94,160.4,-1062.9,5.2,3.9,-53.6,-0.0,XX,--,2.0,_SLO_(LO)_OS_X    
7.00,0.654,1333.4,322.8,220.7,11.22,-0.52,5.49,159.6,-1122.6,2.5,4.7,-49.1,0.0,XX,--,2.0,_SLO_(LO)_OS_X    
7.50,0.635,1295.6,323.4,211.8,9.59,-0.55,5.96,158.5,-981.7,2.5,5.2,-37.9,0.0,XX,--,2.0,_SLO_(LO)_OS_X    
8.00,0.615,1258.3,322.3,204.2,7.62,-0.58,6.36,156.4,-879.8,2.1,3.9,-32.9,0.0,XX,--,2.0,_SLO_(LO)_OS_X    
8.50,0.596,1221.6,319.6,197.0,7.49,-0.59,6.71,154.1,-844.6,0.4,3.5,-34.0,0.0,XX,--,2.0,_SLO_(LO)_OS_X    
9.00,0.577,1185.6,315.2,190.0,8.54,-0.61,6.99,152.1,-834.6,3.5,4.5,-34.4,0.0,XX,--,2.0,_SLO_(LO)_OS_X    
9.50,0.557,1150.2,308.7,183.3,9.23,-0.62,7.17,151.7,-724.7,4.5,6.3,-25.3,0.0,XX,--,2.0,_SLO_LO_OS_X    
10.00,0.538,1115.1,300.8,178.4,8.70,-0.60,7.30,151.9,-425.6,3.1,7.2,-13.9,0.0,XX,--,2.0,_SLO_LO_OS_X    
10.50,0.519,1080.2,292.6,176.0,7.46,-0.54,7.41,150.0,-173.0,3.1,6.8,-12.4,0.0,XX,--,2.0,_SLO_LO_OS_X    
11.00,0.500,1046.0,284.0,175.0,6.79,-0.46,7.49,147.1,-79.2,6.3,5.9,-19.4,0.0,IM,--,2.0,_SLO_LO_OS_X    
11.50,0.481,1012.8,274.4,174.4,7.06,-0.36,7.51,144.4,-71.3,9.5,5.7,-25.9,0.0,IM,--,2.0,_SLO_LO_OS_X F(LO)_LUR_IM   
12.00,0.463,980.7,263.6,173.8,7.87,-0.26,7.44,141.8,-65.3,12.1,6.4,-29.4,0.0,IM,--,2.0,_SLO_LO_OS_X F(LO)_LUR_IM   
12.50,0.445,949.7,251.7,173.3,8.31,-0.15,7.28,139.2,-73.0,14.4,6.7,-31.3,0.0,IM,--,2.0,_SLO_LO_OS_X F(LO)_LUR_IM   
13.00,0.427,919.7,238.7,172.4,8.25,-0.04,7.01,136.8,-155.2,15.7,6.7,-30.2,0.0,IM,--,2.0,_SLO_LO_OS_X F(LO)_LUR_IM   
13.50,0.410,890.8,224.6,170.7,8.12,0.05,6.64,134.5,-236.4,15.8,7.0,-23.3,0.0,IM,--,2.0,_SLO_LO_OS_X F(LO)_LUR_IM   
14.00,0.393,862.9,210.0,168.8,8.07,0.15,6.18,132.2,-241.3,15.6,7.2,-18.2,0.1,IM,--,2.0,_SLO_LO_OS_X F(LO)_LUR_IM   
14.50,0.377,835.8,195.1,166.5,8.04,0.24,5.64,129.9,-306.3,16.4,6.8,-11.0,0.1,IM,--,2.0,_SLO_LO_OS_X F(LO)_LUR_IM   
15.00,0.361,809.4,179.8,163.7,7.81,0.32,5.03,127.6,-359.5,15.8,6.3,0.4,0.0,IM,--,2.0,_SLO_LO_OS_X F(LO)_LUR_IM   
15.50,0.346,783.6,164.9,160.6,7.58,0.39,4.38,125.5,-403.3,14.6,5.8,8.4,0.0,IM,--,2.0,_SLO_LO_OS_X F(LO)_LUR_IM   
16.00,0.331,758.1,150.6,156.9,7.48,0.46,3.72,123.4,-483.1,14.2,5.4,10.3,0.0,IM,--,2.0,_SLO_LO_OS_X F(LO)_LUR_IM   
16.50,0.316,733.0,136.6,152.4,7.64,0.51,3.03,121.5,-613.2,13.4,4.9,13.2,0.0,IM,--,2.0,_SLO_LO_OS_X /F(H)_LUR_IM   
17.00,0.301,708.1,123.1,146.7,7.76,0.52,2.31,119.9,-766.3,11.9,4.3,19.5,0.0,IM,--,2.0,_SLO_LO_OS_X /F(H)_LUR_IM   
17.50,0.286,683.3,110.4,139.6,7.85,0.49,1.60,119.5,-948.7,10.1,3.7,23.9,0.0,IM,--,2.0,_SLO_LO_OS_X /F(H)_LUR_IM   
18.00,0.272,658.1,98.3,131.0,8.18,0.42,0.90,121.0,-1123.1,7.9,3.1,27.8,0.0,IM,--,2.0,_SLO_LO_OS_X /F(H)_LUR_IM   
18.50,0.257,632.0,87.1,121.0,10.01,0.30,0.23,123.2,-1258.7,4.8,4.1,31.1,-0.0,IM,--,2.0,_SLO_LO_OS_X /F(H)_LUR_IM   
19.00,0.242,605.0,76.9,110.3,12.10,0.15,-0.39,124.6,-1287.7,1.6,5.9,31.7,-0.0,IC,--,2.0,_SLO_LO_OS_X /_SLO_(H)_LUR_IM   
19.50,0.226,577.5,68.1,99.6,12.66,-0.01,-0.92,124.7,-1301.0,0.8,6.1,31.3,-0.0,IC,--,2.0,_SLO_LO_OS_X /_SLO_(H)_LUR_IM  _SLO_IC 
20.00,0.211,549.6,60.5,88.5,11.71,-0.21,-1.34,124.7,-1367.4,2.4,4.9,30.8,-0.0,IC,--,2.0,_SLO_LO_OS_X /_SLO_(H)_LUR_IM  _SLO_(LUL)IC 
20.50,0.195,521.3,54.2,76.7,11.11,-0.46,-1.65,126.5,-1472.8,3.4,4.3,27.0,-0.0,IC,--,2.0,_SLO_LO_OS_X /_SLO_(H)_LUR_IM  _SLO_LULIC 
21.00,0.179,492.1,49.0,64.2,10.75,-0.77,-1.84,129.9,-1488.3,3.0,4.7,15.6,-0.0,IC,--,2.0,_SLO_LO_OS_X /_SLO_(H)_LUR_IM  _SLO_(LO)LULIC 
21.50,0.163,461.9,44.3,52.4,10.08,-1.10,-1.96,133.5,-1326.5,1.0,5.1,1.9,-0.0,IC,--,2.0,_SLO_LO_OS_X /_SLO_(H)_LUR_IM  _SLO_LOLULIC 
22.00,0.146,430.9,39.4,42.2,8.93,-1.39,-2.12,137.1,-1124.8,0.2,4.6,-6.4,0.0,IC,--,2.0,_SLO_LO_OS_X /_SLO_(H)_LUR_IM  _SLOLO_LULIC 
22.50,0.128,398.9,34.0,33.4,7.45,-1.66,-2.39,140.7,-973.9,0.2,4.1,-5.4,0.0,IC,WO,1.0,_SLO_LO_OS_X /_SLO_(H)_LUR_IM  _SLOLO_LULIC 
23.00,0.110,366.0,28.4,25.9,7.12,-1.90,-2.75,144.4,-810.0,2.0,4.4,2.3,0.0,IC,WO,1.0,_SLO_LO_OS_X /_SLO_(H)_LUR_IM  _SLOLO_LULIC 
23.50,0.092,332.2,23.0,20.0,7.62,-2.10,-3.11,147.9,-587.1,3.5,5.4,8.2,0.0,IC,WO,1.0,_SLO_LO_OS_X /_SLO_(H)_LUR_IM  _SLOLO_LULIC 
24.00,0.073,297.4,18.1,16.2,7.91,-2.18,-3.42,150.4,-327.8,3.5,6.6,8.0,0.0,IC,WO,1.0,_SLO_LO_OS_X /_SLO_(H)_LUR_IM  _SLOLO_LULIC 
24.50,0.054,262.4,13.7,14.4,7.87,-2.09,-3.72,149.7,-105.3,2.7,7.4,5.4,-0.0,IC,WO,1.0,_SLO_LO_OS_X /_SLO_(H)_LUR_IM  _SLOLO_LULIC 
25.00,0.035,227.8,9.4,14.2,7.77,-1.78,-4.13,146.7,49.2,2.5,7.7,2.9,-0.0,AR,WO,1.0,_SLO_LO_OS_X /_SLO_(H)_LUR_IM  _SLOLO_LULIC 
25.50,0.017,194.1,5.3,15.0,7.00,-1.13,-4.71,143.6,131.2,2.2,7.3,1.9,-0.0,AR,WO,1.0,_SLO_LO_OS_X /_SLO_(H)_LUR_IM  _SLOLO_LULIC _LOLUL_AR
26.00,-0.004,161.1,1.4,16.1,5.88,0.16,-5.75,141.4,138.0,2.2,6.2,-0.1,-0.0,AR,WO,1.0,_SLO_LO_OS_X /_SLO_(H)_LUR_IM  _SLOLO_LULIC _LOLUL_AR
26.50,-0.019,128.6,-2.5,17.1,5.54,3.25,-8.25,139.4,98.7,2.1,5.9,-1.8,-0.0,AR,WO,1.0,_SLO_LO_OS_X /_SLO_(H)_LUR_IM  _SLOLO_LULIC _LOLUL_AR
27.00,-0.037,96.7,-6.4,17.7,6.34,19.77,-23.93,137.3,55.7,2.0,6.4,-3.2,-0.0,AR,WO,1.0,_SLO_LO_OS_X /_SLO_(H)_LUR_IM  _SLOLO_LULIC _LOLUL_AR
27.50,-0.054,65.3,-10.3,18.1,7.25,11.59,-168.69,134.9,35.8,2.0,7.3,-4.6,0.0,AR,WO,1.0,_SLO_LO_OS_X /_SLO_(H)_LUR_IM  _SLOLO_LULIC _LOLUL_AR
28.00,-0.070,34.5,-14.4,18.4,8.10,2.74,-176.48,132.7,30.4,1.9,8.1,-6.0,0.0,AR,WO,1.0,_SLO_LO_OS_X /_SLO_(H)_LUR_IM  _SLOLO_LULIC _LOLUL_AR
28.50,-0.087,4.2,-18.6,18.6,8.13,0.48,-178.26,131.8,25.1,1.2,8.1,-5.8,0.0,AR,WO,1.0,_SLO_LO_OS_X /_SLO_(H)_LUR_IM  _SLOLO_LULIC _LOLUL_AR
29.00,-0.103,-26.1,-23.1,18.8,7.64,-0.58,-178.92,132.8,20.8,1.2,7.8,-3.7,0.0,AR,WO,1.0,_SLO_LO_OS_X /_SLO_(H)_LUR_IM  _SLOLO_LULIC _LOLUL_AR
29.50,-0.120,-56.8,-27.7,19.1,7.36,-1.17,-179.27,134.9,68.7,1.2,7.8,-1.5,-0.0,AR,WO,1.0,_SLO_LO_OS_X /_SLO_(H)_LUR_IM  _SLOLO_LULIC _LOLUL_AR
30.00,-0.137,-88.0,-32.5,20.1,7.47,-1.50,-179.49,137.1,164.7,0.8,8.2,-1.5,-0.0,AR,WO,1.0,_SLO_LO_OS_X /_SLO_(H)_LUR_IM  _SLOLO_LULIC _LOLUL_AR
30.50,-0.154,-119.8,-37.4,22.0,7.54,-1.65,-179.62,138.8,302.6,0.3,8.6,-2.3,-0.0,AR,WO,1.0,_SLO_LO_OS_X /_SLO_(H)_LUR_IM  _SLOLO_LULIC _LOLUL_AR
31.00,-0.172,-151.8,-42.6,25.0,7.79,-1.68,-179.67,139.5,435.8,0.1,9.1,-2.7,-0.0,AR,WO,1.0,_SLO_LO_OS_X /_SLO_(H)_LUR_IM  _SLOLO_LULIC _LOLUL_AR
31.50,-0.190,-183.8,-47.9,29.2,7.51,-1.63,-179.67,139.7,566.3,0.1,9.6,-1.4,-0.0,AR,WO,1.0,_SLO_LO_OS_X /_SLO_(H)_LUR_IM  _SLOLO_LULIC _LOLUL_AR
