#Time,Rho,X,Z,Alt,AoA,GSE,LUE,Vtot,Vy,Gamma,Pitch,Roll,Yaw,Step,Grade,Points,Details
0.00,3.882,7265.6,1115.4,1178.3,7.71,-0.67,-0.28,138.6,95.8,4.3,8.1,8.3,-0.0,X0,_OK_,5.0,Unicorn
0.50,3.866,7236.7,1112.4,1178.7,7.94,-0.66,-0.27,136.7,9.6,4.8,8.1,7.4,-0.0,X0,_OK_,5.0,Unicorn
1.00,3.850,7208.1,1109.7,1178.4,8.46,-0.65,-0.26,134.9,-87.8,5.3,8.2,6.2,-0.0,X0,_OK_,5.0,Unicorn
1.50,3.835,7180.1,1107.4,1177.4,9.21,-0.64,-0.24,133.0,-154.3,5.9,8.7,5.4,-0.0,X0,_OK_,5.0,Unicorn
2.00,3.820,7152.5,1105.2,1176.0,10.03,-0.63,-0.22,131.2,-167.0,6.5,9.4,3.9,0.0,X0,_OK_,5.0,Unicorn
2.50,3.806,7125.4,1103.3,1174.7,10.47,-0.62,-0.20,129.5,-143.4,7.1,9.9,2.0,0.0,X0,_OK_,5.0,Unicorn
3.00,3.791,7098.6,1101.5,1173.5,10.12,-0.62,-0.19,127.8,-167.5,7.4,9.4,2.7,0.0,X0,_OK_,5.0,Unicorn
3.50,3.777,7072.3,1099.9,1171.7,10.17,-0.61,-0.17,126.2,-259.4,7.5,9.0,5.1,0.0,X0,_OK_,5.0,Unicorn
4.00,3.763,7046.4,1098.6,1169.2,10.68,-0.61,-0.14,124.8,-352.1,7.7,9.1,5.8,-0.0,X0,_OK_,5.0,Unicorn
4.50,3.750,7020.8,1097.4,1166.0,11.29,-0.60,-0.12,123.9,-413.0,7.8,9.5,3.6,-0.0,X0,_OK_,5.0,Unicorn
5.00,3.736,6995.3,1096.5,1162.4,11.78,-0.60,-0.10,124.0,-445.0,8.0,9.8,0.1,0.0,X0,_OK_,5.0,Unicorn
5.50,3.722,6969.7,1095.5,1158.7,11.67,-0.60,-0.07,125.0,-418.7,8.1,9.9,-3.3,0.0,X0,_OK_,5.0,Unicorn
6.00,3.708,6943.7,1094.4,1155.3,11.30,-0.60,-0.05,126.3,-398.2,8.1,9.6,-2.5,0.0,X0,_OK_,5.0,Unicorn
6.50,3.694,6917.4,1093.3,1152.1,11.39,-0.60,-0.02,127.7,-380.9,7.9,9.5,1.5,0.0,X0,_OK_,5.0,Unicorn
7.00,3.680,6890.8,1092.3,1149.1,11.55,-0.59,0.01,129.0,-332.0,7.7,9.8,4.8,-0.0,X0,_OK_,5.0,Unicorn
7.50,3.665,6863.8,1091.5,1146.6,11.38,-0.59,0.04,130.2,-254.2,7.6,9.9,4.8,-0.0,X0,_OK_,5.0,Unicorn
8.00,3.651,6836.5,1090.9,1144.8,11.08,-0.58,0.07,131.4,-174.5,7.6,9.8,1.3,-0.0,X0,_OK_,5.0,Unicorn
8.50,3.636,6808.9,1090.2,1143.6,10.78,-0.57,0.10,132.4,-105.5,7.7,9.9,-1.4,-0.0,X0,_OK_,5.0,Unicorn
9.00,3.621,6781.1,1089.5,1143.1,10.50,-0.56,0.13,133.1,-19.6,7.9,9.9,-0.9,0.0,X0,_OK_,5.0,Unicorn
9.50,3.606,6753.1,1088.8,1143.2,10.25,-0.55,0.16,133.7,46.5,8.1,9.8,1.9,-0.0,X0,_OK_,5.0,Unicorn
10.00,3.591,6725.0,1088.1,1143.8,10.09,-0.53,0.20,134.3,99.8,8.3,9.9,3.8,-0.0,X0,_OK_,5.0,Unicorn
10.50,3.576,6696.7,1087.7,1144.9,10.05,-0.52,0.23,134.9,173.5,8.6,10.1,3.3,-0.0,X0,_OK_,5.0,Unicorn
11.00,3.561,6668.3,1087.3,1146.7,9.77,-0.50,0.27,135.5,245.6,9.0,10.1,1.9,0.0,X0,_OK_,5.0,Unicorn
11.50,3.545,6639.7,1087.0,1149.0,9.46,-0.48,0.31,136.0,293.7,9.3,10.0,-1.6,0.0,X0,_OK_,5.0,Unicorn
12.00,3.530,6611.0,1086.6,1151.5,9.29,-0.46,0.34,136.5,328.9,9.5,10.1,-4.7,0.0,X0,_OK_,5.0,Unicorn
12.50,3.515,6582.1,1086.1,1154.5,9.33,-0.44,0.38,137.1,369.7,9.4,10.2,-3.7,0.0,X0,_OK_,5.0,Unicorn
13.00,3.499,6553.2,1085.4,1157.7,9.31,-0.42,0.42,137.5,421.1,9.1,10.3,-3.1,0.0,X0,_OK_,5.0,Unicorn
13.50,3.484,6524.1,1084.8,1161.4,9.15,-0.40,0.45,137.9,467.1,8.7,10.4,-4.3,0.0,X0,_OK_,5.0,Unicorn
14.00,3.468,6495.0,1083.9,1165.4,8.82,-0.37,0.49,138.2,476.5,8.2,10.5,-11.8,0.0,X0,_OK_,5.0,Unicorn
14.50,3.452,6465.7,1082.5,1169.4,8.06,-0.35,0.52,138.6,493.0,7.7,10.5,-19.6,0.1,X0,_OK_,5.0,Unicorn
15.00,3.437,6436.4,1080.4,1173.5,7.86,-0.32,0.54,139.1,463.4,6.7,10.1,-18.2,0.1,X0,_OK_,5.0,Unicorn
15.50,3.421,6407.1,1077.7,1177.2,7.97,-0.30,0.57,139.5,423.0,5.4,9.8,-15.2,0.1,X0,_OK_,5.0,Unicorn
16.00,3.405,6377.6,1074.6,1180.6,8.52,-0.27,0.58,139.9,395.0,3.6,9.9,-12.8,0.0,X0,_OK_,5.0,Unicorn
16.50,3.389,6348.1,1070.9,1184.0,8.70,-0.25,0.59,140.1,437.4,1.7,10.1,-13.6,0.0,X0,_OK_,5.0,Unicorn
17.00,3.373,6318.7,1066.6,1187.8,8.38,-0.22,0.60,140.4,462.9,0.2,9.8,-15.5,0.0,X0,_OK_,5.0,Unicorn
17.50,3.357,6289.2,1061.6,1191.6,8.28,-0.20,0.60,140.7,457.1,1.0,9.6,-16.0,0.0,X0,_OK_,5.0,Unicorn
18.00,3.340,6259.8,1056.0,1195.3,8.35,-0.17,0.60,141.1,443.1,2.1,9.6,-8.4,-0.0,X0,_OK_,5.0,Unicorn
18.50,3.324,6230.3,1050.0,1199.1,8.05,-0.15,0.59,141.4,465.1,3.0,9.6,-1.6,-0.0,X0,_OK_,5.0,Unicorn
19.00,3.308,6200.7,1043.9,1203.1,7.78,-0.12,0.58,141.8,486.9,3.4,9.6,0.5,-0.1,X0,_OK_,5.0,Unicorn
19.50,3.292,6171.1,1037.6,1207.2,7.82,-0.09,0.57,142.2,496.8,3.4,9.5,-1.5,-0.0,X0,_OK_,5.0,Unicorn
20.00,3.275,6141.4,1031.1,1211.4,7.83,-0.06,0.55,142.5,512.3,2.9,9.4,-3.4,-0.0,X0,_OK_,5.0,Unicorn
20.50,3.259,6111.7,1024.3,1215.7,7.67,-0.03,0.54,142.9,519.3,2.2,9.3,-5.7,0.0,X0,_OK_,5.0,Unicorn
21.00,3.242,6081.9,1017.2,1220.4,6.77,-0.00,0.52,143.5,636.6,1.5,9.0,-6.3,0.0,X0,_OK_,5.0,Unicorn
21.50,3.226,6052.1,1009.9,1225.5,5.91,0.03,0.50,144.0,503.1,1.0,7.7,-3.6,0.0,X0,_OK_,5.0,Unicorn
22.00,3.209,6022.1,1002.5,1228.1,6.13,0.06,0.48,144.3,93.7,0.8,6.3,-0.5,0.0,X0,_OK_,5.0,Unicorn
22.50,3.192,5992.0,995.2,1227.2,7.57,0.07,0.46,144.5,-318.7,0.8,6.1,1.3,0.0,X0,_OK_,5.0,Unicorn
23.00,3.176,5961.9,987.9,1223.4,9.04,0.08,0.44,144.4,-548.7,1.0,6.7,1.6,0.0,X0,_OK_,5.0,Unicorn
23.50,3.159,5931.9,980.7,1218.4,9.73,0.08,0.41,144.2,-647.7,1.2,7.0,1.0,0.0,X0,_OK_,5.0,Unicorn
24.00,3.142,5901.9,973.4,1212.7,9.77,0.09,0.39,144.2,-728.2,1.4,6.8,-0.0,0.0,X0,_OK_,5.0,Unicorn
24.50,3.126,5871.8,966.2,1206.3,9.94,0.09,0.37,144.3,-814.9,1.5,6.7,-0.9,0.0,X0,_OK_,5.0,Unicorn
25.00,3.109,5841.9,958.9,1199.2,10.28,0.08,0.35,144.2,-895.8,1.6,6.7,-1.2,0.0,X0,_OK_,5.0,Unicorn
25.50,3.093,5811.9,951.6,1191.4,10.72,0.08,0.33,144.1,-979.0,1.7,6.8,-1.0,0.0,X0,_OK_,5.0,Unicorn
26.00,3.076,5782.0,944.2,1182.9,10.98,0.07,0.31,143.9,-1054.5,1.8,6.8,-0.6,0.0,X0,_OK_,5.0,Unicorn
26.50,3.059,5752.2,936.9,1173.9,11.21,0.06,0.28,143.7,-1119.7,1.8,6.8,-0.1,0.0,X0,_OK_,5.0,Unicorn
27.00,3.043,5722.4,929.5,1164.4,11.36,0.05,0.26,143.6,-1159.9,1.9,6.8,0.4,0.0,X0,_OK_,5.0,Unicorn
27.50,3.026,5692.7,922.2,1154.7,11.43,0.04,0.23,143.5,-1159.2,1.9,6.9,0.7,0.0,X0,_OK_,5.0,Unicorn
28.00,3.010,5663.0,914.9,1145.1,11.37,0.03,0.21,143.5,-1127.8,1.9,6.9,0.8,0.0,X0,_OK_,5.0,Unicorn
28.50,2.994,5633.2,907.6,1135.9,11.18,0.02,0.19,143.6,-1063.2,1.9,6.8,0.8,0.0,X0,_OK_,5.0,Unicorn
29.00,2.977,5603.4,900.4,1127.4,10.81,0.02,0.16,143.8,-978.5,1.8,6.8,0.8,0.0,X0,_OK_,5.0,Unicorn
29.50,2.960,5573.5,893.2,1119.7,10.37,0.01,0.14,144.2,-872.5,1.7,6.8,1.0,0.0,X0,_OK_,5.0,Unicorn
30.00,2.944,5543.4,885.9,1112.9,10.00,0.01,0.11,144.6,-754.7,1.7,6.8,1.2,0.0,X0,_OK_,5.0,Unicorn
30.50,2.927,5513.3,878.6,1107.0,9.77,0.01,0.09,144.9,-661.7,1.6,6.8,1.3,0.0,X0,_OK_,5.0,Unicorn
31.00,2.910,5483.0,871.5,1101.8,9.51,0.01,0.07,145.2,-593.9,1.5,6.8,1.3,0.0,X0,_OK_,5.0,Unicorn
31.50,2.894,5452.7,864.3,1096.9,9.26,0.02,0.04,145.5,-567.5,1.4,6.8,1.3,0.0,X0,_OK_,5.0,Unicorn
32.00,2.877,5422.3,857.2,1092.2,9.13,0.02,0.02,145.6,-577.7,1.3,6.7,1.3,0.0,X0,_OK_,5.0,Unicorn
32.50,2.860,5391.8,850.1,1087.2,9.16,0.03,-0.00,145.7,-618.2,1.2,6.7,1.3,0.0,X0,_OK_,5.0,Unicorn
33.00,2.843,5361.4,843.1,1081.9,9.24,0.03,-0.02,145.8,-673.4,1.1,6.8,1.3,0.0,X0,_OK_,5.0,Unicorn
33.50,2.826,5330.9,836.2,1076.0,9.47,0.03,-0.05,145.8,-732.5,1.1,6.8,1.3,0.0,X0,_OK_,5.0,Unicorn
34.00,2.809,5300.4,829.2,1069.7,9.77,0.03,-0.07,145.8,-779.1,1.0,6.8,1.3,0.0,X0,_OK_,5.0,Unicorn
34.50,2.793,5269.9,822.4,1063.1,9.96,0.03,-0.09,145.8,-816.9,0.9,6.8,1.3,0.0,X0,_OK_,5.0,Unicorn
35.00,2.776,5239.4,815.6,1056.1,10.04,0.03,-0.11,145.8,-853.2,0.8,6.8,1.3,0.0,X0,_OK_,5.0,Unicorn
35.50,2.759,5208.9,808.8,1048.9,10.21,0.03,-0.13,145.8,-867.4,0.8,6.8,1.3,0.0,X0,_OK_,5.0,Unicorn
36.00,2.742,5178.4,802.1,1041.7,10.55,0.02,-0.15,145.8,-871.9,0.6,6.8,1.3,0.0,X0,_OK_,5.0,Unicorn
36.50,2.725,5147.9,795.5,1034.4,10.48,0.02,-0.17,145.7,-861.9,0.5,6.8,1.4,0.0,X0,_OK_,5.0,Unicorn
37.00,2.708,5117.4,788.9,1027.3,10.35,0.02,-0.19,145.7,-850.5,0.5,6.8,1.5,0.0,X0,_OK_,5.0,Unicorn
37.50,2.692,5086.9,782.4,1020.4,10.23,0.01,-0.21,145.7,-815.4,0.4,6.8,1.5,0.0,X0,_OK_,5.0,Unicorn
38.00,2.675,5056.4,775.9,1013.7,10.09,0.01,-0.23,145.7,-783.9,0.3,6.8,1.5,0.0,X0,_OK_,5.0,Unicorn
38.50,2.658,5025.8,769.5,1007.3,9.96,0.01,-0.25,145.8,-751.4,0.3,6.8,1.5,0.0,X0,_OK_,5.0,Unicorn
39.00,2.641,4995.3,763.2,1001.1,9.95,0.01,-0.27,145.8,-729.5,0.2,6.8,1.5,0.0,X0,_OK_,5.0,Unicorn
39.50,2.624,4964.6,756.9,995.1,9.90,0.01,-0.28,145.9,-721.1,0.2,6.8,1.5,0.0,X0,_OK_,5.0,Unicorn
40.00,2.607,4934.0,750.7,989.1,9.89,0.02,-0.30,146.0,-716.3,0.2,6.8,1.6,-0.0,X0,_OK_,5.0,Unicorn
40.50,2.590,4903.3,744.6,983.1,9.81,0.02,-0.32,146.0,-714.0,0.1,6.8,1.6,-0.0,X0,_OK_,5.0,Unicorn
41.00,2.574,4872.6,738.5,977.2,9.88,0.02,-0.33,146.0,-721.6,0.1,6.8,1.6,-0.0,X0,_OK_,5.0,Unicorn
41.50,2.557,4841.9,732.5,971.1,9.96,0.02,-0.35,146.1,-736.5,0.0,6.8,1.6,-0.0,X0,_OK_,5.0,Unicorn
42.00,2.540,4811.2,726.5,964.9,9.95,0.02,-0.36,146.1,-746.3,0.1,6.8,1.6,-0.0,X0,_OK_,5.0,Unicorn
42.50,2.523,4780.5,720.6,958.7,10.09,0.02,-0.37,146.0,-756.2,0.3,6.8,1.6,-0.0,X0,_OK_,5.0,Unicorn
43.00,2.506,4749.8,714.8,952.3,10.07,0.02,-0.39,146.0,-759.5,0.4,6.8,1.6,-0.0,X0,_OK_,5.0,Unicorn
43.50,2.489,4719.0,709.1,946.0,10.04,0.02,-0.40,145.9,-775.6,0.5,6.8,1.6,-0.0,X0,_OK_,5.0,Unicorn
44.00,2.472,4688.4,703.4,939.4,10.09,0.02,-0.41,145.6,-786.7,0.6,6.8,1.6,-0.0,X0,_OK_,5.0,Unicorn
44.50,2.456,4657.7,697.8,932.9,10.11,0.02,-0.42,145.3,-795.8,0.7,6.8,1.6,-0.0,X0,_OK_,5.0,Unicorn
45.00,2.439,4627.1,692.2,926.2,9.94,0.02,-0.43,145.7,-794.4,0.8,6.8,1.5,-0.0,X0,_OK_,5.0,Unicorn
45.50,2.422,4596.3,686.7,919.7,9.68,0.01,-0.44,146.7,-770.1,0.8,6.8,1.4,-0.0,X0,_OK_,5.0,Unicorn
46.00,2.405,4565.2,681.3,913.4,9.44,0.01,-0.45,147.6,-748.4,0.9,6.8,1.4,-0.0,X0,_OK_,5.0,Unicorn
46.50,2.388,4534.0,675.8,907.2,9.27,0.02,-0.46,147.6,-743.9,1.0,6.8,1.3,-0.0,X0,_OK_,5.0,Unicorn
47.00,2.371,4502.9,670.5,900.9,9.47,0.02,-0.47,147.4,-764.7,1.1,6.8,1.2,-0.0,X0,_OK_,5.0,Unicorn
47.50,2.354,4471.8,665.1,894.5,9.38,0.02,-0.47,146.9,-782.7,1.2,6.8,1.2,-0.0,X0,_OK_,5.0,Unicorn
48.00,2.337,4440.8,659.9,887.8,9.46,0.01,-0.48,145.8,-825.4,1.3,6.7,1.2,-0.0,X0,_OK_,5.0,Unicorn
48.50,2.320,4410.3,654.8,880.7,9.77,0.01,-0.49,144.0,-877.6,1.3,6.7,1.2,-0.0,X0,_OK_,5.0,Unicorn
49.00,2.303,4380.2,649.8,873.2,10.04,0.01,-0.49,142.6,-919.3,1.3,6.8,1.2,-0.0,X0,_OK_,5.0,Unicorn
49.50,2.287,4350.4,644.8,865.6,10.19,-0.00,-0.50,141.8,-917.5,1.4,6.9,1.1,-0.0,X0,_OK_,5.0,Unicorn
50.00,2.271,4320.7,640.0,858.0,10.11,-0.01,-0.50,141.5,-894.1,1.5,6.8,1.0,-0.0,X0,_OK_,5.0,Unicorn
50.50,2.255,4291.0,635.1,850.7,10.13,-0.01,-0.51,141.2,-846.2,1.6,6.8,0.9,-0.0,X0,_OK_,5.0,Unicorn
51.00,2.239,4261.5,630.4,844.0,9.72,-0.02,-0.51,140.8,-769.4,1.7,6.8,0.9,-0.0,X0,_OK_,5.0,Unicorn
51.50,2.222,4232.0,625.6,837.8,9.58,-0.02,-0.51,140.5,-699.1,1.8,6.8,0.8,0.0,X0,_OK_,5.0,Unicorn
52.00,2.206,4202.5,621.0,832.3,9.38,-0.01,-0.52,140.1,-628.7,2.0,6.8,0.7,0.0,X0,_OK_,5.0,Unicorn
52.50,2.190,4173.2,616.4,827.2,9.27,-0.01,-0.52,139.9,-582.3,2.1,6.8,0.8,0.0,X0,_OK_,5.0,Unicorn
53.00,2.174,4143.9,611.8,822.5,9.14,-0.01,-0.52,139.6,-572.2,2.1,6.8,0.8,0.0,X0,_OK_,5.0,Unicorn
53.50,2.158,4114.7,607.2,817.7,9.01,-0.00,-0.52,139.3,-579.9,2.1,6.8,0.8,0.0,X0,_OK_,5.0,Unicorn
54.00,2.142,4085.5,602.8,812.7,8.99,0.00,-0.52,139.0,-605.9,2.0,6.8,0.7,-0.0,X0,_OK_,5.0,Unicorn
54.50,2.126,4056.4,598.3,807.5,9.09,0.01,-0.52,138.7,-652.2,1.9,6.8,0.6,-0.0,X0,_OK_,5.0,Unicorn
55.00,2.111,4027.5,593.9,801.9,9.19,0.01,-0.52,138.1,-683.9,1.9,6.8,0.5,-0.0,X0,_OK_,5.0,Unicorn
55.50,2.095,3998.7,589.6,796.0,9.16,0.01,-0.52,137.7,-735.4,1.8,6.8,0.4,-0.0,X0,_OK_,5.0,Unicorn
56.00,2.079,3969.9,585.2,789.7,9.38,0.01,-0.52,137.4,-775.9,1.9,6.8,0.3,-0.0,X0,_OK_,5.0,Unicorn
56.50,2.064,3941.2,580.9,783.2,9.40,0.00,-0.52,137.3,-786.5,2.0,6.7,0.4,-0.0,X0,_OK_,5.0,Unicorn
57.00,2.048,3912.6,576.6,776.7,9.39,-0.00,-0.52,137.3,-764.6,2.1,6.8,0.5,-0.0,X0,_OK_,5.0,Unicorn
57.50,2.032,3883.9,572.3,770.5,9.35,-0.00,-0.52,137.2,-727.7,2.1,6.8,0.7,-0.0,X0,_OK_,5.0,Unicorn
58.00,2.017,3855.3,568.1,764.5,9.14,-0.00,-0.52,137.0,-708.3,2.1,6.8,0.8,-0.0,X0,_OK_,5.0,Unicorn
58.50,2.001,3826.7,563.9,758.7,9.07,-0.00,-0.52,137.0,-700.4,2.1,6.8,0.7,-0.0,X0,_OK_,5.0,Unicorn
59.00,1.985,3798.1,559.7,752.9,8.90,-0.00,-0.52,136.9,-688.6,2.0,6.8,0.6,-0.0,X0,_OK_,5.0,Unicorn
59.50,1.970,3769.5,555.6,747.2,9.00,-0.00,-0.51,136.9,-675.0,2.0,6.8,0.5,-0.0,X0,_OK_,5.0,Unicorn
60.00,1.954,3740.9,551.4,741.6,9.04,-0.00,-0.51,136.9,-657.0,2.0,6.8,0.5,-0.0,X0,_OK_,5.0,Unicorn
60.50,1.939,3712.3,547.3,736.2,8.98,-0.00,-0.51,136.8,-641.9,2.0,6.8,0.4,-0.0,X0,_OK_,5.0,Unicorn
61.00,1.923,3683.7,543.3,730.9,9.01,0.00,-0.50,136.8,-621.2,2.0,6.8,0.4,-0.0,X0,_OK_,5.0,Unicorn
61.50,1.907,3655.1,539.2,725.8,9.17,0.01,-0.50,136.7,-603.1,2.1,6.8,0.3,-0.0,X0,_OK_,5.0,Unicorn
62.00,1.892,3626.6,535.1,720.8,9.09,0.01,-0.49,136.7,-608.3,2.2,6.8,0.3,-0.0,X0,_OK_,5.0,Unicorn
62.50,1.876,3598.0,531.1,715.7,9.09,0.01,-0.49,136.5,-601.0,2.3,6.8,0.2,-0.0,X0,_OK_,5.0,Unicorn
63.00,1.861,3569.6,527.0,710.7,9.11,0.02,-0.49,136.1,-612.1,2.5,6.8,0.2,-0.0,X0,_OK_,5.0,Unicorn
63.50,1.845,3541.2,523.0,705.5,9.18,0.02,-0.48,135.5,-650.0,2.6,6.8,0.1,0.0,X0,_OK_,5.0,Unicorn
64.00,1.830,3513.1,519.0,699.9,9.55,0.02,-0.48,134.7,-701.3,2.7,6.8,0.1,0.0,X0,_OK_,5.0,Unicorn
64.50,1.815,3485.2,515.1,693.8,9.80,0.02,-0.47,133.8,-744.4,2.7,6.8,-0.1,0.0,X0,_OK_,5.0,Unicorn
65.00,1.800,3457.4,511.2,687.6,10.04,0.01,-0.47,133.1,-751.6,2.7,6.8,-0.1,0.0,X0,_OK_,5.0,Unicorn
65.50,1.785,3429.9,507.3,681.3,10.08,0.01,-0.46,132.7,-755.5,2.7,6.8,-0.2,0.0,X0,_OK_,5.0,Unicorn
66.00,1.770,3402.3,503.4,675.0,10.02,0.01,-0.46,132.6,-744.3,2.6,6.8,-0.3,0.0,X0,_OK_,5.0,Unicorn
66.50,1.755,3374.8,499.5,668.9,9.86,0.01,-0.45,132.7,-733.0,2.4,6.8,-0.4,-0.0,X0,_OK_,5.0,Unicorn
67.00,1.740,3347.3,495.6,662.9,9.52,0.00,-0.45,132.8,-690.7,2.2,6.8,-0.3,-0.0,X0,_OK_,5.0,Unicorn
67.50,1.725,3319.7,491.7,657.3,9.42,0.00,-0.44,132.9,-671.5,2.1,6.8,-0.3,-0.0,X0,_OK_,5.0,Unicorn
68.00,1.709,3292.1,487.7,651.8,9.35,0.00,-0.44,133.0,-643.1,1.9,6.8,-0.3,-0.0,X0,_OK_,5.0,Unicorn
68.50,1.694,3264.5,483.8,646.5,9.34,0.00,-0.43,133.1,-636.1,1.9,6.8,-0.3,-0.0,X0,_OK_,5.0,Unicorn
69.00,1.679,3236.8,479.8,641.1,9.24,0.01,-0.43,133.2,-640.9,1.8,6.8,-0.1,-0.0,X0,_OK_,5.0,Unicorn
69.50,1.664,3209.1,475.8,635.8,9.24,0.01,-0.42,133.3,-632.7,1.7,6.8,0.2,-0.0,X0,_OK_,5.0,Unicorn
70.00,1.649,3181.4,471.8,630.5,9.25,0.01,-0.42,133.4,-638.2,1.7,6.8,0.3,-0.0,X0,_OK_,5.0,Unicorn
70.50,1.634,3153.7,467.9,625.2,9.09,0.01,-0.41,133.5,-635.2,1.8,6.8,0.3,-0.0,X0,_OK_,5.0,Unicorn
71.00,1.619,3126.0,463.9,619.9,8.98,0.01,-0.41,133.6,-633.6,1.8,6.8,0.3,-0.0,X0,_OK_,5.0,Unicorn
71.50,1.604,3098.2,459.9,614.7,9.03,0.02,-0.40,133.5,-637.8,1.9,6.8,0.3,-0.0,X0,_OK_,5.0,Unicorn
72.00,1.589,3070.4,455.9,609.3,9.30,0.02,-0.39,133.4,-655.8,2.0,6.8,0.3,-0.0,X0,_OK_,5.0,Unicorn
72.50,1.573,3042.7,452.0,603.8,9.23,0.02,-0.39,133.3,-669.6,2.0,6.8,0.2,-0.0,X0,_OK_,5.0,Unicorn
73.00,1.558,3015.1,448.1,598.1,9.36,0.02,-0.38,133.1,-682.6,2.1,6.8,0.1,-0.0,X0,_OK_,5.0,Unicorn
73.50,1.543,2987.5,444.1,592.4,9.38,0.02,-0.38,132.9,-679.6,2.2,6.8,-0.0,-0.0,X0,_OK_,5.0,Unicorn
74.00,1.528,2959.9,440.2,586.8,9.28,0.02,-0.37,132.7,-679.3,2.2,6.8,-0.2,-0.0,X0,_OK_,5.0,Unicorn
74.50,1.513,2932.4,436.3,581.1,9.45,0.02,-0.36,132.6,-674.6,2.2,6.8,-0.3,-0.0,X0,_OK_,5.0,Unicorn
75.00,1.498,2904.9,432.4,575.6,9.45,0.02,-0.36,132.5,-656.8,2.1,6.8,-0.3,-0.0,X0,_OK_,5.0,Unicorn
75.50,1.483,2877.4,428.5,570.2,9.36,0.02,-0.35,132.5,-641.2,2.1,6.8,-0.4,-0.0,X0,_OK_,5.0,Unicorn
76.00,1.468,2849.9,424.5,564.8,9.52,0.02,-0.34,132.3,-645.1,2.0,6.8,-0.4,-0.0,X0,_OK_,5.0,Unicorn
76.50,1.453,2822.5,420.6,559.5,9.48,0.02,-0.34,132.1,-634.6,1.9,6.8,-0.4,-0.0,X0,_OK_,5.0,Unicorn
77.00,1.438,2795.2,416.7,554.2,9.50,0.02,-0.33,131.9,-629.4,1.9,6.8,-0.4,-0.0,X0,_OK_,5.0,Unicorn
77.50,1.424,2767.9,412.7,549.0,9.57,0.03,-0.33,131.5,-629.0,1.8,6.8,-0.4,-0.0,X0,_OK_,5.0,Unicorn
78.00,1.409,2740.7,408.8,543.7,9.65,0.03,-0.32,131.0,-645.7,1.7,6.8,-0.4,-0.0,X0,_OK_,5.0,Unicorn
78.50,1.394,2713.7,404.8,538.2,9.72,0.03,-0.32,130.5,-671.7,1.7,6.8,-0.3,-0.0,X0,_OK_,5.0,Unicorn
79.00,1.379,2686.8,400.8,532.5,9.75,0.03,-0.31,130.0,-704.0,1.7,6.8,-0.3,-0.0,X0,_OK_,5.0,Unicorn
79.50,1.365,2660.0,396.9,526.5,10.04,0.02,-0.31,129.5,-719.0,1.8,6.8,-0.3,-0.0,X0,_OK_,5.0,Unicorn
80.00,1.350,2633.4,392.9,520.5,9.90,0.02,-0.30,129.3,-718.2,1.8,6.8,-0.3,-0.0,X0,_OK_,5.0,Unicorn
80.50,1.336,2606.7,388.9,514.6,9.77,0.02,-0.30,129.3,-710.4,1.8,6.8,-0.2,-0.0,X0,_OK_,5.0,Unicorn
81.00,1.321,2580.1,384.9,508.8,9.94,0.01,-0.30,129.5,-676.5,1.9,6.9,-0.2,-0.0,X0,_OK_,5.0,Unicorn
81.50,1.306,2553.4,380.9,503.2,9.92,0.01,-0.29,129.7,-652.4,2.0,6.8,-0.4,-0.0,X0,_OK_,5.0,Unicorn
82.00,1.292,2526.6,376.9,497.8,9.92,0.01,-0.29,129.9,-643.7,2.2,6.8,-0.6,0.0,X0,_OK_,5.0,Unicorn
82.50,1.277,2499.8,372.8,492.5,10.07,0.01,-0.29,130.1,-631.4,2.2,6.8,-0.6,0.0,X0,_OK_,5.0,Unicorn
83.00,1.263,2472.9,368.7,487.3,9.91,0.02,-0.29,130.3,-614.1,2.1,6.8,-0.4,0.0,X0,_OK_,5.0,Unicorn
83.50,1.248,2446.0,364.6,482.2,9.90,0.02,-0.28,130.5,-607.0,2.0,6.8,-0.3,-0.0,X0,_OK_,5.0,Unicorn
84.00,1.233,2419.0,360.5,477.2,9.84,0.02,-0.28,130.6,-592.7,1.8,6.8,-0.3,-0.0,X0,_OK_,5.0,Unicorn
84.50,1.218,2392.0,356.4,472.3,9.67,0.03,-0.28,130.5,-590.7,1.6,6.8,-0.5,-0.0,X0,_OK_,5.0,Unicorn
85.00,1.204,2365.1,352.3,467.4,9.65,0.03,-0.28,130.3,-602.6,1.5,6.8,-0.6,-0.0,X0,_OK_,5.0,Unicorn
85.50,1.189,2338.3,348.1,462.3,9.79,0.03,-0.28,129.9,-615.4,1.4,6.8,-0.7,-0.0,X0,_OK_,5.0,Unicorn
86.00,1.174,2311.5,344.0,457.1,9.74,0.04,-0.28,129.3,-640.8,1.2,6.8,-0.5,-0.0,X0,_OK_,5.0,Unicorn
86.50,1.160,2285.0,339.9,451.6,9.87,0.04,-0.28,128.6,-678.6,1.1,6.8,-0.2,-0.0,X0,_OK_,5.0,Unicorn
87.00,1.145,2258.7,335.7,445.8,10.10,0.03,-0.28,127.8,-710.8,1.0,6.8,0.1,-0.0,X0,_OK_,5.0,Unicorn
87.50,1.131,2232.5,331.6,439.8,10.14,0.03,-0.28,127.3,-731.2,1.0,6.8,0.2,-0.0,X0,_OK_,5.0,Unicorn
88.00,1.117,2206.4,327.5,433.6,10.08,0.02,-0.28,127.2,-748.7,1.1,6.8,0.1,-0.0,X0,_OK_,5.0,Unicorn
88.50,1.103,2180.3,323.4,427.4,10.03,0.01,-0.28,127.5,-739.0,1.3,6.9,0.0,-0.0,X0,_OK_,5.0,Unicorn
89.00,1.088,2154.1,319.3,421.3,9.83,0.01,-0.28,127.8,-716.9,1.4,6.8,0.1,-0.0,X0,_OK_,5.0,Unicorn
89.50,1.074,2127.8,315.1,415.4,9.55,0.00,-0.28,128.1,-698.3,1.6,6.8,0.2,-0.0,X0,_OK_,5.0,Unicorn
90.00,1.060,2101.5,311.0,409.7,9.56,0.00,-0.28,128.4,-684.1,1.7,6.8,0.2,-0.0,X0,_OK_,5.0,Unicorn
90.50,1.045,2075.0,306.8,404.0,9.51,-0.00,-0.28,128.7,-659.5,1.8,6.8,0.2,-0.0,X0,_OK_,5.0,Unicorn
91.00,1.031,2048.5,302.7,398.6,9.39,-0.00,-0.29,129.1,-646.1,1.8,6.8,0.1,-0.0,X0,_OK_,5.0,Unicorn
91.50,1.016,2021.9,298.5,393.3,9.27,-0.00,-0.29,129.4,-634.6,1.8,6.8,-0.1,-0.0,X0,_OK_,5.0,Unicorn
92.00,1.001,1995.2,294.3,388.1,9.36,0.00,-0.29,129.7,-597.9,1.9,6.8,-0.4,0.0,X0,_OK_,5.0,Unicorn
92.50,0.987,1968.4,290.1,383.3,9.22,0.01,-0.29,130.1,-572.2,1.9,6.8,-0.6,0.0,X0,_OK_,5.0,Unicorn
93.00,0.972,1941.5,285.9,378.6,9.38,0.01,-0.29,130.4,-551.8,1.8,6.8,-0.6,-0.0,X0,_OK_,5.0,Unicorn
93.50,0.957,1914.6,281.7,374.1,9.23,0.02,-0.29,130.6,-523.2,1.6,6.8,-0.4,-0.0,X0,_OK_,5.0,Unicorn
94.00,0.943,1887.6,277.5,369.8,8.94,0.03,-0.29,130.7,-513.3,1.5,6.8,-0.3,-0.0,X0,_OK_,5.0,Unicorn
94.50,0.928,1860.6,273.2,365.5,8.81,0.05,-0.29,130.5,-515.0,1.4,6.8,-0.4,-0.0,X0,_OK_,5.0,Unicorn
95.00,0.913,1833.7,268.9,361.1,9.10,0.06,-0.29,129.8,-544.4,1.4,6.8,-0.5,-0.0,X0,_OK_,5.0,Unicorn
95.50,0.899,1807.1,264.6,356.3,9.28,0.06,-0.30,128.9,-616.3,1.5,6.7,-0.5,-0.0,X0,_OK_,5.0,Unicorn
96.00,0.884,1780.7,260.4,350.9,9.69,0.06,-0.30,127.9,-692.1,1.6,6.8,-0.4,-0.0,X0,_OK_,5.0,Unicorn
96.50,0.870,1754.6,256.1,344.9,9.74,0.06,-0.31,126.8,-733.7,1.6,6.8,-0.0,-0.0,X0,_OK_,5.0,Unicorn
97.00,0.856,1728.8,251.9,338.6,9.82,0.05,-0.32,125.7,-772.1,1.6,6.7,0.3,-0.0,X0,_OK_,5.0,Unicorn
97.50,0.842,1703.2,247.8,332.0,10.01,0.04,-0.32,124.9,-801.4,1.6,6.8,0.4,-0.0,X0,_OK_,5.0,Unicorn
98.00,0.828,1677.8,243.7,325.3,10.30,0.02,-0.33,124.5,-818.3,1.6,6.9,0.3,-0.0,X0,_OK_,5.0,Unicorn
98.50,0.814,1652.5,239.6,318.5,10.20,0.00,-0.34,124.5,-808.4,1.6,6.9,0.1,-0.0,X0,_OK_,5.0,Unicorn
99.00,0.800,1627.0,235.4,311.8,9.95,-0.02,-0.34,125.0,-786.2,1.6,6.9,-0.0,-0.0,X0,_OK_,5.0,Unicorn
99.50,0.786,1601.5,231.3,305.5,9.74,-0.03,-0.35,125.4,-733.4,1.7,6.8,-0.1,-0.0,X0,_OK_,5.0,Unicorn
100.00,0.772,1575.8,227.1,299.6,9.60,-0.04,-0.36,125.9,-683.4,1.7,6.7,-0.1,-0.0,X0,_OK_,5.0,Unicorn
100.50,0.758,1550.0,223.0,294.1,9.53,-0.04,-0.36,126.4,-623.3,1.7,6.8,-0.0,-0.0,X0,_OK_,5.0,Unicorn
101.00,0.744,1524.1,218.8,289.2,8.81,-0.04,-0.37,126.8,-537.5,1.7,6.8,0.1,-0.0,XX,_OK_,5.0,Unicorn
101.50,0.730,1498.0,214.6,285.0,8.64,-0.02,-0.38,127.3,-484.0,1.6,6.8,0.2,-0.0,XX,(OK),3.0,FX    
102.00,0.715,1471.8,210.4,281.1,8.77,-0.01,-0.38,127.8,-452.5,1.6,6.8,0.2,-0.0,XX,(OK),3.0,FX    
102.50,0.701,1445.5,206.2,277.5,8.70,0.01,-0.39,128.2,-425.0,1.7,6.9,0.1,-0.0,XX,(OK),3.0,FX    
103.00,0.686,1419.1,202.0,274.0,8.65,0.04,-0.40,128.5,-419.7,1.7,6.8,0.0,-0.0,XX,(OK),3.0,FX    
103.50,0.672,1392.7,197.7,270.3,8.72,0.06,-0.41,128.6,-460.0,1.8,6.8,0.1,-0.0,XX,(OK),3.0,FX    
104.00,0.658,1366.3,193.5,266.3,8.91,0.08,-0.41,128.1,-506.2,1.8,6.8,0.2,-0.0,XX,(OK),3.0,FX    
104.50,0.643,1340.1,189.3,261.8,9.06,0.09,-0.42,127.3,-579.9,1.8,6.7,0.3,-0.0,XX,(OK),3.0,FX    
105.00,0.629,1314.1,185.2,256.7,9.40,0.10,-0.43,126.4,-650.3,1.8,6.7,0.3,-0.0,XX,(OK),3.0,FX    
105.50,0.615,1288.3,181.1,251.1,9.79,0.10,-0.43,125.4,-693.9,1.9,6.8,0.2,0.0,XX,(OK),3.0,FX    
106.00,0.601,1262.8,177.0,245.1,10.20,0.09,-0.44,124.5,-741.3,2.1,6.8,-0.0,0.0,XX,(OK),3.0,FX    
106.50,0.587,1237.6,173.0,238.8,10.32,0.07,-0.45,123.6,-775.1,2.2,6.8,-0.1,0.0,XX,(OK),3.0,FX    
107.00,0.573,1212.5,168.9,232.3,10.43,0.05,-0.46,123.2,-777.5,2.3,6.8,0.1,0.0,XX,(OK),3.0,FX    
107.50,0.560,1187.4,164.9,225.9,10.62,0.03,-0.47,123.8,-763.6,2.3,6.9,0.3,0.0,XX,(OK),3.0,FX    
108.00,0.546,1162.1,160.9,219.6,10.36,0.01,-0.48,124.8,-718.8,2.3,6.9,0.4,0.0,XX,(OK),3.0,FX    
108.50,0.532,1136.5,156.9,213.9,9.68,0.01,-0.49,126.0,-652.6,2.3,6.9,0.3,0.0,XX,(OK),3.0,FX    
109.00,0.518,1110.6,152.8,208.7,9.04,0.01,-0.49,126.9,-585.3,2.3,6.8,0.1,0.0,XX,(OK),3.0,FX    
109.50,0.503,1084.5,148.7,204.0,8.71,0.02,-0.50,127.3,-542.5,2.4,6.8,-0.1,0.0,XX,(OK),3.0,FX    
110.00,0.489,1058.3,144.6,199.6,8.89,0.04,-0.51,127.6,-513.5,2.4,6.8,-0.2,0.0,IM,(OK),3.0,FX    
110.50,0.475,1032.0,140.5,195.5,8.82,0.06,-0.51,128.0,-493.1,2.3,6.7,-0.1,0.0,IM,(OK),3.0,FX F(LUL)IM   
111.00,0.460,1005.7,136.4,191.3,8.82,0.08,-0.52,128.0,-510.2,2.1,6.8,0.2,0.0,IM,(OK),3.0,FX F(LUL)IM   
111.50,0.446,979.5,132.4,186.9,9.18,0.10,-0.53,127.6,-546.6,1.8,6.8,0.5,-0.0,IM,(OK),3.0,FX F(LUL)IM   
112.00,0.432,953.3,128.3,182.2,9.03,0.12,-0.53,126.9,-592.9,1.6,6.8,0.6,-0.0,IM,(OK),3.0,FX F(LUL)IM   
112.50,0.418,927.4,124.3,177.1,9.19,0.12,-0.53,126.2,-635.4,1.5,6.7,0.5,-0.0,IM,(OK),3.0,FX F(LUL)IM   
113.00,0.404,901.6,120.4,171.6,9.69,0.12,-0.54,125.5,-678.2,1.5,6.7,0.3,-0.0,IM,(OK),3.0,FX F(LUL)IM   
113.50,0.390,876.0,116.4,165.8,10.08,0.11,-0.54,124.6,-720.2,1.6,6.9,0.4,-0.0,IM,(OK),3.0,FX F(LUL)IM   
114.00,0.376,850.7,112.5,159.7,10.38,0.09,-0.55,123.6,-742.7,1.8,6.9,0.6,-0.0,IM,(OK),3.0,FX F(LUL)IM   
114.50,0.362,825.6,108.7,153.5,10.31,0.07,-0.55,123.2,-748.6,1.9,6.7,0.9,-0.0,IM,(OK),3.0,FX F(LUL)IM   
115.00,0.348,800.6,104.9,147.3,10.08,0.05,-0.56,123.1,-728.2,2.0,6.7,1.1,-0.0,IM,(OK),3.0,FX F(LUL)IM   
115.50,0.335,775.5,101.1,141.4,9.92,0.03,-0.56,123.4,-675.6,2.1,6.8,1.2,-0.0,IM,(OK),3.0,FX F(LUL)IM   
116.00,0.321,750.3,97.4,136.1,9.78,0.02,-0.55,123.7,-606.7,2.2,6.9,1.1,-0.0,IM,(OK),3.0,FX F(LUL)IM   
116.50,0.307,725.0,93.7,131.2,9.69,0.03,-0.54,124.2,-571.8,2.3,6.9,0.8,-0.0,IM,(OK),3.0,FX F(LUL)IM   
117.00,0.293,699.6,90.0,126.6,9.53,0.05,-0.52,124.6,-527.8,2.4,6.8,0.5,-0.0,IM,(OK),3.0,FX F(LUL)IM   
117.50,0.279,674.1,86.3,122.3,9.49,0.08,-0.50,124.8,-508.6,2.5,6.8,0.2,-0.0,IM,(OK),3.0,FX F(LUL)IM   
118.00,0.265,648.5,82.7,118.1,9.35,0.11,-0.48,124.8,-497.5,2.6,6.9,-0.0,-0.0,IM,(OK),3.0,FX F(LUL)IM   
118.50,0.251,623.0,79.0,113.9,9.03,0.15,-0.46,124.5,-499.6,2.6,6.8,-0.2,0.0,IM,(OK),3.0,FX F(LUL)IM   
119.00,0.238,597.6,75.4,109.7,8.89,0.18,-0.43,124.0,-533.0,2.6,6.7,-0.4,0.0,IC,(OK),3.0,FX F(LUL)IM   
119.50,0.224,572.4,71.7,104.9,9.27,0.21,-0.41,123.1,-603.0,2.7,6.8,-0.7,0.0,IC,(OK),3.0,FX F(LUL)IM  FIC 
120.00,0.210,547.4,68.1,99.6,9.96,0.21,-0.38,122.3,-694.8,2.7,6.8,-0.9,0.0,IC,(OK),3.0,FX F(LUL)IM  FIC 
120.50,0.197,522.6,64.5,93.4,10.26,0.17,-0.36,121.5,-796.7,2.7,6.7,-0.9,0.0,IC,(OK),3.0,FX F(LUL)IM  FIC 
121.00,0.183,498.0,60.8,86.4,10.53,0.10,-0.34,121.0,-866.6,2.5,6.7,-0.8,0.0,IC,(OK),3.0,FX F(LUL)IM  FIC 
121.50,0.170,473.5,57.2,79.1,10.53,0.01,-0.31,121.2,-868.5,2.3,6.8,-0.8,0.0,IC,(OK),3.0,FX F(LUL)IM  FIC 
122.00,0.156,448.9,53.5,72.1,10.11,-0.09,-0.29,122.2,-805.6,2.1,6.9,-1.0,0.0,IC,(OK),3.0,FX F(LUL)IM  FIC 
122.50,0.143,423.9,49.7,65.7,10.11,-0.16,-0.28,123.6,-729.9,2.0,6.9,-1.2,0.0,IC,(OK),3.0,FX F(LUL)IM  FIC 
123.00,0.129,398.6,45.9,59.9,10.04,-0.22,-0.26,124.6,-678.5,1.9,6.9,-1.4,0.0,IC,(OK),3.0,FX F(LUL)IM  FIC 
123.50,0.115,373.1,41.9,54.4,9.64,-0.25,-0.26,125.1,-640.4,1.8,6.9,-1.5,0.0,IC,(OK),3.0,FX F(LUL)IM  FIC 
124.00,0.101,347.5,37.9,49.2,9.38,-0.28,-0.27,125.7,-599.6,1.8,6.8,-1.4,0.0,IC,(OK),3.0,FX F(LUL)IM  FIC 
124.50,0.087,321.6,33.7,44.3,9.01,-0.28,-0.29,126.7,-567.5,1.7,6.7,-1.2,0.0,IC,(OK),3.0,FX F(LUL)IM  FIC 
125.00,0.073,295.6,29.5,39.6,8.87,-0.26,-0.33,127.5,-551.7,1.7,6.8,-0.8,0.0,IC,(OK),3.0,FX F(LUL)IM  FIC 
125.50,0.058,269.3,25.3,35.2,9.18,-0.22,-0.39,128.2,-508.7,1.6,6.9,-0.5,-0.0,IC,(OK),3.0,FX F(LUL)IM  FIC 
126.00,0.044,242.9,21.0,31.0,9.45,-0.13,-0.48,128.8,-511.4,1.4,6.8,-0.1,-0.0,IC,(OK),3.0,FX F(LUL)IM  FIC 
126.50,0.029,216.3,16.6,26.8,8.70,0.00,-0.60,129.6,-501.0,1.3,6.7,0.1,-0.0,AR,(OK),3.0,FX F(LUL)IM  FIC 
127.00,0.015,189.6,12.3,22.5,8.84,0.20,-0.78,130.2,-517.4,1.3,6.8,0.3,-0.0,AR,(OK),3.0,FX F(LUL)IM  FIC F(LUL)AR
127.50,-0.001,162.6,7.9,18.2,8.76,0.52,-1.10,130.8,-521.1,1.4,6.8,0.6,-0.0,AR,(OK),3.0,FX F(LUL)IM  FIC F(LUL)AR
128.00,-0.015,135.6,3.5,14.0,8.59,1.22,-1.72,131.2,-492.2,1.4,6.8,1.4,-0.0,AR,(OK),3.0,FX F(LUL)IM  FIC F(LUL)AR
128.50,-0.030,108.5,-0.9,10.0,8.52,3.74,-3.64,131.1,-435.4,1.6,6.7,2.8,-0.0,AR,(OK),3.0,FX F(LUL)IM  FIC F(LUL)AR
129.00,-0.044,81.4,-5.1,6.5,8.43,25.24,-157.29,130.6,-419.3,1.9,6.8,4.8,-0.0,AR,(OK),3.0,FX F(LUL)IM  FIC F(LUL)AR
129.50,-0.059,54.5,-9.1,3.0,8.76,-1.76,-177.97,129.8,-410.3,2.3,6.8,7.3,-0.0,AR,(OK),3.0,FX F(LUL)IM  FIC F(LUL)AR
130.00,-0.074,27.9,-12.8,0.9,8.42,-3.23,-179.49,129.3,-369.9,2.6,6.7,7.7,-0.0,AR,(OK),3.0,FX F(LUL)IM  FIC F(LUL)AR
130.50,-0.088,1.3,-16.5,0.2,6.72,-3.46,179.97,129.0,-269.3,3.0,5.7,3.9,-0.0,AR,(OK),3.0,FX F(LUL)IM  FIC F(LUL)AR
131.00,-0.103,-25.2,-19.9,-0.3,3.49,-3.55,179.54,128.5,-86.0,3.5,3.0,-0.3,0.0,AR,(OK),3.0,FX F(LUL)IM  FIC F(LUL)AR
