#Time,Rho,X,Z,Alt,AoA,GSE,LUE,Vtot,Vy,Gamma,Pitch,Roll,Yaw,Step,Grade,Points,Details
0.00,-1.387,-2337.0,-586.8,852.9,9.02,2.46,-175.58,280.9,-540.0,66.0,2.7,-73.0,0.0,n/a,OK,4.0,    
0.50,-1.405,-2354.0,-655.7,847.5,9.30,2.34,-174.15,278.3,-764.4,70.7,2.4,-72.7,0.0,n/a,OK,4.0,    
1.00,-1.421,-2365.0,-725.5,840.3,9.19,2.23,-172.71,276.0,-989.1,75.0,1.9,-72.4,0.0,n/a,OK,4.0,    
1.50,-1.435,-2370.5,-795.6,831.0,9.16,2.11,-171.25,273.9,-1246.5,79.0,1.9,-69.4,0.1,n/a,OK,4.0,    
2.00,-1.447,-2370.6,-865.6,820.6,9.82,1.99,-169.78,271.8,-1168.3,82.9,3.5,-61.0,0.1,n/a,OK,4.0,    
2.50,-1.457,-2365.7,-935.1,812.2,10.72,1.89,-168.31,269.3,-818.0,87.6,4.9,-57.7,0.1,n/a,OK,4.0,    
3.00,-1.465,-2355.3,-1003.7,806.9,11.09,1.83,-166.84,266.6,-449.4,92.5,5.8,-58.3,0.1,n/a,OK,4.0,    
3.50,-1.472,-2339.6,-1070.8,804.4,11.23,1.79,-165.37,263.8,-135.8,97.2,6.4,-59.4,0.1,n/a,OK,4.0,    
4.00,-1.476,-2319.0,-1136.0,804.2,11.20,1.77,-163.90,261.0,88.6,101.5,6.8,-60.0,0.1,n/a,OK,4.0,    
4.50,-1.478,-2293.7,-1199.1,805.8,11.39,1.77,-162.44,258.2,279.1,106.1,6.9,-62.1,0.1,n/a,OK,4.0,    
5.00,-1.479,-2263.9,-1259.7,808.1,11.06,1.78,-160.99,255.6,206.5,110.8,5.8,-67.7,0.1,n/a,OK,4.0,    
5.50,-1.477,-2229.8,-1317.5,808.8,11.04,1.79,-159.54,253.5,-35.8,115.3,5.1,-69.9,0.1,n/a,OK,4.0,    
6.00,-1.474,-2191.7,-1372.4,807.6,11.41,1.79,-158.11,251.3,-247.0,119.8,5.1,-68.6,0.1,n/a,OK,4.0,    
6.50,-1.469,-2149.9,-1424.0,805.0,11.82,1.79,-156.68,249.0,-392.8,124.4,5.2,-66.8,0.1,n/a,OK,4.0,    
7.00,-1.463,-2104.9,-1472.3,801.2,11.81,1.79,-155.27,246.7,-523.3,128.5,5.0,-65.5,0.1,n/a,OK,4.0,    
7.50,-1.455,-2057.0,-1517.1,796.2,11.43,1.79,-153.88,244.6,-662.1,131.5,5.4,-61.1,0.1,n/a,OK,4.0,    
8.00,-1.445,-2006.8,-1558.8,790.7,11.09,1.78,-152.49,242.4,-617.4,133.7,6.4,-53.3,0.1,n/a,OK,4.0,    
8.50,-1.435,-1955.0,-1597.6,786.1,10.78,1.79,-151.12,240.1,-495.6,136.2,6.7,-49.6,0.1,n/a,OK,4.0,    
9.00,-1.425,-1901.8,-1633.6,782.2,10.73,1.80,-149.76,237.9,-440.9,139.5,6.5,-50.8,0.1,n/a,OK,4.0,    
9.50,-1.413,-1847.2,-1666.6,778.6,10.88,1.82,-148.40,235.6,-438.2,143.0,6.4,-52.1,0.1,n/a,OK,4.0,    
10.00,-1.401,-1791.5,-1696.6,774.9,11.13,1.84,-147.06,233.2,-442.5,146.4,6.6,-52.5,0.1,n/a,OK,4.0,    
10.50,-1.387,-1734.9,-1723.5,771.2,11.55,1.86,-145.74,230.6,-446.1,149.9,6.8,-52.8,0.1,n/a,OK,4.0,    
11.00,-1.374,-1677.5,-1747.4,767.4,11.60,1.89,-144.43,227.9,-491.9,153.3,6.6,-53.9,0.1,n/a,OK,4.0,    
11.50,-1.359,-1619.6,-1768.1,762.9,12.14,1.91,-143.13,225.4,-577.5,157.1,6.6,-54.9,0.1,n/a,OK,4.0,    
12.00,-1.344,-1561.4,-1785.7,757.8,13.07,1.94,-141.85,222.6,-642.5,161.3,7.0,-55.1,0.1,n/a,OK,4.0,    
12.50,-1.328,-1502.9,-1799.9,752.3,13.90,1.96,-140.60,219.6,-687.1,165.5,7.5,-54.7,0.1,n/a,OK,4.0,    
13.00,-1.311,-1444.5,-1810.9,746.4,14.45,1.99,-139.36,216.5,-725.8,169.4,7.8,-54.0,0.1,n/a,OK,4.0,    
13.50,-1.294,-1386.4,-1818.8,740.3,14.54,2.02,-138.15,213.4,-742.0,173.1,7.5,-52.9,0.0,n/a,OK,4.0,    
14.00,-1.276,-1328.7,-1823.7,733.9,14.05,2.04,-136.96,210.7,-800.7,176.7,6.4,-52.7,0.0,n/a,OK,4.0,    
14.50,-1.258,-1271.5,-1825.7,726.8,13.55,2.07,-135.79,208.2,-933.9,179.9,5.3,-53.5,0.0,n/a,OK,4.0,    
15.00,-1.239,-1214.9,-1824.9,718.1,12.73,2.09,-134.64,205.7,-1125.4,178.7,5.5,-42.1,-0.0,n/a,OK,4.0,    
15.50,-1.219,-1159.0,-1822.1,709.0,11.72,2.10,-133.49,203.3,-984.4,178.2,8.1,-9.2,-0.0,n/a,OK,4.0,    
16.00,-1.201,-1103.8,-1819.1,702.5,10.23,2.13,-132.34,200.5,-561.0,171.7,9.1,24.3,-0.0,n/a,OK,4.0,    
16.50,-1.184,-1049.2,-1817.7,699.0,8.98,2.19,-131.13,197.5,-344.6,164.4,6.5,44.0,-0.0,n/a,OK,4.0,    
17.00,-1.168,-995.4,-1818.7,695.5,8.23,2.23,-129.88,194.9,-536.0,159.6,2.5,51.2,0.0,n/a,OK,4.0,    
17.50,-1.155,-942.2,-1821.5,689.5,7.49,2.25,-128.59,193.0,-926.8,157.9,0.4,52.1,0.1,n/a,OK,4.0,    
18.00,-1.142,-889.6,-1825.8,680.1,8.80,2.23,-127.26,191.4,-1337.7,155.4,0.8,49.6,0.0,n/a,OK,4.0,    
18.50,-1.131,-837.7,-1831.8,667.9,11.59,2.18,-125.90,189.3,-1554.1,152.4,3.6,42.8,0.0,n/a,OK,4.0,    
19.00,-1.122,-786.5,-1839.5,654.9,12.36,2.11,-124.51,188.2,-1541.5,151.6,5.7,32.8,0.0,n/a,OK,4.0,    
19.50,-1.114,-735.7,-1848.8,642.4,10.47,2.04,-123.10,189.0,-1441.2,153.1,5.4,20.7,0.0,n/a,OK,4.0,    
20.00,-1.108,-684.7,-1859.1,631.0,8.40,1.97,-121.65,191.0,-1291.6,154.9,4.3,8.2,0.0,n/a,OK,4.0,    
20.50,-1.102,-633.1,-1869.7,620.9,7.41,1.91,-120.17,192.9,-1112.2,155.1,3.9,1.2,0.1,n/a,OK,4.0,    
21.00,-1.097,-581.2,-1880.6,612.4,7.44,1.85,-118.66,193.9,-919.7,154.3,4.5,-0.0,0.1,n/a,OK,4.0,    
21.50,-1.092,-529.2,-1891.8,605.6,7.47,1.81,-117.14,194.4,-723.1,153.9,5.2,-2.0,0.1,n/a,OK,4.0,    
22.00,-1.089,-477.1,-1903.2,600.3,6.94,1.78,-115.60,194.8,-556.3,155.9,5.1,-14.6,0.1,n/a,OK,4.0,    
22.50,-1.086,-424.7,-1913.9,595.9,5.92,1.75,-114.06,194.8,-508.8,158.3,4.0,-27.2,0.1,n/a,OK,4.0,    
23.00,-1.083,-372.1,-1923.2,591.6,5.02,1.72,-112.51,195.0,-552.9,159.8,3.1,-31.0,0.1,n/a,OK,4.0,    
23.50,-1.080,-319.1,-1931.3,586.6,4.70,1.69,-110.96,195.8,-643.2,161.0,2.6,-27.5,0.1,n/a,OK,4.0,    
24.00,-1.077,-265.6,-1938.4,581.0,4.94,1.65,-109.39,198.0,-665.0,161.5,2.8,-15.5,0.0,n/a,OK,4.0,    
24.50,-1.075,-211.4,-1945.3,575.9,5.26,1.61,-107.80,200.8,-548.8,162.2,3.5,-8.7,0.0,n/a,OK,4.0,    
25.00,-1.073,-156.4,-1951.8,571.9,5.02,1.57,-106.18,204.1,-394.7,163.0,3.6,-9.7,0.0,n/a,OK,4.0,    
25.50,-1.072,-100.5,-1957.9,569.2,4.32,1.55,-104.54,207.2,-274.3,163.9,3.3,-12.2,0.0,n/a,OK,4.0,    
26.00,-1.071,-43.7,-1963.4,567.2,4.20,1.53,-102.88,209.0,-191.3,164.8,3.4,-14.2,0.0,n/a,OK,4.0,    
26.50,-1.071,13.2,-1968.2,566.0,5.13,1.51,-101.21,208.6,-79.4,165.8,4.6,-14.9,0.0,n/a,OK,4.0,    
27.00,-1.071,70.0,-1972.1,566.1,5.92,1.51,-99.56,208.2,117.8,166.7,6.0,-12.8,0.0,n/a,OK,4.0,    
27.50,-1.072,126.9,-1975.4,568.0,5.90,1.52,-97.91,207.8,326.8,167.3,6.7,-11.7,0.0,n/a,OK,4.0,    
28.00,1.073,183.6,-1978.1,571.4,5.42,1.53,-96.26,207.3,496.2,167.4,6.9,-7.2,0.0,n/a,OK,4.0,    
28.50,1.075,240.2,-1980.4,576.2,5.32,1.56,-94.63,206.8,658.9,166.7,7.3,2.9,0.0,n/a,OK,4.0,    
29.00,1.078,296.6,-1982.9,582.3,5.47,1.59,-93.02,205.6,832.3,166.2,8.0,5.3,0.0,n/a,OK,4.0,    
29.50,1.082,352.5,-1985.7,589.9,5.64,1.64,-91.44,203.4,986.3,166.4,8.6,-0.3,0.0,n/a,OK,4.0,    
30.00,1.087,407.8,-1988.3,598.6,5.46,1.68,-89.89,200.9,1101.9,166.8,8.9,-4.3,0.0,n/a,OK,4.0,    
30.50,1.092,462.5,-1990.5,608.2,5.44,1.74,-88.37,198.8,1190.5,167.0,9.2,-5.2,0.0,n/a,OK,4.0,    
31.00,1.098,516.6,-1992.5,618.5,5.39,1.79,-86.88,196.7,1274.1,167.3,9.5,-5.1,0.0,n/a,OK,4.0,    
31.50,1.104,570.2,-1994.2,629.3,5.40,1.85,-85.43,193.9,1323.3,167.6,9.7,-5.1,0.0,n/a,OK,4.0,    
32.00,1.111,622.9,-1995.7,640.4,5.47,1.90,-84.01,191.0,1350.7,167.9,10.0,-5.4,0.0,n/a,OK,4.0,    
32.50,1.118,675.0,-1996.9,651.8,5.56,1.96,-82.64,188.2,1368.2,168.3,10.3,-5.2,0.0,n/a,OK,4.0,    
33.00,1.126,726.4,-1997.9,663.2,5.92,2.01,-81.30,185.6,1368.9,168.6,10.7,-4.4,0.0,n/a,OK,4.0,    
33.50,1.134,777.1,-1998.7,674.6,6.51,2.06,-80.00,182.9,1383.9,169.0,11.5,-4.5,0.0,n/a,OK,4.0,    
34.00,1.142,827.0,-1999.2,686.3,6.98,2.11,-78.73,180.1,1397.0,169.4,12.1,-5.3,0.0,n/a,OK,4.0,    
34.50,1.151,876.3,-1999.5,697.8,7.14,2.16,-77.50,177.6,1374.4,169.9,12.2,-7.2,0.0,n/a,OK,4.0,    
35.00,1.160,925.1,-1999.7,709.1,7.38,2.20,-76.30,176.1,1331.3,171.7,12.1,-16.8,0.0,n/a,OK,4.0,    
35.50,1.170,973.5,-1999.0,720.0,7.06,2.24,-75.13,175.2,1265.2,174.2,11.2,-27.4,0.0,n/a,OK,4.0,    
36.00,1.179,1021.7,-1997.1,730.0,6.71,2.27,-73.96,174.1,1132.7,176.0,10.5,-31.3,0.0,n/a,OK,4.0,    
36.50,1.187,1069.6,-1994.1,738.8,6.92,2.29,-72.81,172.8,960.8,177.7,10.1,-32.0,0.0,n/a,OK,4.0,    
37.00,1.196,1117.0,-1989.9,746.1,7.48,2.30,-71.67,171.6,779.2,179.6,9.9,-32.0,0.0,n/a,OK,4.0,    
37.50,1.205,1164.1,-1984.7,751.8,7.92,2.30,-70.55,170.6,578.1,178.7,9.7,-31.3,0.0,n/a,OK,4.0,    
38.00,1.213,1210.8,-1978.3,755.9,8.26,2.29,-69.44,170.0,415.1,177.4,9.5,-27.6,0.0,n/a,OK,4.0,    
38.50,1.222,1257.5,-1971.0,758.9,8.17,2.27,-68.34,171.3,327.7,175.9,8.9,-25.0,0.0,n/a,OK,4.0,    
39.00,1.230,1304.5,-1962.7,761.4,7.86,2.24,-67.23,174.2,262.8,173.5,7.7,-28.9,-0.0,n/a,OK,4.0,    
39.50,1.239,1352.0,-1953.0,763.2,7.35,2.21,-66.11,177.0,152.6,170.5,6.3,-36.5,-0.0,n/a,OK,4.0,    
40.00,1.247,1399.7,-1941.5,763.8,7.21,2.18,-64.98,178.8,-28.7,168.0,5.6,-39.3,-0.0,n/a,OK,4.0,    
40.50,1.255,1447.2,-1928.3,762.9,7.62,2.13,-63.84,178.4,-183.2,166.1,5.8,-35.6,-0.0,n/a,OK,4.0,    
41.00,1.263,1494.1,-1913.8,761.0,7.99,2.08,-62.72,178.3,-264.8,164.7,6.2,-29.4,-0.0,n/a,OK,4.0,    
41.50,1.271,1540.7,-1898.2,758.7,8.13,2.03,-61.60,179.3,-281.7,162.9,6.1,-28.1,-0.0,n/a,OK,4.0,    
42.00,1.278,1587.3,-1881.3,756.2,7.79,1.97,-60.47,181.6,-317.4,160.0,5.2,-33.8,-0.0,n/a,OK,4.0,    
42.50,1.286,1633.9,-1862.6,753.3,7.41,1.92,-59.33,184.0,-402.4,157.4,4.4,-38.7,-0.0,n/a,OK,4.0,    
43.00,1.293,1680.1,-1841.9,749.5,7.19,1.86,-58.19,186.1,-506.7,154.9,3.9,-40.3,-0.0,n/a,OK,4.0,    
43.50,1.299,1726.0,-1819.4,744.8,7.41,1.80,-57.03,187.8,-610.7,152.4,3.9,-39.3,-0.0,n/a,OK,4.0,    
44.00,1.305,1771.2,-1795.1,739.5,7.88,1.73,-55.87,188.5,-666.9,150.1,4.3,-36.4,-0.0,n/a,OK,4.0,    
44.50,1.311,1815.7,-1769.2,733.9,8.04,1.67,-54.71,189.0,-655.0,148.1,4.7,-32.7,-0.1,n/a,OK,4.0,    
45.00,1.317,1859.4,-1742.0,728.6,7.84,1.61,-53.55,189.8,-612.6,146.2,4.6,-31.7,-0.1,n/a,OK,4.0,    
45.50,1.322,1902.5,-1713.3,723.7,7.61,1.55,-52.39,190.9,-586.3,144.0,4.4,-33.3,-0.1,n/a,OK,4.0,    
46.00,1.327,1944.7,-1683.1,718.8,7.53,1.50,-51.22,192.1,-572.9,141.5,4.2,-35.7,-0.1,n/a,OK,4.0,    
46.50,1.332,1986.1,-1651.2,714.1,7.54,1.44,-50.05,193.1,-565.3,139.0,4.2,-37.4,-0.1,n/a,OK,4.0,    
47.00,1.336,2026.3,-1617.8,709.4,7.61,1.39,-48.88,193.9,-559.5,136.4,4.3,-38.3,-0.1,n/a,OK,4.0,    
47.50,1.340,2065.3,-1582.8,704.8,7.80,1.35,-47.71,194.6,-543.9,133.8,4.6,-38.3,-0.1,n/a,OK,4.0,    
48.00,1.343,2103.1,-1546.3,700.4,7.84,1.30,-46.53,195.2,-512.6,131.2,4.8,-38.9,-0.1,n/a,OK,4.0,    
48.50,1.346,2139.4,-1508.3,696.3,7.85,1.26,-45.36,195.7,-479.0,128.6,4.8,-39.8,-0.1,n/a,OK,4.0,    
49.00,1.348,2174.2,-1468.9,692.4,7.76,1.23,-44.18,196.1,-459.3,125.9,4.8,-41.0,-0.1,n/a,OK,4.0,    
49.50,1.350,2207.3,-1428.1,688.6,7.81,1.19,-43.01,196.5,-438.1,123.2,4.9,-40.9,-0.1,n/a,OK,4.0,    
50.00,1.351,2238.8,-1386.0,685.2,7.99,1.16,-41.83,196.7,-369.5,120.7,5.3,-38.5,-0.1,n/a,OK,4.0,    
50.50,1.351,2268.5,-1342.8,682.6,8.11,1.14,-40.66,196.6,-255.9,118.2,5.7,-37.8,-0.1,n/a,OK,4.0,    
51.00,1.351,2296.4,-1298.7,680.9,7.91,1.13,-39.49,196.5,-161.4,115.6,5.6,-39.7,-0.1,n/a,OK,4.0,    
51.50,1.351,2322.5,-1253.5,679.7,7.72,1.12,-38.33,196.6,-113.1,112.8,5.4,-41.9,-0.1,n/a,OK,4.0,    
52.00,1.350,2346.4,-1207.2,678.9,7.72,1.12,-37.16,196.7,-82.1,110.0,5.3,-43.3,-0.1,n/a,OK,4.0,    
52.50,1.348,2368.2,-1160.1,678.3,7.71,1.12,-36.00,196.6,-54.9,107.0,5.3,-44.5,-0.1,n/a,OK,4.0,    
53.00,1.346,2387.7,-1112.3,677.9,7.71,1.12,-34.85,195.6,-56.3,104.1,5.2,-45.7,-0.1,n/a,OK,4.0,    
53.50,1.342,2404.8,-1064.1,677.3,7.67,1.13,-33.71,194.1,-82.2,101.1,5.0,-46.7,-0.1,n/a,OK,4.0,    
54.00,1.338,2419.5,-1015.6,676.4,7.74,1.13,-32.58,193.0,-136.2,98.0,4.9,-46.9,-0.1,n/a,OK,4.0,    
54.50,1.334,2431.7,-966.9,675.2,7.82,1.14,-31.46,192.0,-153.7,95.1,5.1,-46.0,-0.1,n/a,OK,4.0,    
55.00,1.329,2441.6,-918.0,673.9,7.83,1.14,-30.35,191.0,-167.9,92.1,5.0,-46.2,-0.1,n/a,OK,4.0,    
55.50,1.323,2449.0,-869.2,672.3,7.78,1.15,-29.25,189.9,-203.5,89.0,4.8,-47.2,-0.1,n/a,OK,4.0,    
56.00,1.316,2453.8,-820.5,670.4,7.86,1.16,-28.17,188.7,-261.7,86.0,4.8,-47.2,-0.1,n/a,OK,4.0,    
56.50,1.308,2456.2,-772.2,668.1,7.92,1.17,-27.10,187.4,-284.4,83.2,5.0,-45.0,-0.1,n/a,OK,4.0,    
57.00,1.300,2456.2,-724.2,665.8,8.07,1.18,-26.05,186.2,-255.2,80.6,5.4,-41.8,-0.1,n/a,OK,4.0,    
57.50,1.292,2454.0,-676.8,664.0,8.03,1.20,-25.01,185.1,-169.7,78.1,5.6,-40.5,-0.1,n/a,OK,4.0,    
58.00,1.282,2449.7,-630.0,662.9,7.92,1.22,-23.98,184.0,-106.9,75.3,5.6,-41.5,-0.1,n/a,OK,4.0,    
58.50,1.273,2443.3,-583.9,662.1,7.70,1.25,-22.97,182.4,-72.7,72.5,5.4,-43.2,-0.1,n/a,OK,4.0,    
59.00,1.262,2434.7,-538.8,661.5,7.68,1.28,-21.97,180.7,-75.9,69.7,5.3,-44.8,-0.1,n/a,OK,4.0,    
59.50,1.251,2423.9,-494.7,660.8,7.73,1.32,-21.00,178.8,-103.5,66.7,5.3,-46.1,-0.1,n/a,OK,4.0,    
60.00,1.239,2411.1,-452.0,659.8,7.71,1.35,-20.05,176.7,-159.6,63.8,5.1,-47.4,-0.1,n/a,OK,4.0,    
60.50,1.227,2396.3,-410.6,658.1,7.71,1.38,-19.13,174.7,-239.1,60.8,4.8,-48.3,-0.1,n/a,OK,4.0,    
61.00,1.215,2379.5,-370.7,655.7,7.84,1.41,-18.23,172.8,-354.1,57.9,4.8,-47.0,-0.1,n/a,OK,4.0,    
61.50,1.201,2360.9,-332.4,652.6,8.07,1.44,-17.37,171.0,-375.8,55.7,5.5,-40.7,-0.1,n/a,OK,4.0,    
62.00,1.188,2340.7,-295.5,649.8,8.14,1.48,-16.52,169.4,-261.9,54.1,6.4,-32.8,-0.1,n/a,OK,4.0,    
62.50,1.174,2319.4,-259.9,648.3,8.10,1.52,-15.69,167.9,-79.7,52.3,6.9,-29.4,-0.1,n/a,OK,4.0,    
63.00,1.160,2297.0,-225.5,648.3,7.91,1.58,-14.87,166.4,79.5,50.0,7.1,-29.9,-0.1,n/a,OK,4.0,    
63.50,1.145,2273.6,-192.4,649.5,7.67,1.65,-14.08,164.4,201.8,47.8,7.2,-31.0,-0.1,n/a,OK,4.0,    
64.00,1.131,2249.4,-160.9,651.5,7.48,1.73,-13.30,161.2,276.9,45.7,7.2,-32.1,-0.1,n/a,OK,4.0,    
64.50,1.116,2224.7,-131.1,653.9,7.31,1.81,-12.56,157.5,290.6,43.8,7.1,-33.1,-0.1,n/a,OK,4.0,    
65.00,1.102,2199.5,-103.0,656.3,7.33,1.90,-11.84,154.0,278.1,41.8,7.1,-33.2,-0.1,n/a,OK,4.0,    
65.50,1.087,2174.0,-76.6,658.6,7.46,1.98,-11.15,150.8,261.1,39.8,7.2,-33.4,-0.1,n/a,OK,4.0,    
66.00,1.073,2148.0,-51.8,660.6,7.59,2.07,-10.49,147.7,227.4,37.7,7.3,-33.9,-0.1,n/a,OK,4.0,    
66.50,1.058,2121.8,-28.7,662.3,7.73,2.16,-9.85,144.7,179.0,35.5,7.4,-34.8,-0.1,n/a,OK,4.0,    
67.00,1.044,2095.3,-7.2,663.6,7.95,2.24,-9.25,141.7,111.0,33.3,7.3,-35.7,-0.1,n/a,OK,4.0,    
67.50,1.029,2068.6,12.7,664.1,7.97,2.33,-8.68,138.7,22.8,31.0,7.0,-36.4,-0.1,n/a,OK,4.0,    
68.00,1.015,2041.7,30.8,663.9,8.01,2.40,-8.14,136.0,-101.2,28.9,6.6,-35.9,-0.1,n/a,OK,4.0,    
68.50,1.000,2014.6,47.4,662.5,8.13,2.47,-7.64,133.5,-210.4,27.0,6.5,-33.0,-0.1,n/a,OK,4.0,    
69.00,0.986,1987.5,62.4,660.5,8.22,2.53,-7.16,131.1,-296.1,25.2,6.3,-30.5,-0.1,n/a,OK,4.0,    
69.50,0.972,1960.5,76.2,657.6,8.25,2.59,-6.71,128.8,-398.7,23.5,6.0,-28.4,-0.1,n/a,OK,4.0,    
70.00,0.957,1933.5,88.6,653.9,8.25,2.65,-6.29,126.7,-481.1,22.0,5.8,-25.8,-0.1,X0,OK,4.0,    
70.50,0.943,1906.6,99.9,649.5,8.39,2.69,-5.90,125.2,-575.3,20.6,5.7,-23.7,-0.1,X0,OK,4.0,    
71.00,0.929,1879.6,110.2,644.4,8.41,2.73,-5.52,124.6,-650.6,19.1,5.4,-24.0,-0.1,X0,OK,4.0,    
71.50,0.915,1852.6,119.5,638.6,8.37,2.77,-5.17,123.1,-760.9,17.4,4.8,-25.6,-0.1,X0,OK,4.0,    
72.00,0.900,1825.7,127.7,631.7,8.35,2.79,-4.84,121.2,-897.8,15.7,4.2,-27.3,-0.1,X0,OK,4.0,    
72.50,0.886,1799.1,134.7,623.6,8.28,2.81,-4.54,119.8,-1059.2,14.0,3.5,-28.6,-0.0,X0,OK,4.0,    
73.00,0.872,1772.5,140.6,614.0,8.34,2.80,-4.27,119.4,-1248.8,12.5,3.0,-28.3,-0.0,X0,OK,4.0,    
73.50,0.858,1745.7,145.4,602.9,8.45,2.79,-4.03,120.1,-1407.8,11.3,2.8,-25.5,-0.0,X0,OK,4.0,    
74.00,0.844,1718.5,149.2,590.7,8.61,2.76,-3.81,121.1,-1516.4,10.0,2.5,-22.6,-0.0,X0,OK,4.0,    
74.50,0.829,1691.2,152.3,577.7,8.62,2.73,-3.61,120.8,-1611.5,8.5,2.1,-22.2,-0.0,X0,OK,4.0,    
75.00,0.815,1664.0,154.4,563.9,8.51,2.68,-3.44,120.1,-1725.5,7.2,1.5,-21.8,-0.0,X0,OK,4.0,    
75.50,0.800,1636.9,155.5,549.0,8.45,2.62,-3.30,120.0,-1836.1,6.2,1.1,-19.1,-0.0,X0,OK,4.0,    
76.00,0.785,1609.7,155.9,533.4,8.41,2.55,-3.18,120.8,-1912.6,5.5,0.9,-15.7,-0.0,X0,OK,4.0,    
76.50,0.771,1582.2,155.7,517.3,8.28,2.48,-3.08,123.1,-1955.3,4.7,0.7,-14.1,-0.0,X0,OK,4.0,    
77.00,0.755,1554.0,154.9,500.9,8.20,2.40,-3.00,125.8,-1976.2,3.5,0.6,-14.6,-0.0,X0,OK,4.0,    
77.50,0.740,1525.2,153.2,484.4,8.18,2.32,-2.94,128.1,-1979.0,2.7,0.8,-14.0,-0.0,X0,OK,4.0,    
78.00,0.724,1495.8,150.8,468.0,8.22,2.24,-2.91,130.5,-1929.9,2.7,1.3,-9.6,-0.0,X0,OK,4.0,    
78.50,0.708,1465.8,147.8,452.4,8.11,2.17,-2.90,133.0,-1812.8,2.8,1.7,-4.8,-0.0,X0,OK,4.0,    
79.00,0.691,1435.4,144.7,437.8,8.09,2.11,-2.89,132.6,-1697.4,2.5,2.0,-3.5,-0.0,XX,OK,4.0,    
79.50,0.675,1405.3,141.4,424.0,8.05,2.06,-2.89,131.3,-1608.0,2.3,2.2,-2.8,-0.0,XX,--,2.0,AA _H_LULX    
80.00,0.659,1375.6,137.9,410.9,7.95,2.01,-2.90,130.0,-1544.6,2.4,2.3,-1.4,-0.0,XX,--,2.0,AA _H_LULX    
80.50,0.643,1346.1,134.4,398.2,8.11,1.96,-2.91,128.8,-1496.7,2.5,2.4,0.1,-0.0,XX,--,2.0,AA _H_LULX    
81.00,0.627,1317.0,130.9,385.9,8.15,1.92,-2.93,127.5,-1461.4,2.4,2.5,0.2,-0.0,XX,--,2.0,AA _H_LULX    
81.50,0.611,1288.1,127.4,373.8,8.19,1.88,-2.94,126.3,-1443.5,2.4,2.6,-0.5,-0.0,XX,--,2.0,AA _H_LULX    
82.00,0.596,1259.6,124.0,361.7,8.24,1.83,-2.96,125.3,-1449.8,2.4,2.5,-0.6,-0.0,XX,--,2.0,AA _H_LULX    
82.50,0.580,1231.3,120.4,349.6,8.31,1.78,-2.98,124.8,-1459.3,2.8,2.6,1.5,-0.0,XX,--,2.0,AA _H_LULX    
83.00,0.565,1202.9,117.0,337.5,8.24,1.72,-3.00,125.7,-1455.4,3.2,2.6,3.1,-0.0,XX,--,2.0,AA _H_LULX    
83.50,0.549,1174.2,113.7,325.4,8.19,1.67,-3.02,126.7,-1438.2,3.4,2.7,3.1,-0.0,XX,--,2.0,_AAHLUL_X    
84.00,0.533,1145.3,110.5,313.5,8.21,1.62,-3.02,127.1,-1412.1,3.4,2.9,2.4,-0.0,XX,--,2.0,_AAHLUL_X    
84.50,0.518,1116.3,107.4,301.8,8.33,1.57,-3.02,127.5,-1381.8,3.2,3.1,-0.1,-0.0,XX,--,2.0,_AAHLUL_X    
85.00,0.502,1087.2,104.3,290.5,8.22,1.52,-3.02,128.1,-1334.1,2.7,3.2,-3.2,-0.0,XX,--,2.0,_AAHLUL_X    
85.50,0.486,1058.0,100.9,279.6,8.23,1.47,-3.03,127.7,-1300.1,2.5,3.3,-3.9,0.0,IM,--,2.0,_AAHLUL_X    
86.00,0.470,1029.1,97.4,268.7,8.36,1.43,-3.06,126.4,-1288.9,2.9,3.3,-1.0,0.0,IM,--,2.0,_AAHLUL_X H_LUL_IM   
86.50,0.455,1000.5,94.0,258.0,8.10,1.38,-3.08,125.4,-1285.2,3.4,3.2,2.7,-0.0,IM,--,2.0,_AAHLUL_X H_LUL_IM   
87.00,0.439,972.1,90.7,247.3,8.07,1.33,-3.10,124.8,-1298.2,3.6,3.0,4.0,-0.0,IM,--,2.0,_AAHLUL_X H_LUL_IM   
87.50,0.424,943.7,87.7,236.4,8.16,1.27,-3.10,124.5,-1320.7,3.8,3.1,3.6,-0.0,IM,--,2.0,_AAHLUL_X H_LUL_IM   
88.00,0.409,915.5,84.7,225.3,8.31,1.20,-3.10,124.1,-1345.7,3.9,3.2,3.8,-0.0,IM,--,2.0,_AAHLUL_X H_LUL_IM   
88.50,0.393,887.2,81.9,214.0,8.37,1.12,-3.09,124.9,-1358.0,4.1,3.2,3.9,-0.0,IM,--,2.0,_AAHLUL_X H_LUL_IM   
89.00,0.378,858.6,79.2,202.8,8.30,1.04,-3.06,127.0,-1338.6,4.2,3.2,3.5,-0.0,IM,--,2.0,_AAHLUL_X H_LUL_IM   
89.50,0.362,829.3,76.6,191.8,8.35,0.96,-3.02,129.3,-1291.9,4.3,3.3,2.3,-0.0,IM,--,2.0,_AAHLUL_X H_LUL_IM   
90.00,0.346,799.5,74.1,181.2,8.21,0.89,-2.97,131.0,-1225.6,4.2,3.5,0.1,-0.0,IM,--,2.0,_AAHLUL_X H_LUL_IM   
90.50,0.329,769.3,71.5,171.3,8.05,0.83,-2.91,132.1,-1155.8,3.9,3.6,-2.3,-0.0,IM,--,2.0,_AAHLUL_X H_LUL_IM   
91.00,0.313,738.9,68.8,161.9,8.02,0.79,-2.86,131.8,-1094.4,3.7,3.7,-2.8,-0.0,IM,--,2.0,_AAHLUL_X H_LUL_IM   
91.50,0.297,708.8,66.0,153.1,7.96,0.75,-2.82,131.4,-1033.3,3.6,4.0,-1.3,-0.0,IM,--,2.0,_AAHLUL_X H_LUL_IM   
92.00,0.280,678.6,63.1,144.7,7.99,0.72,-2.77,131.5,-972.8,4.1,4.2,2.5,-0.0,IM,--,2.0,_AAHLUL_X H_LUL_IM   
92.50,0.264,648.4,60.4,136.8,8.01,0.70,-2.70,131.3,-919.2,4.5,4.5,3.5,-0.0,IM,--,2.0,_AAHLUL_X H_LUL_IM   
93.00,0.248,618.3,58.0,129.3,8.09,0.69,-2.60,130.0,-884.9,4.0,4.7,-0.2,-0.0,IC,--,2.0,_AAHLUL_X H_LUL_IM   
93.50,0.231,588.7,55.5,122.0,7.80,0.69,-2.50,128.3,-872.2,3.4,4.5,-3.7,-0.0,IC,--,2.0,_AAHLUL_X H_LUL_IM  (H)LULIC 
94.00,0.216,559.4,52.8,114.6,7.90,0.68,-2.42,126.9,-907.6,3.1,4.3,-5.1,-0.0,IC,--,2.0,_AAHLUL_X H_LUL_IM  (H)LULIC 
94.50,0.200,530.6,49.9,106.9,8.47,0.65,-2.35,125.7,-943.8,2.8,4.5,-5.5,-0.0,IC,--,2.0,_AAHLUL_X H_LUL_IM  (H)LULIC 
95.00,0.184,501.9,46.9,98.9,8.67,0.60,-2.29,125.4,-969.7,2.4,4.7,-5.5,-0.0,IC,--,2.0,_AAHLUL_X H_LUL_IM  (H)LULIC 
95.50,0.169,473.2,43.7,90.8,8.20,0.54,-2.26,126.6,-988.5,2.3,4.3,-4.0,-0.0,IC,--,2.0,_AAHLUL_X H_LUL_IM  (H)LULIC 
96.00,0.153,444.1,40.2,82.5,7.97,0.47,-2.25,128.7,-993.6,2.5,4.1,-1.2,-0.0,IC,--,2.0,_AAHLUL_X H_LUL_IM  (H)LULIC 
96.50,0.137,414.5,36.7,74.3,8.14,0.40,-2.24,130.6,-959.2,2.6,4.5,-0.1,-0.0,IC,--,2.0,_AAHLUL_X H_LUL_IM  (H)LULIC 
97.00,0.120,384.4,33.2,66.6,8.35,0.34,-2.22,131.7,-889.2,2.2,5.1,-2.5,-0.0,IC,--,2.0,_AAHLUL_X H_LUL_IM  (H)LULIC 
97.50,0.104,354.2,29.5,59.4,8.37,0.31,-2.23,131.3,-841.8,1.5,5.3,-5.5,-0.0,IC,--,2.0,_AAHLUL_X H_LUL_IM  (H)LULIC 
98.00,0.088,324.2,25.5,52.5,8.43,0.29,-2.32,131.5,-827.6,1.5,5.3,-2.9,0.0,IC,--,2.0,_AAHLUL_X H_LUL_IM  (H)LULIC 
98.50,0.071,294.0,21.3,45.7,8.36,0.28,-2.48,132.7,-775.2,2.5,5.4,2.8,-0.0,IC,--,2.0,_AAHLUL_X H_LUL_IM  (H)LULIC 
99.00,0.055,263.4,17.3,39.5,7.95,0.33,-2.61,133.7,-711.2,2.6,5.3,4.0,-0.0,IC,--,2.0,_AAHLUL_X H_LUL_IM  (H)LULIC 
99.50,0.038,232.6,13.5,33.8,7.67,0.46,-2.71,133.8,-656.1,2.2,5.3,1.1,-0.0,AR,--,2.0,_AAHLUL_X H_LUL_IM  (H)LULIC 
100.00,0.021,201.9,9.7,28.6,7.88,0.72,-2.90,133.8,-610.0,2.0,5.7,-1.0,-0.0,AR,--,2.0,_AAHLUL_X H_LUL_IM  (H)LULIC (H)LULAR
100.50,0.005,171.3,5.8,23.6,8.45,1.22,-3.27,132.1,-570.7,1.7,6.2,-1.7,-0.0,AR,--,2.0,_AAHLUL_X H_LUL_IM  (H)LULIC (H)LULAR
101.00,-0.012,141.3,1.8,18.9,8.51,2.29,-4.12,129.9,-564.1,1.7,6.2,-2.4,-0.0,AR,--,2.0,_AAHLUL_X H_LUL_IM  (H)LULIC (H)LULAR
101.50,-0.028,111.7,-2.1,14.1,7.83,5.47,-6.95,128.4,-602.5,1.5,5.3,-2.7,-0.0,AR,--,2.0,_AAHLUL_X H_LUL_IM  (H)LULIC (H)LULAR
102.00,-0.044,82.5,-6.1,8.8,6.67,33.45,-132.76,127.6,-680.8,1.6,3.9,-3.3,-0.0,AR,--,2.0,_AAHLUL_X H_LUL_IM  (H)LULIC (H)LULAR
102.50,-0.060,53.4,-10.3,2.7,6.13,-2.01,-176.28,128.3,-775.4,1.7,3.0,-3.6,0.0,AR,--,2.0,_AAHLUL_X H_LUL_IM  (H)LULIC (H)LULAR
103.00,-0.076,23.8,-14.5,-0.0,6.07,-3.51,-178.55,128.6,-712.3,1.6,3.2,-3.0,0.0,AR,--,2.0,_AAHLUL_X H_LUL_IM  (H)LULIC (H)LULAR
103.50,-0.092,-5.7,-18.6,-0.1,2.48,-3.52,-179.40,129.1,-382.3,1.7,1.2,-1.2,-0.0,AR,--,2.0,_AAHLUL_X H_LUL_IM  (H)LULIC (H)LULAR
