#Time,Rho,X,Z,Alt,AoA,GSE,LUE,Vtot,Vy,Gamma,Pitch,Roll,Yaw,Step,Grade,Points,Details
0.00,0.920,1865.3,36.6,547.4,8.32,1.85,-7.86,135.2,-45.9,32.5,7.0,-31.8,-0.1,X0,OK,4.0,    
0.50,0.906,1839.8,55.4,546.7,8.36,1.92,-7.23,133.2,-116.8,30.2,6.6,-33.3,-0.1,X0,OK,4.0,    
1.00,0.892,1813.9,72.7,545.4,8.37,1.99,-6.63,131.4,-231.6,28.1,6.3,-33.7,-0.1,X0,OK,4.0,    
1.50,0.879,1787.7,88.5,543.0,8.38,2.04,-6.06,129.6,-328.1,26.5,6.3,-31.4,-0.1,X0,OK,4.0,    
2.00,0.865,1761.3,103.0,540.0,8.42,2.09,-5.51,128.0,-401.9,24.8,6.1,-29.9,-0.1,X0,OK,4.0,    
2.50,0.851,1734.8,116.3,536.3,8.57,2.14,-5.00,126.4,-495.3,22.7,5.8,-30.8,-0.1,X0,OK,4.0,    
3.00,0.837,1708.2,128.2,531.7,8.52,2.18,-4.51,124.8,-607.8,20.6,5.3,-32.4,-0.1,X0,OK,4.0,    
3.50,0.823,1681.6,138.7,526.1,8.49,2.21,-4.06,123.5,-752.0,18.5,4.5,-33.8,-0.0,X0,OK,4.0,    
4.00,0.809,1654.7,147.9,519.2,8.39,2.23,-3.64,123.5,-906.7,16.4,3.8,-34.8,-0.0,X0,OK,4.0,    
4.50,0.795,1627.2,155.7,511.1,8.35,2.24,-3.26,125.0,-1040.4,14.3,3.3,-34.3,-0.0,X0,OK,4.0,    
5.00,0.780,1599.1,162.2,502.0,8.42,2.23,-2.90,126.1,-1141.7,12.1,3.0,-33.7,-0.0,X0,OK,4.0,    
5.50,0.765,1570.6,167.2,492.0,8.60,2.22,-2.59,125.8,-1259.4,10.1,2.8,-32.6,-0.0,X0,OK,4.0,    
6.00,0.750,1542.1,170.8,481.2,8.61,2.21,-2.33,125.5,-1328.5,8.5,2.8,-28.8,-0.0,X0,OK,4.0,    
6.50,0.735,1513.5,173.2,470.0,8.54,2.18,-2.10,125.3,-1357.9,6.9,2.7,-25.9,-0.0,X0,OK,4.0,    
7.00,0.720,1484.9,174.5,458.5,8.48,2.15,-1.91,125.2,-1399.4,5.1,2.4,-25.4,-0.0,X0,OK,4.0,    
7.50,0.704,1456.4,174.7,446.6,8.54,2.12,-1.75,125.0,-1445.5,3.4,2.2,-25.0,-0.0,X0,OK,4.0,    
8.00,0.689,1427.9,173.6,434.4,8.52,2.08,-1.64,124.9,-1488.5,1.9,2.2,-23.0,-0.0,X0,OK,4.0,    
8.50,0.674,1399.5,171.6,421.9,8.67,2.04,-1.57,124.6,-1513.3,1.0,2.4,-19.1,-0.0,X0,OK,4.0,    
9.00,0.658,1371.3,168.7,409.2,8.69,1.99,-1.53,123.9,-1525.4,0.5,2.5,-14.8,-0.0,X0,OK,4.0,    
9.50,0.643,1343.3,165.2,396.5,8.60,1.94,-1.52,123.3,-1525.1,0.5,2.6,-9.2,-0.0,X0,OK,4.0,    
10.00,0.628,1315.6,161.3,383.9,8.43,1.88,-1.53,122.8,-1514.0,0.9,2.5,-3.0,-0.0,XX,OK,4.0,    
10.50,0.613,1287.8,157.3,371.3,8.35,1.83,-1.54,123.3,-1501.2,1.0,2.5,0.6,-0.0,XX,--,2.0,(AA)_H_LULX    
11.00,0.598,1259.8,153.3,358.9,8.30,1.77,-1.55,125.4,-1462.8,0.8,2.7,0.2,-0.0,XX,--,2.0,(AA)_H_LULX    
11.50,0.582,1231.1,149.0,346.9,8.24,1.72,-1.57,127.8,-1399.6,0.6,2.9,-0.9,-0.0,XX,--,2.0,(AA)_H_LULX    
12.00,0.566,1202.0,144.5,335.6,8.22,1.69,-1.61,129.0,-1313.8,1.1,3.2,0.9,-0.0,XX,--,2.0,(AA)_H_LULX    
12.50,0.550,1172.7,140.1,325.0,8.17,1.66,-1.64,129.0,-1220.9,1.6,3.5,2.3,-0.0,XX,--,2.0,(AA)_H_LULX    
13.00,0.534,1143.3,135.7,315.2,8.11,1.64,-1.66,128.9,-1133.4,1.7,3.8,1.8,-0.0,XX,--,2.0,(AA)_H_LULX    
13.50,0.518,1114.1,131.5,306.0,8.09,1.63,-1.68,127.8,-1068.0,1.6,3.9,0.5,-0.0,XX,--,2.0,(AA)_H_LULX    
14.00,0.502,1085.2,127.3,297.3,8.08,1.63,-1.71,126.2,-1032.4,1.6,4.0,-0.0,-0.0,XX,--,2.0,(AA)_H_LULX    
14.50,0.487,1056.7,123.2,288.8,8.05,1.63,-1.73,124.2,-1019.7,1.9,4.0,1.0,-0.0,IM,--,2.0,(AA)_H_LULX    
15.00,0.471,1028.8,119.2,280.2,8.21,1.63,-1.75,122.7,-1037.4,2.2,4.0,1.7,0.0,IM,--,2.0,(AA)_H_LULX _H_LULIM   
15.50,0.456,1001.2,115.2,271.5,8.48,1.62,-1.78,121.0,-1060.6,2.2,4.2,1.4,0.0,IM,--,2.0,(AA)_H_LULX _H_LULIM   
16.00,0.442,974.0,111.4,262.5,8.65,1.60,-1.80,119.5,-1102.2,2.1,4.1,1.1,-0.0,IM,--,2.0,(AA)_H_LULX _H_LULIM   
16.50,0.427,947.3,107.6,253.1,8.80,1.57,-1.82,118.2,-1168.3,2.4,3.9,2.7,0.0,IM,--,2.0,(AA)_H_LULX _H_LULIM   
17.00,0.413,920.6,103.9,243.0,8.65,1.52,-1.84,118.5,-1234.9,3.3,3.4,6.5,-0.0,IM,--,2.0,(AA)_H_LULX (SLO)_H_LULIM   
17.50,0.398,893.7,100.5,232.5,8.40,1.46,-1.84,120.3,-1291.4,3.8,2.9,8.3,-0.0,IM,--,2.0,(AA)_H_LULX (SLO)_H_LULIM   
18.00,0.383,866.2,97.4,221.6,8.49,1.40,-1.80,122.9,-1318.8,3.8,3.0,6.6,-0.0,IM,--,2.0,(AA)_H_LULX (SLO)_H_LULIM   
18.50,0.368,838.0,94.5,210.7,8.69,1.33,-1.75,125.2,-1282.7,3.4,3.4,2.4,-0.0,IM,--,2.0,(AA)_H_LULX (SLO)_H_LULIM   
19.00,0.352,809.3,91.6,200.3,8.52,1.28,-1.69,126.6,-1201.8,3.1,3.6,-0.4,-0.0,IM,--,2.0,(AA)_H_LULX (SLO)_H_LULIM   
19.50,0.336,780.6,88.6,190.5,8.30,1.23,-1.63,125.3,-1162.1,3.0,3.5,-1.8,-0.0,IM,--,2.0,(AA)_H_LULX (SLO)_H_LULIM   
20.00,0.321,752.2,85.6,180.9,8.17,1.18,-1.56,123.7,-1167.8,2.8,3.4,-3.8,-0.0,IM,--,2.0,(AA)_H_LULX (SLO)_H_LULIM   
20.50,0.306,724.2,82.5,171.0,8.34,1.12,-1.51,122.9,-1198.4,2.6,3.5,-5.1,0.0,IM,--,2.0,(AA)_H_LULX (SLO)_H_LULIM   
21.00,0.291,696.4,79.2,160.9,8.78,1.04,-1.47,122.5,-1224.5,2.6,3.7,-4.6,0.0,IM,--,2.0,(AA)_H_LULX (SLO)_H_LULIM   
21.50,0.276,668.7,75.7,150.6,8.84,0.95,-1.44,122.1,-1243.1,2.3,3.7,-4.4,0.0,IM,--,2.0,(AA)_H_LULX (SLO)_H_LULIM   
22.00,0.261,641.1,72.2,140.2,8.56,0.85,-1.43,122.2,-1273.1,1.7,3.4,-5.4,0.0,IM,--,2.0,(AA)_H_LULX (SLO)_H_LULIM   
22.50,0.246,613.4,68.3,129.4,8.56,0.73,-1.44,123.2,-1317.9,1.4,3.2,-5.2,0.0,IC,--,2.0,(AA)_H_LULX (SLO)_H_LULIM   
23.00,0.230,585.3,64.2,118.4,8.52,0.58,-1.47,125.5,-1305.3,1.9,3.4,-2.8,0.0,IC,--,2.0,(AA)_H_LULX (SLO)_H_LULIM  (H)LULIC 
23.50,0.215,556.6,59.9,107.7,8.39,0.44,-1.52,127.9,-1258.3,2.0,3.5,-0.9,0.0,IC,--,2.0,(AA)_H_LULX (SLO)_H_LULIM  (H)LULIC 
24.00,0.199,527.3,55.6,97.4,8.26,0.30,-1.58,129.6,-1197.6,1.8,3.7,-0.0,0.0,IC,--,2.0,(AA)_H_LULX (SLO)_H_LULIM  (H)LULIC 
24.50,0.182,497.7,51.1,87.7,8.35,0.17,-1.65,130.6,-1125.9,1.8,4.1,2.6,-0.0,IC,--,2.0,(AA)_H_LULX (SLO)_H_LULIM  (H)LULIC 
25.00,0.166,467.8,46.7,78.7,8.54,0.05,-1.72,131.2,-1038.6,2.1,4.5,5.2,-0.0,IC,--,2.0,(AA)_H_LULX (SLO)_H_LULIM  (H)LULIC 
25.50,0.150,437.9,42.6,70.4,8.47,-0.06,-1.76,130.9,-959.2,2.2,4.8,5.3,-0.0,IC,--,2.0,(AA)_H_LULX (SLO)_H_LULIM  (H)LULIC 
26.00,0.134,408.1,38.7,62.5,8.43,-0.16,-1.76,129.6,-922.3,2.3,4.7,3.9,-0.0,IC,--,2.0,(AA)_H_LULX (SLO)_H_LULIM  (H)LULIC 
26.50,0.117,378.5,34.9,54.9,8.41,-0.27,-1.75,129.0,-908.5,2.4,4.7,2.7,-0.0,IC,--,2.0,(AA)_H_LULX (SLO)_H_LULIM  (H)LULIC 
27.00,0.101,349.0,31.2,47.5,8.12,-0.40,-1.72,129.8,-881.5,2.7,4.8,2.0,-0.0,IC,--,2.0,(AA)_H_LULX (SLO)_H_LULIM  (H)LULIC 
27.50,0.085,319.1,27.6,40.3,8.21,-0.53,-1.67,131.5,-832.5,3.0,5.0,1.5,-0.0,IC,--,2.0,(AA)_H_LULX (SLO)_H_LULIM  \(H)LULIC 
28.00,0.069,288.7,24.0,33.6,8.67,-0.65,-1.55,132.5,-751.9,2.8,5.7,-1.0,-0.0,IC,--,2.0,(AA)_H_LULX (SLO)_H_LULIM  \(H)LULIC 
28.50,0.052,258.4,20.4,27.7,8.84,-0.74,-1.42,131.4,-670.0,2.2,6.0,-5.5,0.0,IC,--,2.0,(AA)_H_LULX (SLO)_H_LULIM  \(H)LULIC 
29.00,0.036,228.5,16.5,22.3,8.54,-0.82,-1.34,129.7,-621.4,1.8,5.9,-7.7,0.0,AR,--,2.0,(AA)_H_LULX (SLO)_H_LULIM  \(SLO)LOLULIC 
29.50,0.020,199.0,12.4,17.2,7.87,-0.90,-1.39,128.7,-623.0,1.6,5.4,-7.7,0.0,AR,--,2.0,(AA)_H_LULX (SLO)_H_LULIM  \(SLO)LOLULIC LOLULAR
30.00,0.004,169.7,8.0,11.8,8.11,-1.09,-1.66,128.3,-668.0,1.7,5.4,-5.2,0.0,AR,--,2.0,(AA)_H_LULX (SLO)_H_LULIM  \(SLO)LOLULIC LOLULAR
30.50,-0.012,140.5,3.5,6.2,8.99,-1.57,-2.39,127.9,-663.9,1.9,5.9,0.5,0.0,AR,--,2.0,(AA)_H_LULX (SLO)_H_LULIM  \(SLO)LOLULIC LOLULAR
31.00,-0.028,111.4,-1.0,1.3,7.25,-2.67,-4.44,127.5,-601.5,2.3,4.4,2.6,0.0,AR,--,2.0,(AA)_H_LULX (SLO)_H_LULIM  \(SLO)LOLULIC LOLULAR
31.50,-0.044,82.2,-5.1,-0.3,6.37,-5.39,-148.41,127.6,-547.1,2.3,3.7,2.0,0.0,AR,--,2.0,(AA)_H_LULX (SLO)_H_LULIM  \(SLO)LOLULIC LOLULAR
32.00,-0.060,53.5,-9.3,-0.7,2.13,-3.89,-178.03,126.0,-276.3,2.2,0.8,0.2,0.0,AR,--,2.0,(AA)_H_LULX (SLO)_H_LULIM  \(SLO)LOLULIC LOLULAR
