#Time,Rho,X,Z,Alt,AoA,GSE,LUE,Vtot,Vy,Gamma,Pitch,Roll,Yaw,Step,Grade,Points,Details
0.00,24.329,45064.3,3756.3,339.3,4.86,-3.37,-4.36,257.0,1286.3,55.3,7.5,4.6,0.1,n/a,OK,4.0,    
0.50,24.315,45043.6,3695.0,350.4,5.04,-3.36,-4.43,255.0,1385.9,55.1,8.0,4.3,0.1,n/a,OK,4.0,    
1.00,24.302,45022.9,3634.2,362.3,4.96,-3.36,-4.51,253.0,1473.3,55.0,8.1,4.0,0.1,n/a,OK,4.0,    
1.50,24.288,45002.3,3574.0,374.8,4.80,-3.35,-4.58,251.1,1523.0,54.8,8.2,3.7,0.1,n/a,OK,4.0,    
2.00,24.274,44981.7,3514.2,387.6,4.14,-3.35,-4.66,249.4,1504.2,54.6,7.5,5.0,0.1,n/a,OK,4.0,    
2.50,24.261,44961.2,3454.9,398.8,2.72,-3.35,-4.73,247.9,1098.4,53.8,5.0,24.2,0.1,n/a,OK,4.0,    
3.00,24.247,44940.1,3396.1,405.8,3.16,-3.34,-4.80,246.5,614.2,52.0,4.4,48.7,0.0,n/a,OK,4.0,    
3.50,24.233,44917.5,3338.4,410.3,5.54,-3.34,-4.87,244.1,540.9,48.5,6.5,51.9,0.0,n/a,OK,4.0,    
4.00,24.217,44892.8,3282.6,416.0,7.33,-3.34,-4.94,240.7,852.2,44.7,8.5,48.7,0.0,n/a,OK,4.0,    
4.50,24.200,44865.9,3228.9,423.8,6.53,-3.34,-5.01,237.7,975.4,43.2,8.0,44.7,0.0,n/a,OK,4.0,    
5.00,24.183,44837.8,3176.7,431.8,6.48,-3.33,-5.07,235.5,951.6,41.5,7.6,43.1,0.0,n/a,OK,4.0,    
5.50,24.166,44808.3,3126.0,439.6,5.97,-3.33,-5.13,233.1,866.8,39.7,6.8,45.2,0.0,n/a,OK,4.0,    
6.00,24.147,44777.6,3076.9,445.9,6.19,-3.33,-5.19,231.0,670.8,37.6,6.4,46.6,0.0,n/a,OK,4.0,    
6.50,24.128,44745.3,3029.6,451.3,7.03,-3.32,-5.25,228.4,644.1,34.8,7.1,45.8,0.0,n/a,OK,4.0,    
7.00,24.108,44711.5,2984.3,456.8,7.17,-3.32,-5.31,225.7,666.4,32.6,7.4,44.5,0.0,n/a,OK,4.0,    
7.50,24.088,44676.5,2941.0,462.2,6.31,-3.32,-5.36,223.5,613.5,31.2,6.5,45.9,0.0,n/a,OK,4.0,    
8.00,24.067,44640.4,2899.2,466.2,5.24,-3.32,-5.41,221.7,260.0,29.2,4.1,59.7,0.0,n/a,OK,4.0,    
8.50,24.045,44603.0,2859.3,465.9,5.37,-3.32,-5.46,220.3,-375.9,26.4,2.3,70.3,-0.0,n/a,OK,4.0,    
9.00,24.023,44564.0,2821.8,460.7,10.22,-3.32,-5.50,218.0,-787.8,18.4,3.5,71.2,-0.0,n/a,OK,4.0,    
9.50,23.999,44522.5,2789.0,454.4,17.09,-3.32,-5.54,211.8,-657.5,5.9,6.8,68.2,-0.0,n/a,OK,4.0,    
10.00,23.975,44478.8,2763.1,450.1,18.98,-3.32,-5.57,204.3,-369.2,1.7,8.6,64.9,-0.0,n/a,OK,4.0,    
10.50,23.950,44434.2,2743.0,447.9,16.98,-3.32,-5.59,198.0,-170.6,4.2,9.2,59.6,-0.0,n/a,OK,4.0,    
11.00,23.926,44389.5,2727.2,447.2,12.16,-3.32,-5.61,194.3,41.9,0.5,10.6,38.9,-0.0,n/a,OK,4.0,    
11.50,23.901,44344.9,2713.1,449.5,9.29,-3.32,-5.62,192.3,592.5,7.3,11.1,9.9,-0.0,n/a,OK,4.0,    
12.00,23.877,44300.8,2699.1,457.0,7.80,-3.32,-5.64,190.3,1200.6,10.0,10.5,-13.3,-0.0,n/a,OK,4.0,    
12.50,23.853,44257.6,2684.3,468.4,6.72,-3.32,-5.65,188.3,1476.1,11.5,10.0,-29.9,0.0,n/a,OK,4.0,    
13.00,23.830,44215.4,2668.2,480.8,7.04,-3.31,-5.67,186.5,1477.3,12.3,11.0,-35.1,0.1,n/a,OK,4.0,    
13.50,23.807,44174.1,2651.1,493.1,8.70,-3.31,-5.69,184.3,1494.6,13.4,12.9,-32.0,0.1,n/a,OK,4.0,    
14.00,23.785,44133.8,2633.2,506.0,9.81,-3.30,-5.71,181.8,1603.5,14.9,14.2,-27.9,0.1,n/a,OK,4.0,    
14.50,23.763,44094.6,2614.4,519.7,9.50,-3.29,-5.73,179.2,1685.3,15.5,14.3,-21.3,0.1,n/a,OK,4.0,    
15.00,23.742,44056.4,2595.0,533.9,7.91,-3.29,-5.75,177.0,1693.2,11.8,12.6,5.1,0.1,n/a,OK,4.0,    
15.50,23.721,44018.5,2576.4,547.5,5.38,-3.28,-5.78,175.1,1525.6,8.4,8.4,28.3,0.1,n/a,OK,4.0,    
16.00,23.700,43980.2,2559.2,558.2,2.12,-3.28,-5.80,174.0,941.1,9.7,4.3,34.4,0.0,n/a,OK,4.0,    
16.50,23.679,43941.8,2542.5,562.6,1.57,-3.28,-5.81,173.7,80.0,11.4,2.3,38.8,0.0,n/a,OK,4.0,    
17.00,23.657,43903.5,2525.8,560.5,4.91,-3.28,-5.83,173.3,-541.1,9.0,4.2,51.7,-0.0,n/a,OK,4.0,    
17.50,23.636,43864.9,2510.5,554.9,10.78,-3.28,-5.85,171.8,-699.3,2.3,8.2,54.6,-0.1,n/a,OK,4.0,    
18.00,23.615,43826.0,2498.3,550.1,15.48,-3.28,-5.86,168.5,-430.7,5.1,11.7,50.3,-0.1,n/a,OK,4.0,    
18.50,23.593,43787.1,2489.4,547.7,15.56,-3.28,-5.87,165.1,-142.5,8.6,12.2,45.1,-0.0,n/a,OK,4.0,    
19.00,23.572,43748.5,2483.2,547.1,12.73,-3.28,-5.88,162.6,-49.9,8.8,10.5,40.0,-0.0,n/a,OK,4.0,    
19.50,23.552,43710.2,2478.7,546.4,10.41,-3.28,-5.88,161.1,-103.5,6.1,9.6,22.7,-0.0,n/a,OK,4.0,    
20.00,23.531,43672.2,2474.9,545.9,9.57,-3.28,-5.88,159.9,13.3,2.1,9.5,0.3,-0.0,n/a,OK,4.0,    
20.50,23.511,43634.5,2470.6,546.5,8.23,-3.28,-5.88,159.5,100.8,1.4,8.4,-10.1,-0.0,n/a,OK,4.0,    
21.00,23.490,43596.6,2466.0,547.0,7.57,-3.28,-5.89,161.2,9.5,2.2,7.6,-10.8,0.0,n/a,OK,4.0,    
21.50,23.469,43558.1,2461.2,546.8,8.09,-3.28,-5.89,164.3,-52.3,2.8,7.9,-7.9,0.0,n/a,OK,4.0,    
22.00,23.448,43518.8,2456.3,546.5,8.80,-3.28,-5.90,167.5,3.5,2.9,8.8,-4.3,0.0,n/a,OK,4.0,    
22.50,23.426,43478.8,2451.2,547.1,9.21,-3.28,-5.90,170.3,157.2,2.6,9.6,-2.5,0.0,n/a,OK,4.0,    
23.00,23.404,43438.0,2446.0,549.2,9.01,-3.28,-5.90,173.0,355.6,2.1,10.0,-2.4,0.0,n/a,OK,4.0,    
23.50,23.381,43396.6,2440.6,552.8,8.35,-3.28,-5.91,175.5,510.5,1.5,9.7,-3.2,-0.0,n/a,OK,4.0,    
24.00,23.359,43354.6,2434.9,557.4,7.43,-3.28,-5.91,178.2,563.8,1.1,8.9,-4.5,-0.0,n/a,OK,4.0,    
24.50,23.335,43312.0,2428.9,562.0,7.08,-3.27,-5.92,181.0,553.1,0.8,8.5,-5.2,-0.0,n/a,OK,4.0,    
25.00,23.312,43268.6,2422.6,566.7,7.01,-3.27,-5.92,183.9,573.6,0.5,8.5,-5.7,-0.0,n/a,OK,4.0,    
25.50,23.288,43224.5,2415.9,571.6,6.79,-3.27,-5.93,186.6,596.2,0.3,8.3,-6.0,-0.0,n/a,OK,4.0,    
26.00,23.264,43179.8,2408.9,576.6,6.33,-3.27,-5.93,189.5,583.9,0.1,7.9,-6.1,0.0,n/a,OK,4.0,    
26.50,23.239,43134.3,2401.5,581.2,6.00,-3.26,-5.94,192.5,526.5,0.1,7.4,-5.9,0.0,n/a,OK,4.0,    
27.00,23.214,43088.1,2393.8,585.4,5.99,-3.26,-5.95,195.5,484.0,0.3,7.3,-5.2,0.0,n/a,OK,4.0,    
27.50,23.188,43041.2,2385.8,589.5,6.27,-3.26,-5.95,198.4,512.6,0.6,7.6,-5.3,0.0,n/a,OK,4.0,    
28.00,23.162,42993.6,2377.4,594.1,6.27,-3.26,-5.96,200.9,594.9,0.9,7.8,-5.8,0.0,n/a,OK,4.0,    
28.50,23.136,42945.8,2368.7,599.2,6.03,-3.26,-5.97,200.7,602.9,1.1,7.5,-6.3,0.0,n/a,OK,4.0,    
29.00,23.110,42898.2,2359.8,603.9,5.88,-3.25,-5.98,199.4,536.2,1.3,7.2,-6.6,0.0,n/a,OK,4.0,    
29.50,23.085,42850.9,2350.7,608.2,5.94,-3.25,-5.99,199.2,474.5,1.6,7.1,-6.8,0.0,n/a,OK,4.0,    
30.00,23.059,42803.6,2341.3,612.0,6.17,-3.25,-5.99,199.6,454.7,1.8,7.2,-7.0,0.0,n/a,OK,4.0,    
30.50,23.033,42756.2,2331.5,615.8,6.26,-3.25,-6.00,200.0,467.2,2.1,7.3,-6.6,0.0,n/a,OK,4.0,    
31.00,23.007,42708.8,2321.6,619.8,6.32,-3.25,-6.01,200.3,487.1,2.2,7.4,-4.7,0.0,n/a,OK,4.0,    
31.50,22.981,42661.3,2311.4,624.1,6.72,-3.24,-6.02,200.7,561.2,2.4,8.0,-3.9,0.0,n/a,OK,4.0,    
32.00,22.955,42613.7,2301.0,629.5,7.26,-3.24,-6.03,201.9,767.8,2.7,9.0,-4.3,0.0,n/a,OK,4.0,    
32.50,22.929,42565.9,2290.3,636.9,7.09,-3.24,-6.05,202.9,1008.9,3.1,9.5,-4.8,0.0,n/a,OK,4.0,    
33.00,22.903,42517.9,2279.3,646.0,6.50,-3.23,-6.06,204.2,1162.3,2.9,9.3,-1.6,0.0,n/a,OK,4.0,    
33.50,22.877,42469.5,2268.2,656.1,6.20,-3.23,-6.07,206.2,1258.8,2.5,9.3,2.2,0.0,n/a,OK,4.0,    
34.00,22.850,42420.6,2257.1,667.2,6.92,-3.23,-6.08,208.0,1452.0,2.5,10.4,1.7,0.0,n/a,OK,4.0,    
34.50,22.823,42371.3,2246.0,680.7,7.17,-3.22,-6.09,209.7,1818.2,2.9,11.5,-1.5,0.0,n/a,OK,4.0,    
35.00,22.796,42321.6,2234.6,697.2,6.44,-3.21,-6.10,211.9,2106.7,3.2,11.4,-3.4,0.0,n/a,OK,4.0,    
35.50,22.768,42271.4,2222.9,715.2,5.49,-3.20,-6.12,214.1,2200.8,3.2,10.7,-3.9,0.0,n/a,OK,4.0,    
36.00,22.741,42220.8,2211.0,733.5,5.16,-3.20,-6.13,215.6,2182.4,3.3,10.3,-3.9,0.0,n/a,OK,4.0,    
36.50,22.713,42170.0,2198.9,751.7,5.18,-3.19,-6.14,216.7,2169.6,3.4,10.2,-4.0,0.0,n/a,OK,4.0,    
37.00,22.685,42118.8,2186.5,769.8,5.15,-3.18,-6.15,217.7,2177.5,3.6,10.2,-4.1,0.0,n/a,OK,4.0,    
37.50,22.657,42067.5,2173.9,787.9,4.86,-3.17,-6.17,218.7,2154.3,3.7,9.9,-4.3,0.0,n/a,OK,4.0,    
38.00,22.629,42016.0,2161.1,805.4,4.41,-3.17,-6.18,219.4,2025.2,3.8,9.1,-4.5,0.0,n/a,OK,4.0,    
38.50,22.601,41964.3,2148.2,821.8,4.75,-3.16,-6.20,220.3,1930.8,4.0,9.3,-4.7,0.0,n/a,OK,4.0,    
39.00,22.572,41912.3,2135.0,837.9,5.23,-3.15,-6.21,221.2,1962.7,4.3,9.8,-5.0,0.0,n/a,OK,4.0,    
39.50,22.544,41860.3,2121.5,854.6,5.25,-3.14,-6.22,222.0,2036.4,4.5,10.0,-5.3,0.0,n/a,OK,4.0,    
40.00,22.515,41808.1,2107.8,871.8,5.13,-3.14,-6.24,222.7,2081.1,4.7,10.0,-5.5,0.0,n/a,OK,4.0,    
40.50,22.487,41755.8,2093.8,889.2,5.02,-3.13,-6.26,223.2,2098.7,4.9,9.9,-5.8,0.0,n/a,OK,4.0,    
41.00,22.458,41703.5,2079.5,906.7,4.99,-3.12,-6.27,223.7,2109.9,5.2,9.9,-6.0,0.0,n/a,OK,4.0,    
41.50,22.430,41651.0,2065.1,924.4,4.97,-3.11,-6.29,224.3,2124.2,5.4,9.9,-6.3,0.0,n/a,OK,4.0,    
42.00,22.401,41598.5,2050.3,942.1,5.03,-3.10,-6.30,224.9,2136.4,5.7,9.9,-6.5,0.0,n/a,OK,4.0,    
42.50,22.372,41546.0,2035.2,960.0,5.00,-3.10,-6.32,225.4,2158.7,5.9,9.9,-6.7,0.0,n/a,OK,4.0,    
43.00,22.343,41493.4,2019.8,978.1,4.95,-3.09,-6.34,226.0,2177.7,6.2,9.9,-7.0,0.0,n/a,OK,4.0,    
43.50,22.314,41440.7,2004.1,996.3,4.95,-3.08,-6.36,226.6,2192.4,6.4,9.9,-7.2,0.0,n/a,OK,4.0,    
44.00,22.286,41387.9,1988.0,1014.6,4.89,-3.07,-6.38,227.0,2206.6,6.7,9.9,-7.4,0.0,n/a,OK,4.0,    
44.50,22.257,41335.2,1971.7,1033.0,4.92,-3.06,-6.39,227.1,2208.9,7.0,9.9,-7.6,0.0,n/a,OK,4.0,    
45.00,22.228,41282.6,1955.1,1051.4,4.90,-3.05,-6.41,226.9,2206.8,7.3,9.8,-7.8,0.0,n/a,OK,4.0,    
45.50,22.199,41230.2,1938.1,1069.8,4.88,-3.05,-6.43,226.9,2202.0,7.6,9.8,-8.0,0.0,n/a,OK,4.0,    
46.00,22.171,41177.8,1920.9,1088.1,4.87,-3.04,-6.46,227.0,2196.5,7.9,9.8,-8.3,0.0,n/a,OK,4.0,    
46.50,22.142,41125.5,1903.3,1106.4,4.88,-3.03,-6.48,227.1,2192.6,8.2,9.8,-8.1,0.0,n/a,OK,4.0,    
47.00,22.113,41073.2,1885.3,1124.7,5.06,-3.02,-6.50,227.2,2209.4,7.5,10.0,4.4,0.0,n/a,OK,4.0,    
47.50,22.085,41020.9,1867.6,1143.3,4.90,-3.01,-6.52,227.1,2253.4,5.9,9.8,21.2,0.0,n/a,OK,4.0,    
48.00,22.056,40968.3,1850.9,1162.1,4.78,-3.00,-6.54,227.0,2246.5,4.8,9.7,28.5,-0.0,n/a,OK,4.0,    
48.50,22.027,40915.4,1835.5,1180.8,5.02,-3.00,-6.56,226.9,2245.1,3.8,10.0,29.7,-0.0,n/a,OK,4.0,    
49.00,21.998,40862.2,1821.1,1199.5,5.35,-2.99,-6.57,226.3,2245.8,2.6,10.3,29.1,-0.0,n/a,OK,4.0,    
49.50,21.969,40809.0,1807.9,1218.2,5.35,-2.98,-6.59,225.2,2246.6,1.5,10.3,28.7,-0.0,n/a,OK,4.0,    
50.00,21.940,40755.8,1795.8,1236.2,2.30,-2.97,-6.60,224.6,1907.8,2.2,6.8,28.4,-0.0,n/a,OK,4.0,    
50.50,21.911,40702.5,1783.8,1248.1,0.70,-2.96,-6.62,225.3,907.6,3.0,3.1,28.8,-0.0,n/a,OK,4.0,    
51.00,21.882,40648.8,1771.8,1252.5,2.41,-2.96,-6.63,226.1,176.4,1.8,2.9,29.3,-0.0,n/a,OK,4.0,    
51.50,21.852,40594.8,1760.4,1252.3,4.00,-2.96,-6.64,226.3,-165.9,0.2,3.6,29.4,-0.0,n/a,OK,4.0,    
52.00,21.823,40540.5,1750.1,1250.3,4.82,-2.96,-6.65,226.6,-299.3,1.2,4.0,29.3,-0.0,n/a,OK,4.0,    
52.50,21.793,40486.0,1741.0,1247.7,5.21,-2.96,-6.66,227.0,-333.5,2.6,4.2,29.3,-0.0,n/a,OK,4.0,    
53.00,21.763,40431.2,1733.1,1244.9,5.47,-2.96,-6.67,227.4,-324.0,3.9,4.4,29.2,-0.0,n/a,OK,4.0,    
53.50,21.733,40376.1,1726.5,1242.3,5.59,-2.96,-6.68,228.0,-282.6,5.2,4.6,29.2,-0.0,n/a,OK,4.0,    
54.00,21.703,40320.7,1721.2,1240.2,5.63,-2.96,-6.68,228.8,-232.6,6.4,4.7,29.2,-0.0,n/a,OK,4.0,    
54.50,21.673,40264.9,1717.2,1238.4,5.64,-2.96,-6.68,229.5,-183.5,7.6,4.8,29.2,-0.0,n/a,OK,4.0,    
55.00,21.643,40208.9,1714.7,1237.1,5.62,-2.96,-6.68,230.3,-138.1,8.8,4.9,29.2,-0.0,n/a,OK,4.0,    
55.50,21.613,40152.7,1713.5,1236.1,5.59,-2.96,-6.68,231.0,-100.4,9.9,4.9,29.2,-0.0,n/a,OK,4.0,    
56.00,21.582,40096.3,1713.7,1235.4,5.53,-2.96,-6.68,231.9,-66.8,11.0,4.9,29.2,-0.0,n/a,OK,4.0,    
56.50,21.552,40039.6,1715.2,1234.9,5.43,-2.96,-6.67,232.9,-45.8,12.1,4.9,29.2,-0.0,n/a,OK,4.0,    
57.00,21.521,39982.8,1718.2,1234.6,5.33,-2.96,-6.67,233.9,-30.6,13.2,4.8,29.2,-0.0,n/a,OK,4.0,    
57.50,21.490,39925.7,1722.4,1234.4,5.26,-2.96,-6.66,234.9,-26.3,14.3,4.8,29.2,-0.0,n/a,OK,4.0,    
58.00,21.460,39868.5,1728.0,1234.2,5.20,-2.96,-6.64,235.8,-24.7,15.4,4.7,29.2,-0.0,n/a,OK,4.0,    
58.50,21.429,39811.2,1735.0,1234.0,5.18,-2.96,-6.63,236.8,-24.1,16.5,4.7,29.2,-0.0,n/a,OK,4.0,    
59.00,21.398,39753.9,1743.3,1233.8,5.11,-2.96,-6.62,237.7,-21.2,17.7,4.7,29.3,-0.0,n/a,OK,4.0,    
59.50,21.367,39696.5,1752.9,1233.6,5.07,-2.96,-6.60,238.0,-27.6,18.8,4.6,29.3,-0.0,n/a,OK,4.0,    
60.00,21.337,39639.4,1763.8,1233.3,5.09,-2.96,-6.58,237.9,-47.1,19.9,4.6,29.3,-0.0,n/a,OK,4.0,    
60.50,21.306,39582.5,1776.0,1232.9,5.13,-2.96,-6.56,237.9,-56.7,21.0,4.6,29.3,-0.0,n/a,OK,4.0,    
61.00,21.276,39525.8,1789.5,1232.4,5.14,-2.95,-6.53,238.1,-57.0,22.1,4.6,29.3,-0.0,n/a,OK,4.0,    
61.50,21.246,39469.4,1804.3,1231.9,5.16,-2.95,-6.51,238.5,-54.0,23.3,4.6,29.3,-0.0,n/a,OK,4.0,    
62.00,21.216,39413.3,1820.4,1231.5,5.16,-2.95,-6.48,238.8,-48.2,24.4,4.7,29.3,-0.0,n/a,OK,4.0,    
62.50,21.187,39357.4,1837.8,1231.1,5.15,-2.95,-6.45,239.0,-44.4,25.5,4.7,29.3,-0.1,n/a,OK,4.0,    
63.00,21.157,39301.9,1856.5,1230.7,5.20,-2.95,-6.42,239.1,-44.2,26.6,4.7,29.3,-0.1,n/a,OK,4.0,    
63.50,21.128,39246.8,1876.4,1230.4,5.21,-2.95,-6.39,239.3,-33.5,27.8,4.7,29.3,-0.1,n/a,OK,4.0,    
64.00,21.099,39192.1,1897.7,1230.2,5.17,-2.95,-6.35,239.6,-23.4,28.9,4.7,29.3,-0.1,n/a,OK,4.0,    
64.50,21.070,39137.8,1920.2,1230.0,5.16,-2.95,-6.32,239.8,-20.8,30.0,4.7,29.3,-0.1,n/a,OK,4.0,    
65.00,21.042,39083.9,1944.0,1229.8,5.17,-2.95,-6.28,240.0,-20.9,31.1,4.7,29.3,-0.1,n/a,OK,4.0,    
65.50,21.014,39030.5,1969.0,1229.7,5.15,-2.95,-6.24,240.3,-17.6,32.3,4.8,29.3,-0.1,n/a,OK,4.0,    
66.00,20.986,38977.6,1995.3,1229.5,5.15,-2.95,-6.19,240.6,-17.2,33.4,4.8,29.3,-0.1,n/a,OK,4.0,    
66.50,20.958,38925.2,2022.8,1229.4,5.15,-2.95,-6.15,241.0,-21.6,34.5,4.8,29.3,-0.1,n/a,OK,4.0,    
67.00,20.931,38873.3,2051.5,1229.2,5.18,-2.95,-6.10,241.2,-22.6,35.7,4.8,29.3,-0.1,n/a,OK,4.0,    
67.50,20.904,38822.0,2081.4,1229.0,5.19,-2.95,-6.06,241.4,-17.7,36.8,4.8,29.3,-0.1,n/a,OK,4.0,    
68.00,20.878,38771.3,2112.5,1228.9,5.20,-2.95,-6.01,241.5,-14.2,37.9,4.8,29.3,-0.1,n/a,OK,4.0,    
68.50,20.852,38721.3,2144.7,1228.8,5.19,-2.95,-5.95,241.8,-9.5,39.1,4.8,29.3,-0.1,n/a,OK,4.0,    
69.00,20.826,38671.8,2178.1,1228.7,5.15,-2.94,-5.90,242.2,-6.1,40.2,4.8,29.3,-0.1,n/a,OK,4.0,    
69.50,20.801,38623.0,2212.7,1228.7,5.19,-2.94,-5.85,242.7,-6.7,41.3,4.8,29.3,-0.1,n/a,OK,4.0,    
70.00,20.776,38574.9,2248.5,1228.6,5.22,-2.94,-5.79,243.2,-1.4,42.4,4.9,28.7,-0.1,n/a,OK,4.0,    
70.50,20.752,38527.4,2285.4,1228.7,5.22,-2.94,-5.73,243.5,24.3,43.2,5.0,25.2,-0.1,n/a,OK,4.0,    
71.00,20.728,38480.5,2323.2,1229.1,5.13,-2.94,-5.67,243.7,70.6,43.6,5.1,19.3,-0.1,n/a,OK,4.0,    
71.50,20.704,38434.1,2361.7,1229.9,4.96,-2.94,-5.61,243.9,122.8,43.8,5.1,12.9,-0.1,n/a,OK,4.0,    
72.00,20.681,38388.0,2400.7,1231.1,4.57,-2.94,-5.54,243.9,151.7,43.8,4.8,7.4,-0.1,n/a,OK,4.0,    
72.50,20.657,38342.1,2439.9,1232.2,4.24,-2.94,-5.48,244.3,103.8,43.8,4.4,3.2,-0.1,n/a,OK,4.0,    
73.00,20.634,38296.2,2479.3,1232.8,4.16,-2.94,-5.42,244.4,33.8,43.8,4.2,0.5,-0.1,n/a,OK,4.0,    
73.50,20.610,38250.4,2518.8,1232.8,4.19,-2.94,-5.36,244.3,-33.6,43.8,4.0,-1.0,-0.1,n/a,OK,4.0,    
74.00,20.587,38204.6,2558.3,1232.2,4.26,-2.94,-5.29,244.2,-95.0,43.7,4.0,-1.7,-0.1,n/a,OK,4.0,    
74.50,20.564,38158.8,2597.7,1231.3,4.33,-2.94,-5.23,244.2,-133.1,43.7,4.0,-2.0,-0.1,n/a,OK,4.0,    
75.00,20.541,38113.0,2637.2,1230.0,4.47,-2.94,-5.16,244.3,-156.4,43.6,4.1,-2.0,-0.1,n/a,OK,4.0,    
75.50,20.518,38067.1,2676.6,1228.7,4.58,-2.94,-5.10,244.2,-151.4,43.5,4.2,-1.9,-0.1,n/a,OK,4.0,    
76.00,20.494,38021.2,2715.9,1227.5,4.57,-2.94,-5.04,244.2,-137.3,43.4,4.2,-1.7,-0.1,n/a,OK,4.0,    
76.50,20.471,37975.3,2755.2,1226.4,4.57,-2.94,-4.97,244.1,-131.1,43.3,4.3,-1.4,-0.1,n/a,OK,4.0,    
77.00,20.448,37929.4,2794.5,1225.4,4.63,-2.94,-4.91,244.0,-121.3,43.3,4.3,-1.1,-0.1,n/a,OK,4.0,    
77.50,20.425,37883.4,2833.6,1224.4,4.66,-2.94,-4.84,243.9,-102.9,43.3,4.4,-0.8,-0.1,n/a,OK,4.0,    
78.00,20.402,37837.5,2872.8,1223.6,4.63,-2.94,-4.78,243.8,-81.8,43.3,4.4,-0.5,-0.1,n/a,OK,4.0,    
78.50,20.378,37791.6,2911.8,1223.0,4.58,-2.94,-4.72,243.6,-72.6,43.3,4.4,-0.2,-0.1,n/a,OK,4.0,    
79.00,20.355,37745.7,2950.9,1222.4,4.56,-2.93,-4.65,243.6,-73.6,43.3,4.4,-0.0,-0.1,n/a,OK,4.0,    
79.50,20.332,37699.7,2989.9,1221.8,4.60,-2.93,-4.59,243.5,-80.5,43.3,4.4,0.1,-0.1,n/a,OK,4.0,    
80.00,20.309,37653.8,3028.9,1221.1,4.65,-2.93,-4.52,243.5,-76.8,43.3,4.4,0.2,-0.1,n/a,OK,4.0,    
80.50,20.286,37607.9,3068.0,1220.5,4.67,-2.93,-4.46,243.6,-59.7,43.3,4.5,0.2,-0.1,n/a,OK,4.0,    
81.00,20.263,37562.0,3107.0,1220.1,4.62,-2.93,-4.39,243.6,-42.5,43.3,4.5,0.2,-0.1,n/a,OK,4.0,    
81.50,20.240,37516.0,3146.0,1219.8,4.58,-2.93,-4.33,243.7,-38.2,43.3,4.4,0.2,-0.1,n/a,OK,4.0,    
82.00,20.217,37470.1,3185.1,1219.4,4.59,-2.93,-4.26,243.8,-37.7,43.3,4.4,0.2,-0.1,n/a,OK,4.0,    
82.50,20.194,37424.1,3224.2,1219.1,4.63,-2.93,-4.20,243.9,-36.0,43.3,4.5,0.2,-0.1,n/a,OK,4.0,    
83.00,20.172,37378.1,3263.3,1218.9,4.63,-2.93,-4.13,243.8,-26.0,43.3,4.5,0.1,-0.1,n/a,OK,4.0,    
83.50,20.149,37332.2,3302.3,1218.7,4.57,-2.93,-4.06,243.7,-18.6,43.3,4.4,0.1,-0.1,n/a,OK,4.0,    
84.00,20.126,37286.2,3341.4,1218.5,4.52,-2.93,-4.00,243.6,-24.9,43.3,4.4,0.1,-0.1,n/a,OK,4.0,    
84.50,20.103,37240.3,3380.5,1218.2,4.52,-2.93,-3.93,243.6,-35.0,43.3,4.4,0.1,-0.1,n/a,OK,4.0,    
85.00,20.080,37194.4,3419.5,1217.9,4.56,-2.93,-3.87,243.6,-44.6,43.3,4.5,0.0,-0.1,n/a,OK,4.0,    
85.50,20.058,37148.5,3458.6,1217.5,4.61,-2.93,-3.80,243.5,-51.8,43.1,4.5,-3.2,-0.1,n/a,OK,4.0,    
86.00,20.035,37102.6,3497.6,1217.1,4.62,-2.93,-3.73,243.3,-48.3,41.9,4.5,-17.6,-0.1,n/a,OK,4.0,    
86.50,20.012,37056.2,3535.8,1216.7,4.60,-2.93,-3.67,242.8,-57.1,40.6,4.4,-27.1,-0.1,n/a,OK,4.0,    
87.00,19.988,37009.2,3573.0,1216.2,4.81,-2.93,-3.60,242.5,-47.3,39.4,4.7,-29.9,-0.0,n/a,OK,4.0,    
87.50,19.965,36961.4,3609.1,1215.9,5.09,-2.93,-3.54,242.2,-11.6,38.2,5.0,-29.8,-0.0,n/a,OK,4.0,    
88.00,19.941,36913.1,3644.2,1215.9,5.23,-2.93,-3.48,241.9,5.4,37.1,5.1,-29.5,-0.0,n/a,OK,4.0,    
88.50,19.916,36864.1,3678.2,1216.1,5.33,-2.93,-3.42,241.6,24.5,35.8,5.2,-29.4,-0.0,n/a,OK,4.0,    
89.00,19.891,36814.4,3711.0,1216.4,5.32,-2.92,-3.36,241.1,54.5,34.6,5.2,-29.4,-0.0,n/a,OK,4.0,    
89.50,19.866,36764.2,3742.6,1216.9,5.36,-2.92,-3.31,240.6,76.0,33.4,5.3,-28.9,-0.0,n/a,OK,4.0,    
90.00,19.840,36713.4,3772.9,1217.7,5.36,-2.92,-3.25,240.2,106.6,32.4,5.3,-28.1,-0.0,n/a,OK,4.0,    
90.50,19.814,36662.1,3802.1,1218.7,5.28,-2.92,-3.20,239.9,130.4,31.4,5.3,-27.0,-0.0,n/a,OK,4.0,    
91.00,19.788,36610.3,3830.2,1219.8,5.17,-2.92,-3.14,239.7,151.0,30.5,5.2,-25.9,-0.0,n/a,OK,4.0,    
91.50,19.762,36558.0,3857.2,1221.1,5.04,-2.92,-3.09,239.6,146.8,29.7,5.1,-24.9,-0.0,n/a,OK,4.0,    
92.00,19.735,36505.2,3883.2,1222.3,4.98,-2.92,-3.05,239.5,135.0,28.9,5.0,-23.8,-0.0,n/a,OK,4.0,    
92.50,19.708,36452.1,3908.3,1223.4,5.00,-2.92,-3.00,239.2,140.1,28.0,5.1,-22.9,-0.0,n/a,OK,4.0,    
93.00,19.680,36398.5,3932.3,1224.6,4.93,-2.91,-2.95,239.0,144.9,27.2,5.1,-22.0,-0.0,n/a,OK,4.0,    
93.50,19.653,36344.7,3955.5,1225.8,4.88,-2.91,-2.91,239.0,133.0,26.5,5.0,-21.1,-0.0,n/a,OK,4.0,    
94.00,19.625,36290.5,3977.8,1226.8,4.83,-2.91,-2.86,239.0,122.2,25.9,5.0,-20.2,-0.0,n/a,OK,4.0,    
94.50,19.597,36236.0,3999.3,1227.8,4.77,-2.91,-2.82,238.8,106.1,25.2,4.9,-19.4,-0.0,n/a,OK,4.0,    
95.00,19.569,36181.3,4020.0,1228.6,4.73,-2.91,-2.78,238.6,87.5,24.6,4.8,-18.5,-0.0,n/a,OK,4.0,    
95.50,19.541,36126.3,4039.9,1229.3,4.71,-2.91,-2.74,238.5,68.7,23.9,4.8,-17.9,-0.0,n/a,OK,4.0,    
96.00,19.512,36071.1,4059.2,1229.8,4.70,-2.91,-2.70,238.4,48.2,23.2,4.7,-18.3,-0.0,n/a,OK,4.0,    
96.50,19.483,36015.7,4077.6,1230.1,4.69,-2.91,-2.66,238.3,26.8,22.5,4.6,-19.8,-0.0,n/a,OK,4.0,    
97.00,19.455,35960.2,4095.3,1230.2,4.71,-2.91,-2.62,238.0,3.9,21.7,4.6,-21.5,-0.0,n/a,OK,4.0,    
97.50,19.426,35904.4,4112.0,1230.2,4.74,-2.90,-2.58,237.8,-19.3,20.8,4.6,-23.1,-0.0,n/a,OK,4.0,    
98.00,19.397,35848.4,4127.8,1229.9,4.89,-2.90,-2.55,237.5,-36.1,19.8,4.7,-24.6,-0.0,n/a,OK,4.0,    
98.50,19.368,35792.2,4142.6,1229.6,5.03,-2.90,-2.51,237.3,-36.0,18.8,4.8,-26.0,-0.0,n/a,OK,4.0,    
99.00,19.338,35735.9,4156.2,1229.4,5.05,-2.90,-2.48,237.1,-19.4,17.7,4.8,-27.2,-0.0,n/a,OK,4.0,    
99.50,19.309,35679.2,4168.6,1229.2,4.93,-2.90,-2.45,237.1,-18.4,16.6,4.7,-28.3,-0.0,n/a,OK,4.0,    
100.00,19.279,35622.4,4179.8,1228.9,4.99,-2.90,-2.42,236.9,-57.8,15.5,4.7,-28.8,-0.0,n/a,OK,4.0,    
100.50,19.249,35565.4,4189.7,1228.4,5.16,-2.90,-2.40,236.7,-66.8,14.4,4.8,-28.4,-0.0,n/a,OK,4.0,    
101.00,19.219,35508.3,4198.4,1227.9,5.27,-2.90,-2.37,236.5,-44.0,13.3,5.0,-27.4,-0.0,n/a,OK,4.0,    
101.50,19.189,35450.6,4208.7,1227.7,5.25,-2.90,-2.34,236.4,-13.1,12.3,5.0,-26.3,-0.0,n/a,OK,4.0,    
102.00,19.158,35392.9,4217.9,1227.7,5.17,-2.90,-2.32,236.5,16.6,11.4,5.0,-25.1,-0.0,n/a,OK,4.0,    
102.50,19.128,35335.0,4225.7,1227.9,5.07,-2.90,-2.29,236.6,28.7,10.6,4.9,-23.9,-0.0,n/a,OK,4.0,    
103.00,19.097,35277.1,4232.2,1228.2,5.07,-2.89,-2.27,236.5,50.9,9.7,5.0,-22.8,-0.0,n/a,OK,4.0,    
103.50,19.066,35219.2,4237.4,1228.7,5.03,-2.89,-2.25,236.3,73.0,8.9,5.0,-21.8,-0.0,n/a,OK,4.0,    
104.00,19.036,35161.3,4241.5,1229.4,4.93,-2.89,-2.24,236.1,79.1,8.2,5.0,-20.8,-0.0,n/a,OK,4.0,    
104.50,19.005,35103.4,4244.4,1230.0,4.85,-2.89,-2.22,236.0,77.3,7.5,4.9,-19.8,-0.0,n/a,OK,4.0,    
105.00,18.974,35045.6,4246.2,1230.6,4.83,-2.89,-2.21,236.0,65.4,6.9,4.9,-18.8,-0.0,n/a,OK,4.0,    
105.50,18.943,34987.8,4247.2,1231.1,4.74,-2.89,-2.19,235.9,61.6,6.3,4.8,-17.9,-0.0,n/a,OK,4.0,    
106.00,18.912,34930.1,4247.1,1231.6,4.71,-2.89,-2.18,235.7,38.8,5.7,4.7,-17.1,-0.0,n/a,OK,4.0,    
106.50,18.881,34872.5,4246.3,1231.8,4.71,-2.89,-2.17,235.6,22.6,5.2,4.7,-16.3,-0.0,n/a,OK,4.0,    
107.00,18.850,34814.9,4244.7,1232.0,4.69,-2.89,-2.16,235.4,9.1,4.6,4.6,-15.6,-0.0,n/a,OK,4.0,    
107.50,18.819,34757.4,4242.3,1232.0,4.71,-2.88,-2.16,235.3,-5.3,4.1,4.6,-14.9,-0.0,n/a,OK,4.0,    
108.00,18.788,34700.0,4239.1,1231.9,4.69,-2.88,-2.15,235.4,-9.6,3.7,4.6,-14.2,-0.0,n/a,OK,4.0,    
108.50,18.757,34642.6,4235.3,1231.8,4.67,-2.88,-2.14,235.4,-15.3,3.3,4.5,-13.6,-0.0,n/a,OK,4.0,    
109.00,18.726,34585.3,4230.8,1231.7,4.61,-2.88,-2.14,235.5,-14.4,2.8,4.5,-12.9,-0.0,n/a,OK,4.0,    
109.50,18.695,34528.0,4225.7,1231.5,4.63,-2.88,-2.14,235.5,-31.7,2.4,4.5,-12.3,-0.0,n/a,OK,4.0,    
110.00,18.664,34470.7,4220.1,1231.2,4.66,-2.88,-2.13,235.5,-37.8,2.0,4.5,-11.8,0.0,n/a,OK,4.0,    
110.50,18.633,34413.6,4213.9,1230.9,4.66,-2.88,-2.13,235.6,-37.3,1.7,4.5,-11.2,0.0,n/a,OK,4.0,    
111.00,18.602,34356.4,4207.1,1230.6,4.65,-2.88,-2.13,235.7,-33.8,1.3,4.5,-10.7,0.0,n/a,OK,4.0,    
111.50,18.571,34299.3,4199.9,1230.3,4.62,-2.88,-2.13,235.9,-32.6,1.0,4.5,-10.2,0.0,n/a,OK,4.0,    
112.00,18.540,34242.1,4192.2,1230.0,4.61,-2.88,-2.13,236.1,-37.7,0.6,4.5,-9.8,0.0,n/a,OK,4.0,    
112.50,18.509,34185.0,4184.0,1229.6,4.60,-2.87,-2.14,236.2,-42.3,0.3,4.5,-9.3,0.0,n/a,OK,4.0,    
113.00,18.477,34128.0,4175.4,1229.3,4.64,-2.87,-2.14,236.3,-47.1,0.0,4.5,-8.9,0.0,n/a,OK,4.0,    
113.50,18.446,34070.9,4166.4,1228.9,4.61,-2.87,-2.14,236.3,-44.8,0.3,4.5,-8.5,0.0,n/a,OK,4.0,    
114.00,18.415,34014.0,4157.0,1228.5,4.59,-2.87,-2.15,236.3,-45.2,0.6,4.5,-8.1,0.0,n/a,OK,4.0,    
114.50,18.384,33957.1,4147.3,1228.1,4.59,-2.87,-2.15,236.1,-51.6,0.9,4.5,-7.7,0.0,n/a,OK,4.0,    
115.00,18.353,33900.3,4137.2,1227.7,4.60,-2.87,-2.16,235.9,-52.8,1.1,4.5,-7.4,0.0,n/a,OK,4.0,    
115.50,18.322,33843.6,4126.8,1227.2,4.64,-2.87,-2.16,235.8,-54.6,1.4,4.5,-7.0,0.0,n/a,OK,4.0,    
116.00,18.291,33787.1,4116.1,1226.8,4.63,-2.87,-2.17,235.7,-44.3,1.6,4.5,-6.7,0.0,n/a,OK,4.0,    
116.50,18.260,33730.6,4105.1,1226.5,4.63,-2.87,-2.17,235.5,-38.7,1.9,4.5,-6.4,0.0,n/a,OK,4.0,    
117.00,18.229,33674.1,4093.8,1226.2,4.67,-2.87,-2.18,235.4,-32.4,2.1,4.5,-6.2,0.0,n/a,OK,4.0,    
117.50,18.198,33617.8,4082.3,1226.0,4.62,-2.87,-2.19,235.2,-18.1,2.3,4.5,-5.9,0.0,n/a,OK,4.0,    
118.00,18.167,33561.6,4070.6,1225.8,4.63,-2.87,-2.20,235.1,-18.0,2.4,4.4,-5.6,0.0,n/a,OK,4.0,    
118.50,18.136,33505.4,4058.5,1225.7,4.61,-2.86,-2.21,235.3,-15.7,2.6,4.4,-5.4,0.0,n/a,OK,4.0,    
119.00,18.105,33449.2,4046.3,1225.6,4.56,-2.86,-2.22,235.4,-13.7,2.8,4.4,-5.1,0.0,n/a,OK,4.0,    
119.50,18.074,33393.0,4033.8,1225.4,4.53,-2.86,-2.23,235.4,-23.3,2.9,4.3,-4.9,0.0,n/a,OK,4.0,    
120.00,18.043,33336.9,4021.2,1225.2,4.55,-2.86,-2.24,235.4,-36.6,3.1,4.3,-4.7,0.0,n/a,OK,4.0,    
120.50,18.012,33280.9,4008.3,1224.9,4.55,-2.86,-2.25,235.2,-42.9,3.2,4.3,-4.5,0.0,n/a,OK,4.0,    
121.00,17.982,33224.9,3995.3,1224.4,4.60,-2.86,-2.26,235.1,-51.1,3.4,4.4,-4.3,0.0,n/a,OK,4.0,    
121.50,17.951,33169.0,3982.1,1224.0,4.60,-2.86,-2.27,235.1,-49.0,3.5,4.4,-4.1,0.0,n/a,OK,4.0,    
122.00,17.920,33113.1,3968.7,1223.6,4.60,-2.86,-2.28,235.1,-42.2,3.6,4.4,-3.9,0.0,n/a,OK,4.0,    
122.50,17.889,33057.3,3955.1,1223.3,4.60,-2.86,-2.29,235.0,-41.1,3.7,4.4,-3.7,0.0,n/a,OK,4.0,    
123.00,17.858,33001.5,3941.4,1223.0,4.59,-2.86,-2.30,234.9,-40.1,3.8,4.4,-3.6,0.0,n/a,OK,4.0,    
123.50,17.828,32945.8,3927.6,1222.6,4.58,-2.85,-2.31,234.9,-42.0,3.9,4.4,-3.4,0.0,n/a,OK,4.0,    
124.00,17.797,32890.1,3913.6,1222.3,4.59,-2.85,-2.33,235.1,-41.4,4.1,4.4,-3.3,0.0,n/a,OK,4.0,    
124.50,17.766,32834.3,3899.4,1221.9,4.60,-2.85,-2.34,235.2,-40.1,4.2,4.5,-3.1,0.0,n/a,OK,4.0,    
125.00,17.735,32778.6,3885.1,1221.6,4.60,-2.85,-2.35,235.3,-35.7,4.3,4.5,-3.0,0.0,n/a,OK,4.0,    
125.50,17.704,32722.9,3870.7,1221.3,4.59,-2.85,-2.37,235.3,-32.8,4.4,4.5,-2.8,0.0,n/a,OK,4.0,    
126.00,17.674,32667.2,3856.2,1221.1,4.63,-2.85,-2.38,235.5,-32.4,4.5,4.5,-2.7,0.0,n/a,OK,4.0,    
126.50,17.643,32611.5,3841.5,1220.8,4.61,-2.85,-2.39,235.6,-24.6,4.6,4.5,-2.6,0.0,n/a,OK,4.0,    
127.00,17.612,32555.8,3826.8,1220.7,4.61,-2.85,-2.41,235.7,-18.3,4.6,4.5,-2.5,0.0,n/a,OK,4.0,    
127.50,17.581,32500.2,3811.9,1220.5,4.62,-2.85,-2.42,235.7,-13.8,4.7,4.5,-2.3,0.0,n/a,OK,4.0,    
128.00,17.550,32444.5,3796.9,1220.4,4.60,-2.85,-2.44,235.8,-8.6,4.8,4.5,-1.7,0.0,n/a,OK,4.0,    
128.50,17.520,32388.8,3781.9,1220.4,4.55,-2.84,-2.45,235.9,-5.8,4.8,4.5,-0.9,0.0,n/a,OK,4.0,    
129.00,17.489,32333.1,3766.8,1220.3,4.53,-2.84,-2.47,236.0,-12.7,4.8,4.4,-0.1,0.0,n/a,OK,4.0,    
129.50,17.458,32277.4,3751.7,1220.1,4.51,-2.84,-2.48,235.9,-25.6,4.7,4.4,0.9,0.0,n/a,OK,4.0,    
130.00,17.427,32221.7,3736.7,1219.9,4.52,-2.84,-2.50,235.7,-40.0,4.6,4.4,1.7,0.0,n/a,OK,4.0,    
130.50,17.396,32166.1,3721.7,1219.5,4.57,-2.84,-2.51,235.6,-43.8,4.5,4.4,2.6,0.0,n/a,OK,4.0,    
131.00,17.366,32110.4,3706.8,1219.1,4.60,-2.84,-2.53,235.5,-41.4,4.3,4.5,3.4,0.0,n/a,OK,4.0,    
131.50,17.335,32054.8,3692.1,1218.8,4.65,-2.84,-2.54,235.5,-31.1,4.2,4.6,4.2,0.0,n/a,OK,4.0,    
132.00,17.304,31999.1,3677.5,1218.7,4.68,-2.84,-2.56,235.4,-12.1,4.0,4.6,4.9,0.0,n/a,OK,4.0,    
132.50,17.273,31943.4,3663.1,1218.6,4.69,-2.84,-2.57,235.2,9.4,3.8,4.6,5.5,0.0,n/a,OK,4.0,    
133.00,17.243,31887.6,3649.0,1218.8,4.64,-2.84,-2.58,235.1,24.8,3.5,4.6,6.2,0.0,n/a,OK,4.0,    
133.50,17.212,31831.8,3635.1,1219.0,4.61,-2.83,-2.60,235.4,31.0,3.3,4.6,6.7,0.0,n/a,OK,4.0,    
134.00,17.181,31775.9,3621.4,1219.3,4.64,-2.83,-2.61,235.5,33.2,3.0,4.6,7.3,0.0,n/a,OK,4.0,    
134.50,17.150,31719.9,3608.1,1219.6,4.61,-2.83,-2.62,235.5,38.1,2.7,4.6,7.8,0.0,n/a,OK,4.0,    
135.00,17.119,31663.9,3595.0,1219.9,4.60,-2.83,-2.64,235.4,35.8,2.4,4.6,8.2,0.0,n/a,OK,4.0,    
135.50,17.088,31607.7,3582.3,1220.2,4.59,-2.83,-2.65,235.4,31.2,2.1,4.6,8.6,0.0,n/a,OK,4.0,    
136.00,17.057,31551.5,3569.9,1220.4,4.63,-2.83,-2.66,235.5,26.2,1.8,4.7,8.9,0.0,n/a,OK,4.0,    
136.50,17.026,31495.2,3557.8,1220.6,4.66,-2.83,-2.67,235.7,28.7,1.5,4.7,9.3,-0.0,n/a,OK,4.0,    
137.00,16.996,31438.8,3546.2,1220.9,4.64,-2.82,-2.68,235.9,35.9,1.1,4.7,9.5,-0.0,n/a,OK,4.0,    
137.50,16.964,31382.3,3534.9,1221.2,4.65,-2.82,-2.69,235.8,35.9,0.8,4.7,9.7,-0.0,n/a,OK,4.0,    
138.00,16.933,31325.7,3524.0,1221.5,4.66,-2.82,-2.69,235.6,38.8,0.5,4.7,9.8,-0.0,n/a,OK,4.0,    
138.50,16.902,31269.1,3513.5,1221.8,4.64,-2.82,-2.70,235.4,44.4,0.2,4.7,9.9,-0.0,n/a,OK,4.0,    
139.00,16.872,31212.6,3503.5,1222.2,4.61,-2.82,-2.71,235.2,39.7,0.2,4.6,9.9,-0.0,n/a,OK,4.0,    
139.50,16.841,31155.9,3493.8,1222.5,4.61,-2.82,-2.71,235.2,32.1,0.6,4.6,9.9,-0.0,n/a,OK,4.0,    
140.00,16.810,31099.2,3484.6,1222.7,4.63,-2.82,-2.72,235.3,26.7,1.0,4.6,9.9,-0.0,n/a,OK,4.0,    
140.50,16.779,31042.4,3475.7,1223.0,4.59,-2.81,-2.72,235.4,26.5,1.4,4.6,9.8,-0.0,n/a,OK,4.0,    
141.00,16.748,30985.5,3467.3,1223.2,4.60,-2.81,-2.73,235.4,14.3,1.7,4.6,9.8,-0.0,n/a,OK,4.0,    
141.50,16.716,30928.6,3459.3,1223.2,4.62,-2.81,-2.73,235.4,6.1,2.1,4.7,9.6,-0.0,n/a,OK,4.0,    
142.00,16.685,30871.6,3451.6,1223.3,4.63,-2.81,-2.73,235.5,5.1,2.4,4.7,9.4,-0.0,n/a,OK,4.0,    
142.50,16.654,30814.6,3444.3,1223.3,4.65,-2.81,-2.73,235.6,4.3,2.7,4.7,9.2,-0.0,n/a,OK,4.0,    
143.00,16.623,30757.4,3437.5,1223.4,4.67,-2.81,-2.74,235.6,8.0,3.0,4.7,8.9,-0.0,n/a,OK,4.0,    
143.50,16.592,30700.3,3431.0,1223.5,4.66,-2.81,-2.74,235.5,18.9,3.3,4.7,8.6,-0.0,n/a,OK,4.0,    
144.00,16.561,30643.1,3424.9,1223.6,4.62,-2.81,-2.74,235.4,20.1,3.5,4.7,8.3,-0.0,n/a,OK,4.0,    
144.50,16.530,30585.9,3419.1,1223.8,4.59,-2.80,-2.73,235.3,20.1,3.8,4.7,7.9,-0.0,n/a,OK,4.0,    
145.00,16.499,30528.7,3413.6,1223.9,4.63,-2.80,-2.73,235.3,13.1,4.0,4.7,7.6,-0.0,n/a,OK,4.0,    
145.50,16.468,30471.5,3408.5,1224.1,4.61,-2.80,-2.73,235.3,17.2,4.2,4.6,7.1,-0.0,n/a,OK,4.0,    
146.00,16.437,30414.2,3403.6,1224.2,4.58,-2.80,-2.73,235.4,14.8,4.4,4.6,6.7,-0.0,n/a,OK,4.0,    
146.50,16.406,30356.9,3399.0,1224.3,4.60,-2.80,-2.72,235.4,-2.5,4.7,4.6,6.3,-0.0,n/a,OK,4.0,    
147.00,16.375,30299.6,3394.7,1224.0,4.67,-2.80,-2.72,235.4,-66.6,4.9,4.5,5.9,-0.0,n/a,OK,4.0,    
147.50,16.344,30242.3,3390.7,1223.0,4.92,-2.80,-2.72,235.2,-193.7,5.1,4.5,5.5,-0.0,n/a,OK,4.0,    
148.00,16.313,30185.1,3386.9,1220.6,5.35,-2.80,-2.71,234.8,-401.1,5.2,4.5,5.1,-0.0,n/a,OK,4.0,    
148.50,16.282,30128.0,3383.4,1216.2,5.90,-2.80,-2.70,234.3,-656.7,5.4,4.5,4.7,-0.0,n/a,OK,4.0,    
149.00,16.252,30070.9,3380.0,1210.5,5.92,-2.80,-2.70,234.3,-670.4,5.4,4.5,4.6,-0.0,n/a,OK,4.0,    
149.50,16.221,30013.9,3376.6,1205.2,5.77,-2.80,-2.69,234.5,-599.8,5.4,4.5,4.7,-0.0,n/a,OK,4.0,    
150.00,16.190,29956.7,3373.1,1200.4,5.67,-2.80,-2.69,234.5,-556.4,5.4,4.5,4.8,-0.0,n/a,OK,4.0,    
150.50,16.159,29899.9,3369.6,1195.9,5.64,-2.80,-2.68,228.0,-533.0,5.4,4.5,4.8,-0.0,n/a,OK,4.0,    
151.00,16.132,29848.9,3366.5,1191.7,5.62,-2.81,-2.68,189.2,-452.4,5.4,4.5,4.8,-0.0,n/a,OK,4.0,    
151.50,16.110,29808.2,3364.0,1188.3,5.62,-2.81,-2.67,153.4,-372.0,5.4,4.5,4.8,-0.0,n/a,OK,4.0,    
152.00,16.091,29774.7,3361.9,1185.4,5.56,-2.81,-2.67,132.4,-315.0,5.4,4.5,4.8,-0.0,n/a,OK,4.0,    
152.50,16.076,29745.6,3360.1,1183.0,5.51,-2.81,-2.67,118.0,-275.5,5.4,4.5,4.8,-0.0,n/a,OK,4.0,    
153.00,16.062,29720.2,3358.5,1180.8,5.46,-2.81,-2.66,103.8,-244.1,5.4,4.5,4.8,-0.0,n/a,OK,4.0,    
153.50,16.050,29698.4,3357.1,1178.9,5.44,-2.81,-2.66,89.6,-216.0,5.4,4.5,4.8,-0.0,n/a,OK,4.0,    
154.00,15.940,29494.0,3350.7,1220.2,4.60,-2.78,-2.63,235.9,-48.8,5.9,4.6,-0.7,-0.0,n/a,OK,4.0,    
154.50,15.909,29436.5,3348.0,1219.7,4.61,-2.78,-2.62,235.9,-47.0,5.9,4.6,-0.8,-0.0,n/a,OK,4.0,    
155.00,15.878,29379.0,3345.2,1219.4,4.62,-2.78,-2.62,235.9,-39.8,5.8,4.6,-1.1,-0.0,n/a,OK,4.0,    
155.50,15.847,29321.5,3342.4,1219.1,4.59,-2.78,-2.61,235.8,-24.8,5.7,4.6,-1.5,-0.0,n/a,OK,4.0,    
156.00,15.816,29264.0,3339.5,1219.0,4.57,-2.78,-2.60,235.6,-10.7,5.6,4.6,-1.9,-0.0,n/a,OK,4.0,    
156.50,15.785,29206.5,3336.5,1218.9,4.61,-2.77,-2.59,235.4,-8.1,5.5,4.6,-2.2,-0.0,n/a,OK,4.0,    
157.00,15.754,29149.2,3333.4,1218.8,4.63,-2.77,-2.59,235.2,-2.2,5.4,4.6,-2.5,-0.0,n/a,OK,4.0,    
157.50,15.723,29091.9,3330.2,1218.9,4.60,-2.77,-2.58,235.1,8.2,5.3,4.6,-2.8,-0.0,n/a,OK,4.0,    
158.00,15.692,29034.6,3326.8,1219.0,4.60,-2.77,-2.57,235.0,14.1,5.3,4.6,-3.0,-0.0,n/a,OK,4.0,    
158.50,15.661,28977.3,3323.3,1219.1,4.61,-2.77,-2.57,235.0,20.0,5.2,4.6,-3.2,-0.0,n/a,OK,4.0,    
159.00,15.630,28920.0,3319.7,1219.3,4.59,-2.77,-2.56,235.2,21.0,5.1,4.5,-3.4,-0.0,n/a,OK,4.0,    
159.50,15.599,28862.7,3316.0,1219.5,4.60,-2.76,-2.56,235.2,19.3,4.9,4.5,-3.6,-0.0,n/a,OK,4.0,    
160.00,15.568,28805.5,3312.1,1219.6,4.54,-2.76,-2.55,235.2,21.4,4.7,4.5,-3.7,-0.0,n/a,OK,4.0,    
160.50,15.537,28748.2,3308.1,1219.8,4.53,-2.76,-2.55,235.2,9.9,4.6,4.5,-3.9,-0.0,n/a,OK,4.0,    
161.00,15.507,28690.9,3303.9,1219.8,4.55,-2.76,-2.54,235.3,-2.5,4.4,4.5,-4.0,-0.0,n/a,OK,4.0,    
161.50,15.475,28633.6,3299.5,1219.8,4.58,-2.76,-2.54,235.4,-5.9,4.3,4.5,-4.1,-0.0,n/a,OK,4.0,    
162.00,15.444,28576.3,3295.0,1219.7,4.62,-2.76,-2.53,235.5,-1.3,4.1,4.6,-4.2,-0.0,n/a,OK,4.0,    
162.50,15.413,28519.0,3290.3,1219.7,4.61,-2.76,-2.53,235.2,2.5,3.9,4.6,-4.2,-0.0,n/a,OK,4.0,    
163.00,15.382,28461.8,3285.4,1219.8,4.58,-2.75,-2.53,235.1,6.7,3.7,4.6,-4.3,-0.0,n/a,OK,4.0,    
163.50,15.351,28404.6,3280.4,1219.8,4.60,-2.75,-2.52,235.2,3.1,3.6,4.6,-4.3,-0.0,n/a,OK,4.0,    
164.00,15.320,28347.4,3275.2,1219.8,4.59,-2.75,-2.52,235.3,4.8,3.4,4.6,-4.3,-0.0,n/a,OK,4.0,    
164.50,15.289,28290.2,3269.8,1219.9,4.59,-2.75,-2.52,235.5,2.9,3.3,4.6,-4.3,-0.0,n/a,OK,4.0,    
165.00,15.258,28232.9,3264.2,1219.9,4.64,-2.75,-2.51,235.7,4.0,3.1,4.6,-4.2,-0.0,n/a,OK,4.0,    
165.50,15.227,28175.6,3258.4,1220.0,4.62,-2.75,-2.51,235.8,13.9,3.0,4.6,-4.2,-0.0,n/a,OK,4.0,    
166.00,15.196,28118.3,3252.5,1220.1,4.56,-2.75,-2.51,235.9,17.6,2.9,4.6,-4.1,-0.0,n/a,OK,4.0,    
166.50,15.165,28061.1,3246.4,1220.2,4.50,-2.74,-2.51,235.7,9.0,2.7,4.5,-4.0,-0.0,n/a,OK,4.0,    
167.00,15.134,28003.9,3240.1,1220.2,4.56,-2.74,-2.51,235.6,-9.5,2.6,4.6,-3.9,-0.0,n/a,OK,4.0,    
167.50,15.103,27946.7,3233.7,1220.2,4.60,-2.74,-2.51,235.7,-10.8,2.5,4.6,-3.8,-0.0,n/a,OK,4.0,    
168.00,15.072,27889.5,3227.1,1220.1,4.61,-2.74,-2.51,235.8,-4.2,2.3,4.6,-3.6,-0.0,n/a,OK,4.0,    
168.50,15.041,27832.3,3220.4,1220.1,4.63,-2.74,-2.51,235.7,3.5,2.2,4.6,-3.5,-0.0,n/a,OK,4.0,    
169.00,15.010,27775.1,3213.5,1220.2,4.60,-2.74,-2.51,235.6,13.7,2.1,4.6,-3.3,-0.0,n/a,OK,4.0,    
169.50,14.979,27718.0,3206.5,1220.3,4.58,-2.73,-2.51,235.6,10.9,2.0,4.5,-3.1,-0.0,n/a,OK,4.0,    
170.00,14.948,27660.9,3199.3,1220.4,4.55,-2.73,-2.51,235.7,10.3,1.9,4.5,-3.0,-0.0,n/a,OK,4.0,    
170.50,14.916,27603.8,3192.0,1220.4,4.53,-2.73,-2.51,235.8,5.5,1.8,4.5,-2.8,-0.0,n/a,OK,4.0,    
171.00,14.885,27546.7,3184.6,1220.4,4.54,-2.73,-2.51,235.8,-2.8,1.7,4.5,-2.6,-0.0,n/a,OK,4.0,    
171.50,14.854,27489.6,3177.1,1220.4,4.55,-2.73,-2.52,235.8,-10.8,1.7,4.5,-2.4,-0.0,n/a,OK,4.0,    
172.00,14.823,27432.5,3169.5,1220.3,4.55,-2.73,-2.52,236.0,-16.3,1.6,4.5,-2.2,-0.0,n/a,OK,4.0,    
172.50,14.792,27375.3,3161.8,1220.1,4.54,-2.72,-2.52,236.2,-18.3,1.5,4.5,-2.0,-0.0,n/a,OK,4.0,    
173.00,14.761,27318.2,3154.0,1220.0,4.51,-2.72,-2.52,236.1,-24.3,1.5,4.5,-1.8,-0.0,n/a,OK,4.0,    
173.50,14.730,27261.0,3146.1,1219.7,4.59,-2.72,-2.53,236.0,-42.4,1.4,4.5,-1.6,-0.0,n/a,OK,4.0,    
174.00,14.699,27203.9,3138.2,1219.4,4.62,-2.72,-2.53,236.0,-34.1,1.4,4.6,-1.4,-0.0,n/a,OK,4.0,    
174.50,14.668,27146.8,3130.2,1219.1,4.58,-2.72,-2.53,236.1,-25.0,1.3,4.6,-1.2,-0.0,n/a,OK,4.0,    
175.00,14.636,27089.7,3122.2,1218.9,4.58,-2.72,-2.53,236.1,-22.2,1.3,4.6,-1.0,-0.0,n/a,OK,4.0,    
175.50,14.605,27032.6,3114.1,1218.8,4.57,-2.72,-2.54,236.0,-17.9,1.3,4.6,-0.8,-0.0,n/a,OK,4.0,    
176.00,14.574,26975.6,3106.0,1218.6,4.56,-2.71,-2.54,235.9,-23.2,1.3,4.6,-0.6,-0.0,n/a,OK,4.0,    
176.50,14.543,26918.5,3097.9,1218.4,4.60,-2.71,-2.54,235.8,-24.8,1.3,4.6,-0.4,-0.0,n/a,OK,4.0,    
177.00,14.512,26861.5,3089.7,1218.2,4.60,-2.71,-2.55,235.8,-17.3,1.3,4.6,-0.2,-0.0,n/a,OK,4.0,    
177.50,14.481,26804.5,3081.6,1218.1,4.53,-2.71,-2.55,235.7,-15.3,1.3,4.6,-0.0,-0.0,n/a,OK,4.0,    
178.00,14.450,26747.5,3073.4,1217.9,4.54,-2.71,-2.55,235.7,-23.6,1.3,4.5,0.2,-0.0,n/a,OK,4.0,    
178.50,14.419,26690.5,3065.3,1217.7,4.59,-2.71,-2.56,235.7,-29.6,1.3,4.6,0.3,-0.0,n/a,OK,4.0,    
179.00,14.388,26633.6,3057.1,1217.5,4.58,-2.70,-2.56,235.6,-23.8,1.3,4.6,0.5,-0.0,n/a,OK,4.0,    
179.50,14.357,26576.6,3049.0,1217.3,4.56,-2.70,-2.56,235.6,-22.3,1.3,4.6,0.6,-0.0,n/a,OK,4.0,    
180.00,14.326,26519.6,3040.9,1217.1,4.57,-2.70,-2.57,235.7,-28.5,1.4,4.6,0.7,-0.0,n/a,OK,4.0,    
180.50,14.294,26462.6,3032.8,1216.8,4.61,-2.70,-2.57,235.9,-24.8,1.4,4.7,0.9,-0.0,n/a,OK,4.0,    
181.00,14.263,26405.5,3024.7,1216.7,4.61,-2.70,-2.57,236.0,-12.0,1.5,4.7,1.0,-0.0,n/a,OK,4.0,    
181.50,14.232,26348.4,3016.7,1216.6,4.58,-2.70,-2.58,235.8,-6.4,1.5,4.7,1.2,-0.0,n/a,OK,4.0,    
182.00,14.201,26291.4,3008.7,1216.6,4.58,-2.69,-2.58,235.6,-7.2,1.5,4.7,1.3,-0.0,n/a,OK,4.0,    
182.50,14.170,26234.4,3000.8,1216.5,4.63,-2.69,-2.58,235.6,-2.8,1.6,4.8,1.4,-0.0,n/a,OK,4.0,    
183.00,14.139,26177.4,2993.0,1216.6,4.60,-2.69,-2.59,235.6,11.3,1.6,4.8,1.5,-0.0,n/a,OK,4.0,    
183.50,14.108,26120.4,2985.2,1216.7,4.59,-2.69,-2.59,235.5,12.9,1.7,4.7,1.6,-0.0,n/a,OK,4.0,    
184.00,14.077,26063.4,2977.5,1216.8,4.58,-2.69,-2.59,235.5,19.3,1.7,4.7,1.7,-0.0,n/a,OK,4.0,    
184.50,14.046,26006.4,2969.8,1217.0,4.61,-2.69,-2.59,235.5,18.1,1.8,4.7,1.7,-0.0,n/a,OK,4.0,    
185.00,14.015,25949.3,2962.3,1217.1,4.58,-2.68,-2.60,235.5,24.3,1.8,4.7,1.7,-0.0,n/a,OK,4.0,    
185.50,13.984,25892.3,2954.8,1217.3,4.58,-2.68,-2.60,235.4,23.5,1.9,4.7,1.8,-0.0,n/a,OK,4.0,    
186.00,13.953,25835.3,2947.4,1217.5,4.53,-2.68,-2.60,235.4,21.7,2.0,4.7,1.8,-0.0,n/a,OK,4.0,    
186.50,13.922,25778.3,2940.0,1217.7,4.54,-2.68,-2.60,235.5,14.1,2.0,4.6,1.9,-0.0,n/a,OK,4.0,    
187.00,13.891,25721.2,2932.7,1217.8,4.55,-2.68,-2.60,235.4,13.1,2.1,4.7,1.9,-0.0,n/a,OK,4.0,    
187.50,13.860,25664.2,2925.5,1217.9,4.58,-2.67,-2.60,235.3,5.5,2.2,4.6,1.9,-0.0,n/a,OK,4.0,    
188.00,13.829,25607.2,2918.4,1217.9,4.60,-2.67,-2.61,235.2,3.8,2.3,4.6,1.9,-0.0,n/a,OK,4.0,    
188.50,13.798,25550.2,2911.4,1218.0,4.60,-2.67,-2.61,235.4,14.1,2.3,4.6,1.9,-0.0,n/a,OK,4.0,    
189.00,13.766,25493.1,2904.4,1218.1,4.54,-2.67,-2.61,235.5,15.9,2.4,4.6,1.9,-0.0,n/a,OK,4.0,    
189.50,13.735,25436.0,2897.6,1218.2,4.53,-2.67,-2.61,235.6,8.1,2.4,4.6,1.9,-0.0,n/a,OK,4.0,    
190.00,13.704,25378.9,2890.7,1218.3,4.54,-2.66,-2.61,235.5,4.3,2.5,4.6,1.9,-0.0,n/a,OK,4.0,    
190.50,13.673,25321.7,2884.0,1218.3,4.55,-2.66,-2.61,235.5,-3.4,2.6,4.6,1.8,-0.0,n/a,OK,4.0,    
191.00,13.642,25264.6,2877.3,1218.2,4.56,-2.66,-2.61,235.6,-7.7,2.6,4.6,1.8,-0.0,n/a,OK,4.0,    
191.50,13.611,25207.4,2870.7,1218.2,4.57,-2.66,-2.61,235.8,-7.6,2.7,4.6,1.7,-0.0,n/a,OK,4.0,    
192.00,13.580,25150.2,2864.2,1218.1,4.54,-2.66,-2.61,235.8,-8.3,2.7,4.6,1.7,-0.0,n/a,OK,4.0,    
192.50,13.549,25093.0,2857.7,1218.0,4.60,-2.66,-2.61,235.9,-14.2,2.8,4.7,1.6,-0.0,n/a,OK,4.0,    
193.00,13.518,25035.7,2851.3,1217.9,4.59,-2.65,-2.61,235.8,-3.9,2.9,4.7,2.4,-0.0,n/a,OK,4.0,    
193.50,13.487,24978.5,2845.0,1217.9,4.60,-2.65,-2.61,235.9,-2.2,3.2,4.7,5.4,-0.0,n/a,OK,4.0,    
194.00,13.456,24921.2,2838.9,1217.9,4.65,-2.65,-2.61,236.0,9.9,3.6,4.7,7.3,-0.0,n/a,OK,4.0,    
194.50,13.425,24863.8,2833.2,1218.1,4.64,-2.65,-2.61,236.0,31.8,3.8,4.8,7.7,-0.0,n/a,OK,4.0,    
195.00,13.393,24806.5,2827.8,1218.4,4.62,-2.64,-2.60,235.9,42.8,4.1,4.8,7.5,-0.0,n/a,OK,4.0,    
195.50,13.362,24749.1,2822.6,1218.8,4.64,-2.64,-2.60,235.8,47.6,4.3,4.8,7.1,-0.0,n/a,OK,4.0,    
196.00,13.331,24691.7,2817.7,1219.2,4.60,-2.64,-2.60,235.6,55.8,4.5,4.8,6.8,-0.0,n/a,OK,4.0,    
196.50,13.300,24634.4,2813.1,1219.7,4.59,-2.64,-2.59,235.4,52.4,4.8,4.7,6.6,-0.0,n/a,OK,4.0,    
197.00,13.269,24577.1,2808.8,1220.1,4.62,-2.64,-2.59,235.3,46.6,5.0,4.7,6.3,-0.0,n/a,OK,4.0,    
197.50,13.238,24519.8,2804.8,1220.5,4.60,-2.63,-2.58,235.3,46.5,5.3,4.7,6.1,-0.0,n/a,OK,4.0,    
198.00,13.207,24462.5,2801.0,1220.8,4.58,-2.63,-2.57,235.4,43.8,5.5,4.6,5.9,-0.0,n/a,OK,4.0,    
198.50,13.176,24405.1,2797.4,1221.2,4.56,-2.63,-2.57,235.5,39.8,5.7,4.6,5.6,-0.0,n/a,OK,4.0,    
199.00,13.145,24347.7,2794.1,1221.5,4.56,-2.63,-2.56,235.5,33.9,5.9,4.6,5.4,-0.0,n/a,OK,4.0,    
199.50,13.114,24290.3,2791.0,1221.7,4.52,-2.62,-2.55,235.5,23.1,6.0,4.6,5.2,-0.0,n/a,OK,4.0,    
200.00,13.083,24232.8,2788.1,1221.8,4.53,-2.62,-2.54,235.5,8.6,6.2,4.5,4.9,-0.0,n/a,OK,4.0,    
200.50,13.052,24175.4,2785.4,1221.9,4.57,-2.62,-2.53,235.6,-2.0,6.3,4.5,4.7,-0.0,n/a,OK,4.0,    
201.00,13.021,24117.9,2782.9,1221.9,4.57,-2.62,-2.52,235.8,-1.0,6.5,4.5,4.5,-0.0,n/a,OK,4.0,    
201.50,12.990,24060.4,2780.6,1221.8,4.55,-2.62,-2.51,235.8,-1.0,6.6,4.5,4.3,-0.0,n/a,OK,4.0,    
202.00,12.959,24002.9,2778.5,1221.8,4.52,-2.61,-2.50,235.6,-6.9,6.7,4.5,4.1,-0.0,n/a,OK,4.0,    
202.50,12.928,23945.4,2776.5,1221.7,4.54,-2.61,-2.49,235.6,-21.4,6.8,4.5,3.9,-0.0,n/a,OK,4.0,    
203.00,12.897,23887.9,2774.7,1221.5,4.56,-2.61,-2.48,235.6,-25.9,7.0,4.6,3.7,-0.0,n/a,OK,4.0,    
203.50,12.866,23830.4,2773.1,1221.3,4.58,-2.61,-2.47,235.9,-28.8,7.1,4.6,3.6,-0.0,n/a,OK,4.0,    
204.00,12.835,23772.8,2771.6,1221.1,4.60,-2.61,-2.45,236.1,-23.8,7.2,4.6,3.4,-0.0,n/a,OK,4.0,    
204.50,12.804,23715.1,2770.2,1220.9,4.58,-2.60,-2.44,236.1,-13.8,7.3,4.6,3.3,-0.0,n/a,OK,4.0,    
205.00,12.774,23657.5,2769.0,1220.8,4.58,-2.60,-2.43,235.9,-12.7,7.4,4.6,3.1,-0.0,n/a,OK,4.0,    
205.50,12.743,23599.9,2767.9,1220.7,4.59,-2.60,-2.42,235.7,-13.3,7.5,4.6,3.0,-0.0,n/a,OK,4.0,    
206.00,12.712,23542.4,2767.0,1220.6,4.56,-2.60,-2.40,235.6,-8.7,7.6,4.6,2.9,-0.0,n/a,OK,4.0,    
206.50,12.681,23484.9,2766.2,1220.5,4.56,-2.60,-2.39,235.7,-12.1,7.7,4.6,2.8,-0.0,n/a,OK,4.0,    
207.00,12.650,23427.3,2765.5,1220.4,4.57,-2.59,-2.37,235.7,-12.4,7.8,4.6,2.6,-0.0,n/a,OK,4.0,    
207.50,12.619,23369.8,2764.8,1220.3,4.57,-2.59,-2.36,235.8,-12.8,7.9,4.6,2.5,-0.0,n/a,OK,4.0,    
208.00,12.588,23312.2,2764.3,1220.2,4.59,-2.59,-2.34,235.8,-11.0,8.0,4.6,2.3,-0.0,n/a,OK,4.0,    
208.50,12.557,23254.7,2763.9,1220.1,4.59,-2.59,-2.33,235.8,-10.3,8.1,4.6,2.2,-0.0,n/a,OK,4.0,    
209.00,12.526,23197.1,2763.6,1220.0,4.60,-2.58,-2.31,235.8,-6.2,8.2,4.6,2.2,-0.0,n/a,OK,4.0,    
209.50,12.495,23139.5,2763.4,1220.0,4.56,-2.58,-2.29,235.9,2.2,8.3,4.5,2.1,-0.0,n/a,OK,4.0,    
210.00,12.465,23081.9,2763.2,1220.0,4.54,-2.58,-2.28,235.9,-0.3,8.4,4.5,2.0,-0.0,n/a,OK,4.0,    
210.50,12.434,23024.3,2763.2,1219.9,4.51,-2.58,-2.26,235.8,-4.7,8.4,4.5,2.0,-0.0,n/a,OK,4.0,    
211.00,12.403,22966.8,2763.2,1219.9,4.54,-2.58,-2.24,235.7,-13.6,8.5,4.5,1.9,-0.0,n/a,OK,4.0,    
211.50,12.372,22909.2,2763.3,1219.7,4.58,-2.57,-2.22,235.6,-15.8,8.5,4.5,1.8,-0.0,n/a,OK,4.0,    
212.00,12.341,22851.7,2763.5,1219.6,4.59,-2.57,-2.21,235.6,-12.6,8.5,4.5,1.7,-0.0,n/a,OK,4.0,    
212.50,12.310,22794.2,2763.8,1219.5,4.57,-2.57,-2.19,235.7,-10.5,8.6,4.5,1.6,-0.0,n/a,OK,4.0,    
213.00,12.280,22736.7,2764.1,1219.4,4.60,-2.57,-2.17,235.8,-11.3,8.6,4.5,1.5,-0.0,n/a,OK,4.0,    
213.50,12.249,22679.1,2764.4,1219.3,4.59,-2.56,-2.15,235.8,-3.8,8.6,4.5,1.5,-0.0,n/a,OK,4.0,    
214.00,12.218,22621.5,2764.9,1219.4,4.57,-2.56,-2.13,235.7,3.2,8.6,4.4,1.4,-0.0,n/a,OK,4.0,    
214.50,12.187,22564.0,2765.4,1219.4,4.55,-2.56,-2.11,235.6,0.7,8.7,4.4,1.3,-0.0,n/a,OK,4.0,    
215.00,12.156,22506.5,2765.9,1219.4,4.53,-2.56,-2.10,235.6,-5.8,8.8,4.4,1.2,-0.0,n/a,OK,4.0,    
215.50,12.125,22449.0,2766.5,1219.3,4.54,-2.56,-2.08,235.7,-14.3,8.8,4.4,1.2,-0.0,n/a,OK,4.0,    
216.00,12.095,22391.4,2767.1,1219.1,4.60,-2.55,-2.06,235.8,-16.1,8.9,4.4,1.1,-0.0,n/a,OK,4.0,    
216.50,12.064,22333.8,2767.8,1219.0,4.59,-2.55,-2.04,235.9,-8.0,9.0,4.4,1.1,-0.0,n/a,OK,4.0,    
217.00,12.033,22276.2,2768.6,1219.0,4.53,-2.55,-2.02,236.0,-5.1,9.0,4.4,1.1,-0.0,n/a,OK,4.0,    
217.50,12.002,22218.6,2769.3,1218.9,4.51,-2.55,-2.00,236.0,-13.5,9.1,4.4,1.0,-0.0,n/a,OK,4.0,    
218.00,11.971,22160.9,2770.2,1218.8,4.53,-2.54,-1.98,236.0,-23.8,9.1,4.4,1.0,-0.0,n/a,OK,4.0,    
218.50,11.941,22103.3,2771.0,1218.5,4.57,-2.54,-1.95,236.1,-32.0,9.1,4.4,0.9,-0.0,n/a,OK,4.0,    
219.00,11.910,22045.7,2771.9,1218.3,4.62,-2.54,-1.93,236.1,-25.6,9.1,4.4,0.9,-0.0,n/a,OK,4.0,    
219.50,11.879,21988.0,2772.9,1218.1,4.58,-2.54,-1.91,236.1,-16.2,9.1,4.4,0.9,-0.0,n/a,OK,4.0,    
220.00,11.848,21930.4,2773.9,1217.9,4.56,-2.53,-1.89,236.1,-13.8,9.1,4.4,0.8,-0.0,n/a,OK,4.0,    
220.50,11.817,21872.8,2774.9,1217.8,4.55,-2.53,-1.87,236.1,-15.5,9.1,4.4,0.8,-0.0,n/a,OK,4.0,    
221.00,11.787,21815.1,2776.0,1217.7,4.56,-2.53,-1.85,236.2,-16.9,9.2,4.4,0.7,-0.0,n/a,OK,4.0,    
221.50,11.756,21757.5,2777.0,1217.5,4.55,-2.53,-1.83,236.2,-19.0,9.2,4.5,0.6,-0.0,n/a,OK,4.0,    
222.00,11.725,21699.8,2778.1,1217.4,4.57,-2.52,-1.80,236.2,-21.7,9.2,4.5,0.6,-0.0,n/a,OK,4.0,    
222.50,11.694,21642.1,2779.2,1217.2,4.55,-2.52,-1.78,236.2,-17.8,9.3,4.5,0.6,-0.0,n/a,OK,4.0,    
223.00,11.663,21584.5,2780.4,1217.0,4.56,-2.52,-1.76,236.2,-20.8,9.3,4.5,0.3,-0.0,n/a,OK,4.0,    
223.50,11.633,21526.8,2781.5,1216.9,4.57,-2.52,-1.74,236.1,-22.8,9.2,4.5,-0.3,-0.0,n/a,OK,4.0,    
224.00,11.602,21469.2,2782.7,1216.7,4.57,-2.51,-1.71,236.2,-22.0,9.2,4.5,-1.2,-0.0,n/a,OK,4.0,    
224.50,11.571,21411.5,2783.7,1216.5,4.59,-2.51,-1.69,236.2,-16.9,9.1,4.6,-2.0,-0.0,n/a,OK,4.0,    
225.00,11.540,21353.8,2784.7,1216.4,4.61,-2.51,-1.67,236.2,-11.6,9.0,4.6,-2.8,-0.0,n/a,OK,4.0,    
225.50,11.509,21296.2,2785.6,1216.3,4.65,-2.51,-1.65,236.2,1.2,8.8,4.7,-3.6,-0.0,n/a,OK,4.0,    
226.00,11.479,21238.5,2786.4,1216.4,4.62,-2.50,-1.62,236.2,20.1,8.7,4.7,-4.3,-0.0,n/a,OK,4.0,    
226.50,11.448,21180.8,2786.9,1216.6,4.62,-2.50,-1.60,236.2,29.7,8.5,4.7,-5.1,-0.0,n/a,OK,4.0,    
227.00,11.417,21123.1,2787.3,1216.9,4.60,-2.50,-1.58,236.2,38.0,8.3,4.7,-5.7,-0.0,n/a,OK,4.0,    
227.50,11.386,21065.5,2787.4,1217.2,4.57,-2.50,-1.56,236.1,40.7,8.0,4.7,-6.3,-0.0,n/a,OK,4.0,    
228.00,11.355,21007.8,2787.2,1217.6,4.56,-2.49,-1.54,236.1,38.2,7.7,4.7,-6.9,-0.0,n/a,OK,4.0,    
228.50,11.324,20950.2,2786.8,1217.9,4.58,-2.49,-1.52,236.1,34.9,7.4,4.8,-7.4,-0.0,n/a,OK,4.0,    
229.00,11.293,20892.5,2786.1,1218.2,4.63,-2.49,-1.50,236.0,32.7,7.1,4.8,-7.9,-0.0,n/a,OK,4.0,    
229.50,11.262,20834.9,2785.1,1218.5,4.65,-2.48,-1.48,235.8,41.1,6.8,4.8,-8.3,-0.0,n/a,OK,4.0,    
230.00,11.232,20777.4,2783.8,1218.8,4.63,-2.48,-1.47,235.7,47.6,6.4,4.8,-8.7,-0.0,n/a,OK,4.0,    
230.50,11.201,20719.9,2782.0,1219.2,4.62,-2.48,-1.45,235.6,52.9,6.0,4.8,-9.0,-0.0,n/a,OK,4.0,    
231.00,11.170,20662.4,2779.9,1219.7,4.63,-2.47,-1.43,235.5,50.4,5.7,4.8,-9.3,-0.0,n/a,OK,4.0,    
231.50,11.139,20605.0,2777.4,1220.1,4.62,-2.47,-1.42,235.5,48.8,5.3,4.8,-9.6,-0.0,n/a,OK,4.0,    
232.00,11.108,20547.6,2774.6,1220.5,4.61,-2.47,-1.41,235.6,47.4,5.0,4.8,-9.8,-0.0,n/a,OK,4.0,    
232.50,11.077,20490.1,2771.3,1220.9,4.65,-2.46,-1.39,235.6,47.5,4.7,4.8,-9.9,-0.0,n/a,OK,4.0,    
233.00,11.046,20432.7,2767.6,1221.3,4.64,-2.46,-1.38,235.6,50.0,4.4,4.8,-9.9,-0.0,n/a,OK,4.0,    
233.50,11.015,20375.3,2763.5,1221.7,4.62,-2.46,-1.37,235.5,54.1,4.0,4.8,-9.9,-0.0,n/a,OK,4.0,    
234.00,10.984,20318.0,2758.9,1222.1,4.59,-2.45,-1.36,235.5,45.8,3.6,4.7,-9.9,-0.0,n/a,OK,4.0,    
234.50,10.953,20260.7,2754.0,1222.5,4.61,-2.45,-1.35,235.5,40.8,3.3,4.7,-9.8,-0.0,n/a,OK,4.0,    
235.00,10.922,20203.5,2748.7,1222.8,4.63,-2.45,-1.35,235.5,39.1,2.9,4.7,-9.8,-0.0,n/a,OK,4.0,    
235.50,10.891,20146.2,2742.9,1223.2,4.64,-2.45,-1.34,235.6,42.0,2.6,4.7,-9.7,-0.0,n/a,OK,4.0,    
236.00,10.860,20089.0,2736.8,1223.5,4.59,-2.44,-1.34,235.6,42.8,2.3,4.6,-9.5,-0.0,n/a,OK,4.0,    
236.50,10.829,20031.9,2730.2,1223.8,4.57,-2.44,-1.33,235.5,36.7,2.0,4.6,-9.2,-0.0,n/a,OK,4.0,    
237.00,10.798,19974.8,2723.3,1224.1,4.61,-2.44,-1.33,235.6,24.2,1.7,4.6,-9.0,-0.0,n/a,OK,4.0,    
237.50,10.767,19917.7,2716.0,1224.3,4.58,-2.43,-1.33,235.6,24.4,1.4,4.6,-8.7,0.0,n/a,OK,4.0,    
238.00,10.736,19860.7,2708.4,1224.5,4.58,-2.43,-1.33,235.6,17.9,1.1,4.6,-8.4,0.0,n/a,OK,4.0,    
238.50,10.704,19803.7,2700.4,1224.6,4.57,-2.43,-1.33,235.6,9.0,0.8,4.5,-8.1,0.0,n/a,OK,4.0,    
239.00,10.673,19746.7,2692.0,1224.7,4.57,-2.42,-1.33,235.7,1.1,0.5,4.5,-7.7,0.0,n/a,OK,4.0,    
239.50,10.642,19689.8,2683.4,1224.6,4.57,-2.42,-1.33,235.8,-6.8,0.3,4.5,-7.3,0.0,n/a,OK,4.0,    
240.00,10.611,19632.8,2674.4,1224.6,4.60,-2.42,-1.34,235.9,-7.9,0.1,4.5,-6.9,0.0,n/a,OK,4.0,    
240.50,10.580,19575.9,2665.1,1224.5,4.59,-2.41,-1.34,235.9,-5.0,0.1,4.5,-6.5,0.0,n/a,OK,4.0,    
241.00,10.549,19519.1,2655.6,1224.5,4.57,-2.41,-1.35,235.7,-6.7,0.3,4.5,-6.1,0.0,n/a,OK,4.0,    
241.50,10.518,19462.4,2645.9,1224.4,4.53,-2.41,-1.35,235.5,-12.8,0.5,4.5,-5.7,0.0,n/a,OK,4.0,    
242.00,10.487,19405.8,2635.9,1224.3,4.52,-2.40,-1.36,235.5,-26.0,0.6,4.5,-5.2,0.0,n/a,OK,4.0,    
242.50,10.456,19349.1,2625.7,1224.0,4.58,-2.40,-1.37,235.6,-34.9,0.8,4.5,-4.7,0.0,n/a,OK,4.0,    
243.00,10.425,19292.5,2615.3,1223.7,4.61,-2.40,-1.37,235.7,-31.2,0.9,4.5,-4.2,0.0,n/a,OK,4.0,    
243.50,10.394,19235.9,2604.7,1223.5,4.57,-2.39,-1.38,235.5,-25.2,1.1,4.5,-3.7,0.0,n/a,OK,4.0,    
244.00,10.363,19179.4,2594.0,1223.3,4.56,-2.39,-1.39,235.4,-26.6,1.2,4.5,-3.2,0.0,n/a,OK,4.0,    
244.50,10.332,19122.9,2583.2,1223.0,4.54,-2.39,-1.40,235.2,-26.4,1.3,4.5,-2.8,0.0,n/a,OK,4.0,    
245.00,10.301,19066.5,2572.2,1222.8,4.53,-2.39,-1.41,235.0,-34.8,1.3,4.5,-2.3,0.0,n/a,OK,4.0,    
245.50,10.270,19010.2,2561.1,1222.4,4.55,-2.38,-1.42,235.0,-46.1,1.4,4.5,-1.8,0.0,n/a,OK,4.0,    
246.00,10.239,18953.9,2550.0,1222.0,4.54,-2.38,-1.43,235.0,-45.5,1.4,4.5,-1.4,0.0,n/a,OK,4.0,    
246.50,10.208,18897.5,2538.8,1221.6,4.54,-2.38,-1.44,234.9,-49.8,1.4,4.5,-0.9,0.0,n/a,OK,4.0,    
247.00,10.177,18841.2,2527.6,1221.2,4.58,-2.37,-1.45,234.9,-53.3,1.4,4.5,-0.4,0.0,n/a,OK,4.0,    
247.50,10.146,18785.0,2516.3,1220.8,4.58,-2.37,-1.46,234.9,-52.7,1.4,4.5,-0.0,0.0,n/a,OK,4.0,    
248.00,10.115,18728.7,2505.1,1220.4,4.58,-2.37,-1.47,234.9,-49.7,1.4,4.5,0.4,0.0,n/a,OK,4.0,    
248.50,10.084,18672.4,2493.8,1219.9,4.60,-2.36,-1.48,235.1,-47.3,1.3,4.5,0.8,0.0,n/a,OK,4.0,    
249.00,10.053,18616.0,2482.6,1219.6,4.59,-2.36,-1.50,235.3,-33.4,1.3,4.5,1.1,0.0,n/a,OK,4.0,    
249.50,10.022,18559.6,2471.4,1219.3,4.59,-2.36,-1.51,235.6,-27.3,1.3,4.5,1.5,0.0,n/a,OK,4.0,    
250.00,9.991,18503.1,2460.3,1219.1,4.60,-2.35,-1.52,235.8,-18.2,1.2,4.6,1.8,0.0,n/a,OK,4.0,    
250.50,9.960,18446.5,2449.2,1219.0,4.60,-2.35,-1.53,235.7,-5.9,1.1,4.6,2.1,0.0,n/a,OK,4.0,    
251.00,9.929,18390.0,2438.2,1219.0,4.58,-2.35,-1.54,235.7,1.5,1.0,4.5,2.4,0.0,n/a,OK,4.0,    
251.50,9.898,18333.5,2427.3,1219.0,4.54,-2.34,-1.55,235.7,2.6,0.9,4.5,2.7,0.0,n/a,OK,4.0,    
252.00,9.867,18276.9,2416.5,1219.1,4.58,-2.34,-1.56,235.8,-0.7,0.8,4.5,2.9,-0.0,n/a,OK,4.0,    
252.50,9.836,18220.3,2405.9,1219.0,4.57,-2.34,-1.57,235.8,1.7,0.7,4.5,3.2,-0.0,n/a,OK,4.0,    
253.00,9.805,18163.6,2395.3,1219.1,4.57,-2.33,-1.58,235.6,6.0,0.6,4.5,3.4,-0.0,n/a,OK,4.0,    
253.50,9.774,18107.0,2384.9,1219.1,4.57,-2.33,-1.59,235.6,3.6,0.4,4.5,3.6,-0.0,n/a,OK,4.0,    
254.00,9.743,18050.4,2374.7,1219.2,4.60,-2.33,-1.60,235.7,3.2,0.3,4.6,3.8,-0.0,n/a,OK,4.0,    
254.50,9.712,17993.7,2364.6,1219.2,4.58,-2.32,-1.60,235.6,15.0,0.2,4.6,4.0,-0.0,n/a,OK,4.0,    
255.00,9.681,17937.0,2354.7,1219.3,4.54,-2.32,-1.61,235.5,13.7,0.0,4.5,4.1,-0.0,n/a,OK,4.0,    
255.50,9.650,17880.3,2344.9,1219.4,4.57,-2.31,-1.62,235.4,6.5,0.1,4.5,4.2,-0.0,n/a,OK,4.0,    
256.00,9.619,17823.6,2335.3,1219.5,4.59,-2.31,-1.63,235.5,6.1,0.2,4.6,4.2,-0.0,n/a,OK,4.0,    
256.50,9.588,17766.8,2325.9,1219.5,4.56,-2.31,-1.63,235.6,8.6,0.4,4.6,4.3,-0.0,n/a,OK,4.0,    
257.00,9.556,17710.0,2316.7,1219.6,4.56,-2.30,-1.64,235.7,6.3,0.5,4.6,4.3,-0.0,n/a,OK,4.0,    
257.50,9.525,17653.1,2307.6,1219.7,4.58,-2.30,-1.64,235.8,8.0,0.6,4.6,4.3,-0.0,n/a,OK,4.0,    
258.00,9.494,17596.2,2298.7,1219.7,4.56,-2.29,-1.65,235.7,11.0,0.8,4.6,4.3,-0.0,n/a,OK,4.0,    
258.50,9.463,17539.3,2290.0,1219.8,4.59,-2.29,-1.65,235.6,9.6,1.0,4.6,4.3,-0.0,n/a,OK,4.0,    
259.00,9.432,17482.4,2281.4,1219.9,4.61,-2.29,-1.66,235.4,15.5,1.1,4.6,4.3,-0.0,n/a,OK,4.0,    
259.50,9.401,17425.5,2273.0,1220.1,4.56,-2.28,-1.66,235.2,18.0,1.3,4.5,4.2,-0.0,n/a,OK,4.0,    
260.00,9.370,17368.7,2264.9,1220.2,4.53,-2.28,-1.66,235.2,14.5,1.4,4.5,4.2,-0.0,n/a,OK,4.0,    
260.50,9.339,17311.8,2256.9,1220.3,4.53,-2.27,-1.66,235.3,6.0,1.6,4.5,4.1,-0.0,n/a,OK,4.0,    
261.00,9.308,17254.8,2249.0,1220.3,4.56,-2.27,-1.66,235.3,-0.3,1.7,4.5,4.0,-0.0,n/a,OK,4.0,    
261.50,9.277,17197.9,2241.3,1220.3,4.60,-2.27,-1.66,235.4,-1.1,1.9,4.6,3.9,-0.0,n/a,OK,4.0,    
262.00,9.246,17140.9,2233.8,1220.3,4.59,-2.26,-1.66,235.4,6.0,2.0,4.5,3.8,-0.0,n/a,OK,4.0,    
262.50,9.215,17083.7,2227.4,1220.4,4.54,-2.26,-1.66,235.4,6.6,2.1,4.5,3.6,-0.0,n/a,OK,4.0,    
263.00,9.184,17026.5,2221.7,1220.4,4.49,-2.25,-1.65,235.5,-0.2,2.3,4.5,3.5,-0.0,n/a,OK,4.0,    
263.50,9.153,16969.3,2215.8,1220.3,4.55,-2.25,-1.65,235.5,-13.7,2.4,4.5,3.3,-0.0,n/a,OK,4.0,    
264.00,9.122,16912.2,2210.0,1220.2,4.58,-2.24,-1.64,235.5,-13.8,2.5,4.6,3.2,-0.0,n/a,OK,4.0,    
264.50,9.091,16855.0,2204.3,1220.1,4.50,-2.24,-1.64,235.6,-9.6,2.6,4.6,3.0,-0.0,n/a,OK,4.0,    
265.00,9.060,16797.9,2198.5,1220.0,4.55,-2.24,-1.63,235.8,-24.1,2.7,4.6,2.8,-0.0,n/a,OK,4.0,    
265.50,9.029,16740.7,2192.7,1219.8,4.62,-2.23,-1.63,235.9,-23.8,2.7,4.6,2.6,-0.0,n/a,OK,4.0,    
266.00,8.998,16683.6,2186.9,1219.6,4.64,-2.23,-1.62,236.1,-9.7,2.8,4.6,2.4,-0.0,n/a,OK,4.0,    
266.50,8.967,16626.4,2181.2,1219.6,4.58,-2.22,-1.61,236.1,5.3,2.9,4.6,2.2,-0.0,n/a,OK,4.0,    
267.00,8.936,16569.3,2175.5,1219.7,4.54,-2.22,-1.61,236.0,5.0,2.9,4.5,2.0,-0.0,n/a,OK,4.0,    
267.50,8.905,16512.2,2169.8,1219.7,4.52,-2.21,-1.60,235.9,2.1,3.0,4.5,1.8,-0.0,n/a,OK,4.0,    
268.00,8.874,16455.2,2164.1,1219.7,4.56,-2.21,-1.59,235.7,-8.1,3.1,4.5,1.6,-0.0,n/a,OK,4.0,    
268.50,8.843,16398.2,2158.4,1219.6,4.56,-2.21,-1.59,235.6,-9.1,3.1,4.5,1.4,-0.0,n/a,OK,4.0,    
269.00,8.812,16341.3,2152.8,1219.5,4.54,-2.20,-1.58,235.4,-8.4,3.1,4.5,1.2,-0.0,n/a,OK,4.0,    
269.50,8.781,16284.4,2147.2,1219.5,4.54,-2.20,-1.57,235.3,-15.9,3.1,4.5,1.0,-0.0,n/a,OK,4.0,    
270.00,8.751,16227.5,2141.5,1219.3,4.53,-2.19,-1.57,235.4,-19.7,3.2,4.5,0.8,-0.0,n/a,OK,4.0,    
270.50,8.720,16170.6,2135.9,1219.1,4.55,-2.19,-1.56,235.4,-25.0,3.2,4.5,0.6,-0.0,n/a,OK,4.0,    
271.00,8.689,16113.7,2130.3,1218.9,4.57,-2.18,-1.55,235.6,-25.4,3.2,4.5,0.4,-0.0,n/a,OK,4.0,    
271.50,8.658,16056.8,2124.6,1218.7,4.58,-2.18,-1.55,235.7,-22.2,3.2,4.5,0.2,-0.0,n/a,OK,4.0,    
272.00,8.627,15999.9,2119.0,1218.5,4.56,-2.17,-1.54,235.6,-19.5,3.2,4.5,-0.0,-0.0,n/a,OK,4.0,    
272.50,8.596,15942.9,2113.3,1218.4,4.56,-2.17,-1.53,235.6,-20.5,3.2,4.5,-0.2,-0.0,n/a,OK,4.0,    
273.00,8.565,15886.0,2107.6,1218.2,4.57,-2.17,-1.53,235.6,-18.4,3.2,4.4,-0.3,-0.0,n/a,OK,4.0,    
273.50,8.534,15829.1,2101.8,1218.1,4.59,-2.16,-1.52,235.6,-13.6,3.1,4.4,-0.5,-0.0,n/a,OK,4.0,    
274.00,8.504,15772.2,2096.0,1218.0,4.56,-2.16,-1.51,235.5,-11.1,3.1,4.4,-0.6,-0.0,n/a,OK,4.0,    
274.50,8.473,15715.3,2090.2,1217.9,4.56,-2.15,-1.51,235.5,-13.3,3.1,4.4,-0.8,-0.0,n/a,OK,4.0,    
275.00,8.442,15658.4,2084.4,1217.7,4.61,-2.15,-1.50,235.7,-13.7,3.1,4.4,-1.0,-0.0,n/a,OK,4.0,    
275.50,8.411,15601.4,2078.5,1217.7,4.56,-2.14,-1.50,236.0,2.0,3.0,4.5,-1.1,-0.0,n/a,OK,4.0,    
276.00,8.380,15544.4,2072.5,1217.7,4.50,-2.14,-1.49,236.3,0.9,3.0,4.4,-1.1,-0.0,n/a,OK,4.0,    
276.50,8.349,15487.3,2066.5,1217.7,4.50,-2.13,-1.48,236.2,-13.2,2.9,4.4,-1.3,-0.0,n/a,OK,4.0,    
277.00,8.318,15430.3,2060.4,1217.5,4.56,-2.13,-1.48,236.1,-22.6,2.8,4.5,-1.4,-0.0,n/a,OK,4.0,    
277.50,8.287,15373.3,2054.2,1217.3,4.60,-2.12,-1.47,236.2,-21.3,2.8,4.5,-1.5,-0.0,n/a,OK,4.0,    
278.00,8.256,15316.3,2048.0,1217.2,4.57,-2.12,-1.47,236.3,-7.5,2.7,4.5,-1.6,-0.0,n/a,OK,4.0,    
278.50,8.225,15259.2,2041.7,1217.2,4.59,-2.11,-1.46,236.3,-4.4,2.7,4.5,-1.7,-0.0,n/a,OK,4.0,    
279.00,8.194,15202.2,2035.3,1217.1,4.59,-2.11,-1.46,236.4,1.1,2.6,4.6,-1.7,-0.0,n/a,OK,4.0,    
279.50,8.163,15145.1,2028.9,1217.2,4.57,-2.10,-1.45,236.5,12.9,2.6,4.6,-1.8,-0.0,n/a,OK,4.0,    
280.00,8.132,15088.1,2022.3,1217.3,4.55,-2.10,-1.45,236.4,14.3,2.5,4.5,-1.8,-0.0,n/a,OK,4.0,    
280.50,8.101,15031.0,2015.7,1217.4,4.54,-2.09,-1.44,236.3,10.6,2.5,4.5,-1.8,-0.0,n/a,OK,4.0,    
281.00,8.070,14974.0,2009.0,1217.5,4.51,-2.09,-1.44,236.3,5.3,2.4,4.5,-1.8,-0.0,n/a,OK,4.0,    
281.50,8.039,14917.1,2002.2,1217.5,4.52,-2.08,-1.44,236.3,-3.6,2.4,4.5,-1.8,-0.0,n/a,OK,4.0,    
282.00,8.008,14860.1,1995.4,1217.4,4.56,-2.07,-1.43,236.4,-9.6,2.3,4.6,-1.9,-0.0,n/a,OK,4.0,    
282.50,7.977,14803.1,1988.5,1217.4,4.56,-2.07,-1.43,236.3,-7.6,2.2,4.6,-1.9,-0.0,n/a,OK,4.0,    
283.00,7.946,14746.1,1981.5,1217.3,4.55,-2.06,-1.43,236.3,-5.9,2.1,4.6,-1.9,-0.0,n/a,OK,4.0,    
283.50,7.915,14689.2,1974.4,1217.3,4.57,-2.06,-1.42,236.2,-7.2,2.1,4.6,-1.9,-0.0,n/a,OK,4.0,    
284.00,7.884,14632.3,1967.2,1217.2,4.55,-2.05,-1.42,236.1,-4.9,2.0,4.6,-1.8,-0.0,n/a,OK,4.0,    
284.50,7.853,14575.4,1960.0,1217.1,4.60,-2.05,-1.42,236.1,-8.5,2.0,4.7,-1.8,-0.0,n/a,OK,4.0,    
285.00,7.822,14518.5,1952.7,1217.1,4.61,-2.04,-1.42,236.0,2.9,1.9,4.7,-1.8,-0.0,n/a,OK,4.0,    
285.50,7.791,14461.7,1945.3,1217.2,4.56,-2.04,-1.42,236.0,10.4,1.9,4.7,-1.7,-0.0,n/a,OK,4.0,    
286.00,7.760,14404.8,1937.9,1217.2,4.55,-2.03,-1.42,235.9,8.1,1.8,4.7,-1.7,-0.0,n/a,OK,4.0,    
286.50,7.730,14348.1,1930.3,1217.3,4.53,-2.02,-1.42,235.8,14.0,1.8,4.7,-1.6,-0.0,n/a,OK,4.0,    
287.00,7.699,14291.3,1922.7,1217.4,4.58,-2.02,-1.42,235.8,2.0,1.7,4.7,-1.6,-0.0,n/a,OK,4.0,    
287.50,7.668,14234.6,1915.1,1217.4,4.63,-2.01,-1.42,235.8,8.0,1.7,4.7,-1.5,-0.0,n/a,OK,4.0,    
288.00,7.637,14177.8,1907.4,1217.5,4.62,-2.01,-1.42,235.7,20.5,1.6,4.6,-1.4,-0.0,n/a,OK,4.0,    
288.50,7.606,14121.1,1899.7,1217.8,4.56,-2.00,-1.42,235.7,28.4,1.6,4.6,-1.3,-0.0,n/a,OK,4.0,    
289.00,7.575,14064.4,1891.8,1218.0,4.50,-1.99,-1.42,235.7,26.2,1.5,4.5,-1.2,-0.0,n/a,OK,4.0,    
289.50,7.544,14007.7,1884.0,1218.2,4.45,-1.99,-1.42,235.7,13.9,1.5,4.5,-1.1,-0.0,n/a,OK,4.0,    
290.00,7.513,13951.0,1876.1,1218.2,4.48,-1.98,-1.42,235.5,-3.4,1.4,4.5,-1.1,-0.0,n/a,OK,4.0,    
290.50,7.482,13894.4,1868.1,1218.1,4.53,-1.97,-1.42,235.3,-18.5,1.4,4.5,-1.0,-0.0,n/a,OK,4.0,    
291.00,7.451,13837.8,1860.1,1218.0,4.54,-1.97,-1.42,235.1,-19.9,1.3,4.6,-0.9,-0.0,n/a,OK,4.0,    
291.50,7.421,13781.3,1852.1,1217.8,4.59,-1.96,-1.42,235.0,-19.8,1.3,4.6,-0.8,-0.0,n/a,OK,4.0,    
292.00,7.390,13724.8,1844.0,1217.6,4.58,-1.96,-1.42,234.9,-13.8,1.2,4.6,-0.7,-0.0,n/a,OK,4.0,    
292.50,7.359,13668.4,1836.0,1217.5,4.58,-1.95,-1.43,235.0,-11.4,1.2,4.6,-0.7,-0.0,n/a,OK,4.0,    
293.00,7.328,13611.8,1827.9,1217.4,4.58,-1.94,-1.43,235.3,-7.2,1.2,4.6,-0.6,-0.0,n/a,OK,4.0,    
293.50,7.297,13555.2,1819.7,1217.4,4.58,-1.94,-1.43,235.6,0.9,1.2,4.6,-0.5,-0.0,n/a,OK,4.0,    
294.00,7.266,13498.5,1811.5,1217.4,4.57,-1.93,-1.43,235.9,5.2,1.2,4.6,-0.4,-0.0,n/a,OK,4.0,    
294.50,7.235,13441.8,1803.3,1217.5,4.55,-1.92,-1.43,235.9,6.7,1.2,4.5,-0.3,-0.0,n/a,OK,4.0,    
295.00,7.204,13385.1,1795.1,1217.5,4.52,-1.92,-1.44,236.0,2.0,1.2,4.5,-0.2,-0.0,n/a,OK,4.0,    
295.50,7.174,13328.4,1786.8,1217.5,4.53,-1.91,-1.44,236.1,-6.0,1.2,4.5,-0.1,-0.0,n/a,OK,4.0,    
296.00,7.143,13271.6,1778.6,1217.5,4.57,-1.90,-1.44,236.2,-7.1,1.3,4.5,-0.1,-0.0,n/a,OK,4.0,    
296.50,7.112,13214.8,1770.3,1217.4,4.59,-1.90,-1.44,236.3,-4.6,1.3,4.5,0.0,-0.0,n/a,OK,4.0,    
297.00,7.081,13158.0,1762.0,1217.4,4.54,-1.89,-1.45,236.4,2.0,1.3,4.5,0.1,-0.0,n/a,OK,4.0,    
297.50,7.050,13101.2,1753.8,1217.4,4.53,-1.88,-1.45,236.4,2.0,1.3,4.4,0.2,-0.0,n/a,OK,4.0,    
298.00,7.019,13044.4,1745.5,1217.4,4.54,-1.87,-1.45,236.3,-2.1,1.3,4.4,0.2,-0.0,n/a,OK,4.0,    
298.50,6.988,12987.6,1737.3,1217.4,4.52,-1.87,-1.45,236.2,-4.5,1.3,4.4,0.3,-0.0,n/a,OK,4.0,    
299.00,6.957,12930.8,1729.1,1217.3,4.52,-1.86,-1.46,236.2,-9.4,1.3,4.4,0.4,-0.0,n/a,OK,4.0,    
299.50,6.926,12874.0,1720.9,1217.2,4.53,-1.85,-1.46,236.2,-16.2,1.3,4.4,0.4,-0.0,n/a,OK,4.0,    
300.00,6.895,12817.2,1712.7,1217.1,4.59,-1.85,-1.46,236.1,-20.1,1.3,4.5,0.5,-0.0,n/a,OK,4.0,    
300.50,6.864,12760.5,1704.5,1216.9,4.61,-1.84,-1.46,235.9,-6.3,1.3,4.5,0.5,-0.0,n/a,OK,4.0,    
301.00,6.833,12703.8,1696.4,1216.9,4.57,-1.83,-1.47,235.7,5.5,1.3,4.5,0.6,-0.0,n/a,OK,4.0,    
301.50,6.802,12647.1,1688.3,1217.0,4.55,-1.82,-1.47,235.6,5.6,1.3,4.4,0.6,-0.0,n/a,OK,4.0,    
302.00,6.771,12590.5,1680.2,1217.0,4.55,-1.82,-1.47,235.5,7.3,1.3,4.4,0.6,-0.0,n/a,OK,4.0,    
302.50,6.740,12533.9,1672.2,1217.1,4.56,-1.81,-1.47,235.4,5.1,1.3,4.4,0.6,-0.0,n/a,OK,4.0,    
303.00,6.709,12477.3,1664.1,1217.2,4.51,-1.80,-1.47,235.2,7.3,1.3,4.4,1.3,-0.0,n/a,OK,4.0,    
303.50,6.678,12420.7,1656.2,1217.2,4.51,-1.79,-1.48,235.1,-6.8,1.7,4.4,4.9,-0.0,n/a,OK,4.0,    
304.00,6.648,12364.2,1648.4,1217.1,4.60,-1.79,-1.48,235.2,-9.7,2.0,4.5,7.5,-0.0,n/a,OK,4.0,    
304.50,6.617,12307.5,1641.0,1217.1,4.67,-1.78,-1.47,235.3,8.4,2.3,4.6,8.2,-0.0,n/a,OK,4.0,    
305.00,6.586,12250.8,1634.0,1217.2,4.68,-1.77,-1.47,235.5,27.9,2.6,4.7,8.1,-0.0,n/a,OK,4.0,    
305.50,6.555,12194.0,1627.2,1217.5,4.65,-1.76,-1.47,235.5,44.6,2.8,4.7,7.7,-0.0,n/a,OK,4.0,    
306.00,6.524,12137.2,1620.7,1217.9,4.62,-1.75,-1.46,235.6,53.6,3.1,4.7,7.4,-0.0,n/a,OK,4.0,    
