#Time,Rho,X,Z,Alt,AoA,GSE,LUE,Vtot,Vy,Gamma,Pitch,Roll,Yaw,Step,Grade,Points,Details
0.00,1.172,2332.5,21.2,431.3,8.04,-0.15,-8.51,136.4,-596.1,33.6,4.8,-35.2,-0.1,X0,OK,4.0,    
0.50,1.158,2306.7,40.4,426.0,8.11,-0.16,-8.01,135.9,-663.9,31.9,4.8,-31.5,-0.1,X0,OK,4.0,    
1.00,1.144,2280.2,58.5,420.4,8.30,-0.16,-7.53,135.9,-657.5,30.2,5.1,-27.5,-0.1,X0,OK,4.0,    
1.50,1.129,2253.1,75.4,415.1,8.17,-0.16,-7.06,135.6,-617.2,28.4,5.1,-26.2,-0.1,X0,OK,4.0,    
2.00,1.115,2225.5,91.2,410.0,7.83,-0.16,-6.61,135.2,-609.7,26.8,4.9,-25.4,-0.1,X0,OK,4.0,    
2.50,1.100,2197.5,105.8,405.0,7.39,-0.16,-6.18,134.7,-592.0,26.0,4.8,-21.4,-0.1,X0,OK,4.0,    
3.00,1.085,2169.2,119.5,400.2,7.46,-0.16,-5.77,133.7,-557.3,24.9,5.0,-18.7,-0.1,X0,OK,4.0,    
3.50,1.070,2141.0,132.3,395.7,7.94,-0.15,-5.37,131.7,-530.2,23.7,5.7,-17.4,-0.1,X0,OK,4.0,    
4.00,1.056,2112.9,144.2,391.5,8.13,-0.14,-4.98,130.2,-479.9,22.8,6.1,-15.4,-0.1,X0,OK,4.0,    
4.50,1.041,2084.8,155.3,387.6,7.96,-0.13,-4.61,129.8,-440.5,22.0,6.1,-14.2,-0.1,X0,OK,4.0,    
5.00,1.026,2056.6,165.8,384.1,7.68,-0.11,-4.24,130.0,-399.8,21.3,6.0,-13.0,-0.1,X0,OK,4.0,    
5.50,1.011,2028.1,175.8,380.9,7.63,-0.10,-3.88,129.7,-351.4,20.6,6.1,-12.0,-0.1,X0,OK,4.0,    
6.00,0.996,1999.5,185.1,378.2,7.66,-0.07,-3.52,129.2,-306.3,20.0,6.4,-11.0,-0.1,X0,OK,4.0,    
6.50,0.982,1971.0,193.9,375.9,7.71,-0.04,-3.17,128.7,-254.7,19.5,6.6,-9.7,-0.1,X0,OK,4.0,    
7.00,0.967,1942.5,202.3,373.9,7.84,-0.01,-2.82,128.2,-204.4,18.9,7.0,-9.5,-0.1,X0,OK,4.0,    
7.50,0.952,1913.9,210.3,372.5,7.91,0.03,-2.48,127.7,-151.8,18.2,7.2,-9.8,-0.1,X0,OK,4.0,    
8.00,0.937,1885.4,217.8,371.4,7.74,0.07,-2.14,127.2,-106.6,17.5,7.2,-10.2,-0.1,X0,OK,4.0,    
8.50,0.922,1856.9,224.8,370.6,7.53,0.12,-1.81,126.7,-78.2,16.9,7.2,-10.4,-0.1,X0,OK,4.0,    
9.00,0.908,1828.5,231.4,370.0,7.64,0.17,-1.48,125.7,-74.7,16.3,7.4,-9.7,-0.0,X0,OK,4.0,    
9.50,0.893,1800.3,237.5,369.4,7.97,0.22,-1.15,124.4,-74.5,15.7,7.6,-9.1,-0.0,X0,OK,4.0,    
10.00,0.878,1772.4,243.2,368.7,8.24,0.27,-0.83,123.0,-84.4,14.8,7.7,-10.3,-0.1,X0,OK,4.0,    
10.50,0.864,1744.9,248.5,367.9,8.15,0.32,-0.52,121.2,-122.9,13.9,7.4,-12.3,-0.0,X0,OK,4.0,    
11.00,0.850,1717.7,253.2,366.6,8.01,0.37,-0.22,119.2,-203.6,13.2,6.9,-13.1,-0.0,X0,OK,4.0,    
11.50,0.836,1691.0,257.3,364.5,8.13,0.41,0.07,117.6,-307.7,12.3,6.6,-13.9,-0.0,X0,OK,4.0,    
12.00,0.822,1664.6,261.0,361.5,8.56,0.43,0.36,116.3,-411.0,10.8,6.4,-16.5,-0.0,X0,OK,4.0,    
12.50,0.809,1638.2,264.0,357.7,8.51,0.46,0.62,116.5,-507.5,9.5,5.9,-18.1,-0.0,X0,OK,4.0,    
13.00,0.795,1611.6,266.3,353.1,8.06,0.47,0.87,117.9,-599.3,8.5,5.2,-18.8,-0.0,X0,OK,4.0,    
13.50,0.780,1584.7,267.8,347.7,7.77,0.48,1.10,118.9,-692.5,7.5,4.6,-19.1,-0.0,X0,OK,4.0,    
14.00,0.766,1557.5,268.7,341.5,7.94,0.48,1.32,119.4,-787.5,6.3,4.5,-19.4,-0.0,X0,OK,4.0,    
14.50,0.752,1530.2,268.8,334.7,8.29,0.47,1.52,119.8,-859.6,5.0,4.5,-19.7,-0.0,X0,OK,4.0,    
15.00,0.737,1502.9,268.0,327.3,8.38,0.45,1.69,120.3,-917.4,3.6,4.4,-20.0,-0.0,X0,OK,4.0,    
15.50,0.722,1475.4,266.5,319.4,8.23,0.43,1.84,121.2,-978.8,2.3,4.0,-19.7,-0.0,XX,OK,4.0,    
16.00,0.707,1447.7,264.1,311.0,8.20,0.40,1.96,122.2,-1037.1,1.4,3.9,-17.5,0.0,XX,(OK),3.0,(H)OSX    
16.50,0.692,1419.8,260.9,302.2,8.26,0.37,2.05,123.1,-1059.5,0.7,3.9,-13.5,0.0,XX,(OK),3.0,(H)OSX    
17.00,0.677,1391.8,257.1,293.4,8.18,0.34,2.13,124.0,-1046.9,0.2,3.9,-9.6,-0.0,XX,(OK),3.0,(H)OSX    
17.50,0.662,1363.6,253.0,284.8,7.98,0.31,2.19,124.4,-1018.5,0.4,3.9,-7.9,-0.0,XX,(OK),3.0,(H)OSX    
18.00,0.646,1335.5,248.4,276.4,7.81,0.28,2.24,123.8,-1017.5,0.9,3.8,-7.3,-0.0,XX,(OK),3.0,(H)OSX    
18.50,0.631,1307.6,243.5,267.9,7.87,0.24,2.27,123.7,-1025.9,1.3,3.8,-6.8,-0.0,XX,(OK),3.0,(H)OSX    
19.00,0.616,1279.7,238.3,259.3,7.94,0.21,2.29,124.6,-1013.6,1.4,4.0,-5.2,-0.0,XX,(OK),3.0,(H)OSX    
19.50,0.600,1251.5,232.8,251.0,8.05,0.18,2.29,125.8,-979.2,1.4,4.2,-3.3,0.0,XX,(OK),3.0,(H)OSX    
20.00,0.585,1223.0,227.0,243.1,8.01,0.15,2.29,126.6,-915.4,1.2,4.5,-1.0,0.0,XX,(OK),3.0,(H)OSX    
20.50,0.569,1194.4,221.2,235.7,7.87,0.13,2.29,126.9,-857.7,1.4,4.6,-1.4,-0.0,XX,(OK),3.0,(H)OSX    
21.00,0.553,1165.8,215.4,228.7,7.84,0.12,2.29,126.2,-811.2,1.8,4.7,-3.4,0.0,XX,(OK),3.0,(H)OSX    
21.50,0.537,1137.5,209.3,222.1,7.90,0.11,2.27,125.5,-781.0,2.1,4.7,-4.8,0.0,XX,(OK),3.0,(H)OSX    
22.00,0.522,1109.3,203.1,215.7,8.05,0.10,2.24,125.3,-764.8,2.2,4.9,-5.1,0.0,XX,(OK),3.0,(H)OSX    
22.50,0.506,1081.3,196.7,209.4,8.28,0.09,2.20,125.1,-741.1,2.3,5.2,-4.1,0.0,XX,(OK),3.0,(H)OSX    
23.00,0.491,1053.2,190.1,203.3,8.35,0.09,2.15,124.9,-721.0,2.4,5.3,-3.3,0.0,IM,(OK),3.0,(H)OSX    
23.50,0.475,1025.3,183.4,197.4,8.12,0.09,2.08,124.6,-712.5,2.4,5.2,-1.7,0.0,IM,(OK),3.0,(H)OSX LURIM   
24.00,0.460,997.5,176.7,191.4,7.92,0.09,2.01,124.1,-721.4,2.3,4.9,0.3,0.0,IM,(OK),3.0,(H)OSX LURIM   
24.50,0.444,969.8,170.0,185.3,7.89,0.08,1.93,123.9,-729.5,2.1,4.9,3.2,0.0,IM,(OK),3.0,(H)OSX LURIM   
25.00,0.429,942.0,163.4,179.3,7.99,0.08,1.86,124.6,-716.5,1.9,5.2,5.4,-0.0,IM,(OK),3.0,(H)OSX LURIM   
25.50,0.413,913.9,157.0,173.5,7.85,0.08,1.79,126.0,-663.1,1.7,5.5,5.1,-0.0,IM,(OK),3.0,(H)OSX LURIM   
26.00,0.398,885.5,150.7,168.2,7.83,0.10,1.73,126.6,-605.9,1.5,5.7,3.8,-0.0,IM,(OK),3.0,(H)OSX LURIM   
26.50,0.382,857.0,144.4,163.3,7.72,0.12,1.68,125.7,-578.6,1.6,5.8,1.6,0.0,IM,(OK),3.0,(H)OSX LURIM   
27.00,0.366,828.9,138.2,158.5,7.74,0.15,1.62,124.7,-574.7,1.8,5.8,-0.3,0.0,IM,(OK),3.0,(H)OSX LURIM   
27.50,0.351,800.9,132.1,153.7,7.90,0.18,1.55,124.3,-571.0,1.9,5.9,-0.9,0.0,IM,(OK),3.0,(H)OSX LURIM   
28.00,0.336,773.0,125.8,149.0,8.00,0.21,1.47,124.1,-560.9,1.7,6.1,0.4,0.0,IM,(OK),3.0,(H)OSX LURIM   
28.50,0.320,745.2,119.6,144.4,8.05,0.25,1.39,123.9,-552.1,1.4,6.1,1.5,0.0,IM,(OK),3.0,(H)OSX LURIM   
29.00,0.305,717.4,113.6,139.8,7.97,0.29,1.31,123.6,-556.8,1.2,6.1,1.8,0.0,IM,(OK),3.0,(H)OSX LURIM   
29.50,0.290,689.6,107.6,135.1,7.83,0.33,1.23,123.4,-575.4,1.1,5.9,1.7,0.0,IM,(OK),3.0,(H)OSX LURIM   
30.00,0.274,661.9,101.6,130.2,7.58,0.37,1.15,123.2,-590.9,1.1,5.7,1.6,0.0,IM,(OK),3.0,(H)OSX LURIM   
30.50,0.259,634.2,95.8,125.2,7.55,0.41,1.06,123.0,-617.1,1.0,5.4,1.7,0.0,IM,(OK),3.0,(H)OSX LURIM   
31.00,0.244,606.6,89.9,119.9,7.38,0.44,0.98,122.9,-646.2,0.8,5.1,3.6,0.0,IC,(OK),3.0,(H)OSX (H)LURIM   
31.50,0.228,578.9,84.3,114.4,7.42,0.47,0.90,122.9,-679.9,0.5,4.8,5.0,-0.0,IC,(OK),3.0,(H)OSX (H)LURIM  (FHLUR)IC 
32.00,0.213,551.2,78.9,108.6,7.77,0.50,0.83,123.2,-712.0,0.2,4.9,5.1,-0.0,IC,(OK),3.0,(H)OSX (H)LURIM  (FHLUR)IC 
32.50,0.198,523.4,73.6,102.6,7.99,0.51,0.79,123.7,-729.0,0.1,5.2,3.8,-0.0,IC,(OK),3.0,(H)OSX (H)LURIM  (FHLUR)IC 
33.00,0.183,495.4,68.5,96.5,8.37,0.53,0.76,124.2,-741.1,0.1,5.4,1.8,-0.0,IC,(OK),3.0,(H)OSX (H)LURIM  (FHLUR)IC 
33.50,0.167,467.2,63.4,90.3,8.54,0.55,0.73,124.8,-731.0,0.2,5.6,-0.4,-0.0,IC,(OK),3.0,(H)OSX (H)LURIM  (FHLUR)IC 
34.00,0.152,438.9,58.2,84.4,8.20,0.59,0.69,125.5,-697.3,0.1,5.4,-1.2,0.0,IC,(OK),3.0,(H)OSX (H)LURIM  (FHLUR)IC 
34.50,0.136,410.4,53.0,78.6,7.58,0.64,0.64,126.1,-682.0,0.0,4.9,-0.4,0.0,IC,(OK),3.0,(H)OSX (H)LURIM  (FHLUR)IC 
35.00,0.120,381.9,47.8,72.9,7.31,0.71,0.58,126.0,-695.8,0.2,4.5,0.3,0.0,IC,(OK),3.0,(H)OSX (H)LURIM  (FHLUR)IC 
35.50,0.105,353.3,42.6,67.0,7.30,0.78,0.52,126.0,-710.2,0.4,4.6,0.8,0.0,IC,(OK),3.0,(H)OSX (H)LURIM  (FHLUR)IC 
36.00,0.089,324.8,37.5,61.1,7.76,0.87,0.47,126.1,-720.5,0.2,5.0,1.5,-0.0,IC,(OK),3.0,(H)OSX (H)LURIM  (FHLUR)IC 
36.50,0.073,296.2,32.4,55.1,8.23,0.97,0.40,126.2,-703.7,0.3,5.6,1.3,-0.0,IC,(OK),3.0,(H)OSX (H)LURIM  (F)H(LUR)IC 
37.00,0.058,267.6,27.4,49.4,8.39,1.13,0.35,126.1,-675.7,0.3,5.9,0.8,-0.0,IC,(OK),3.0,(H)OSX (H)LURIM  (F)H(LUR)IC 
37.50,0.042,239.0,22.5,43.8,8.08,1.37,0.28,126.2,-673.9,0.2,5.6,-0.1,-0.0,IC,(OK),3.0,(H)OSX (H)LURIM  (F)H(LUR)IC 
38.00,0.026,210.4,17.5,38.1,8.17,1.70,0.18,126.4,-682.9,0.1,5.4,-0.8,-0.0,AR,(OK),3.0,(H)OSX (H)LURIM  (F)H(LUR)IC 
38.50,0.010,181.7,12.5,32.4,8.00,2.23,-0.00,126.5,-678.5,0.1,5.2,-0.6,-0.0,AR,--,2.0,(H)OSX (H)LURIM  (F)H(LUR)IC _H_AR
39.00,-0.005,152.9,7.4,26.8,7.90,3.21,-0.34,127.1,-679.5,0.0,5.2,0.4,-0.0,AR,--,2.0,(H)OSX (H)LURIM  (F)H(LUR)IC _H_AR
39.50,-0.021,123.8,2.3,21.1,7.71,5.71,-1.17,129.7,-666.0,0.2,5.3,0.3,-0.0,AR,--,2.0,(H)OSX (H)LURIM  (F)H(LUR)IC _H_AR
40.00,-0.038,93.8,-2.9,15.8,6.92,23.89,-7.42,133.9,-602.6,0.5,4.9,-0.2,0.0,AR,--,2.0,(H)OSX (H)LURIM  (F)H(LUR)IC _H_AR
40.50,-0.055,62.7,-8.2,11.1,6.77,5.06,-176.05,138.0,-524.9,0.2,4.8,0.5,-0.0,AR,--,2.0,(H)OSX (H)LURIM  (F)H(LUR)IC _H_AR
41.00,-0.072,30.6,-13.7,7.3,7.00,-1.18,-178.05,141.7,-353.5,0.1,5.6,0.3,-0.0,AR,--,2.0,(H)OSX (H)LURIM  (F)H(LUR)IC _H_AR
41.50,-0.090,-2.4,-19.4,5.3,6.56,-2.45,-178.55,145.3,-107.4,0.0,6.3,-0.6,-0.0,AR,--,2.0,(H)OSX (H)LURIM  (F)H(LUR)IC _H_AR
42.00,-0.109,-36.4,-25.3,5.6,6.20,-2.71,-178.76,149.1,182.0,0.3,6.9,-1.3,0.0,AR,--,2.0,(H)OSX (H)LURIM  (F)H(LUR)IC _H_AR
42.50,-0.128,-71.3,-31.4,8.2,6.61,-2.59,-178.87,152.8,463.1,0.4,7.8,-1.4,0.0,AR,--,2.0,(H)OSX (H)LURIM  (F)H(LUR)IC _H_AR
43.00,-0.148,-106.9,-37.6,13.2,7.08,-2.31,-178.94,153.0,747.9,0.1,9.8,-4.8,0.0,AR,--,2.0,(H)OSX (H)LURIM  (F)H(LUR)IC _H_AR
43.50,-0.167,-141.8,-43.9,20.5,9.33,-1.94,-178.93,149.9,1022.5,0.9,12.6,-6.8,0.0,AR,--,2.0,(H)OSX (H)LURIM  (F)H(LUR)IC _H_AR
44.00,-0.186,-176.0,-50.5,30.4,9.92,-1.50,-178.84,147.4,1350.7,1.7,14.3,-7.7,0.0,AR,--,2.0,(H)OSX (H)LURIM  (F)H(LUR)IC _H_AR
